[{"id": 739812, "name": "\u015eenlikk\u00f6y", "state": "", "country": "TR", "coord": {"lon": 28.79817, "lat": 40.976849}}, {"id": 739816, "name": "\u015eenkaya", "state": "", "country": "TR", "coord": {"lon": 42.346939, "lat": 40.561939}}, {"id": 739838, "name": "Selimpa\u015fa", "state": "", "country": "TR", "coord": {"lon": 28.37895, "lat": 41.05584}}, {"id": 739847, "name": "Selim", "state": "", "country": "TR", "coord": {"lon": 42.783951, "lat": 40.463261}}, {"id": 739887, "name": "\u015eehremini", "state": "", "country": "TR", "coord": {"lon": 28.931549, "lat": 41.015202}}, {"id": 739914, "name": "\u015eebin Karahisar", "state": "", "country": "TR", "coord": {"lon": 38.423611, "lat": 40.28833}}, {"id": 739917, "name": "Seben", "state": "", "country": "TR", "coord": {"lon": 31.573589, "lat": 40.411339}}, {"id": 739950, "name": "\u015eav\u015fat", "state": "", "country": "TR", "coord": {"lon": 42.361092, "lat": 41.240269}}, {"id": 740088, "name": "Sar\u0131kam\u0131\u015f", "state": "", "country": "TR", "coord": {"lon": 42.573059, "lat": 40.338058}}, {"id": 740177, "name": "Sarayd\u00fcz\u00fc", "state": "", "country": "TR", "coord": {"lon": 34.846859, "lat": 41.328651}}, {"id": 740205, "name": "Saray", "state": "", "country": "TR", "coord": {"lon": 27.92194, "lat": 41.444309}}, {"id": 740230, "name": "Sapanca", "state": "", "country": "TR", "coord": {"lon": 30.26738, "lat": 40.69141}}, {"id": 740263, "name": "Samsun", "state": "", "country": "TR", "coord": {"lon": 36.333328, "lat": 41.25}}, {"id": 740264, "name": "Samsun", "state": "", "country": "TR", "coord": {"lon": 36.330002, "lat": 41.286671}}, {"id": 740303, "name": "\u015ealpazar\u0131", "state": "", "country": "TR", "coord": {"lon": 39.19556, "lat": 40.941109}}, {"id": 740352, "name": "Sakarya", "state": "", "country": "TR", "coord": {"lon": 30.58333, "lat": 40.75}}, {"id": 740430, "name": "Safranbolu", "state": "", "country": "TR", "coord": {"lon": 32.694172, "lat": 41.250832}}, {"id": 740462, "name": "\u015eaban\u00f6z\u00fc", "state": "", "country": "TR", "coord": {"lon": 33.28352, "lat": 40.482491}}, {"id": 740481, "name": "Rize", "state": "", "country": "TR", "coord": {"lon": 40.89489, "lat": 40.90443}}, {"id": 740483, "name": "Rize", "state": "", "country": "TR", "coord": {"lon": 40.521938, "lat": 41.020828}}, {"id": 740490, "name": "Re\u015fadiye", "state": "", "country": "TR", "coord": {"lon": 37.337502, "lat": 40.391941}}, {"id": 740531, "name": "Posof", "state": "", "country": "TR", "coord": {"lon": 42.729172, "lat": 41.511108}}, {"id": 740560, "name": "Piraziz", "state": "", "country": "TR", "coord": {"lon": 38.11784, "lat": 40.95314}}, {"id": 740561, "name": "Piraziz", "state": "", "country": "TR", "coord": {"lon": 38.133331, "lat": 40.933331}}, {"id": 740570, "name": "P\u0131narhisar", "state": "", "country": "TR", "coord": {"lon": 27.52, "lat": 41.624168}}, {"id": 740581, "name": "P\u0131narba\u015f\u0131", "state": "", "country": "TR", "coord": {"lon": 33.110989, "lat": 41.603882}}, {"id": 740605, "name": "Per\u015fembe", "state": "", "country": "TR", "coord": {"lon": 37.771389, "lat": 41.065559}}, {"id": 740650, "name": "Pehlivank\u00f6y", "state": "", "country": "TR", "coord": {"lon": 26.92522, "lat": 41.348122}}, {"id": 740659, "name": "Pazaryolu", "state": "", "country": "TR", "coord": {"lon": 40.771042, "lat": 40.42083}}, {"id": 740675, "name": "Pazar", "state": "", "country": "TR", "coord": {"lon": 40.884171, "lat": 41.179169}}, {"id": 740677, "name": "Pazar", "state": "", "country": "TR", "coord": {"lon": 36.28347, "lat": 40.27652}}, {"id": 740729, "name": "Pamukova", "state": "", "country": "TR", "coord": {"lon": 30.16732, "lat": 40.508099}}, {"id": 740828, "name": "Ovac\u0131k", "state": "", "country": "TR", "coord": {"lon": 32.919941, "lat": 41.076611}}, {"id": 740881, "name": "Osmaneli", "state": "", "country": "TR", "coord": {"lon": 30.01417, "lat": 40.35722}}, {"id": 740883, "name": "Osmanc\u0131k", "state": "", "country": "TR", "coord": {"lon": 34.804699, "lat": 40.97818}}, {"id": 740920, "name": "Ortaova", "state": "", "country": "TR", "coord": {"lon": 35.51944, "lat": 40.813889}}, {"id": 740940, "name": "Ortak\u00f6y", "state": "", "country": "TR", "coord": {"lon": 28.375879, "lat": 41.10154}}, {"id": 740941, "name": "Hem\u015fin", "state": "", "country": "TR", "coord": {"lon": 40.893581, "lat": 41.05019}}, {"id": 740964, "name": "Ortak\u00f6y", "state": "", "country": "TR", "coord": {"lon": 35.251751, "lat": 40.273521}}, {"id": 741002, "name": "Orta", "state": "", "country": "TR", "coord": {"lon": 33.10928, "lat": 40.624199}}, {"id": 741045, "name": "Orhangazi", "state": "", "country": "TR", "coord": {"lon": 29.308889, "lat": 40.48917}}, {"id": 741098, "name": "Ordu", "state": "", "country": "TR", "coord": {"lon": 37.684479, "lat": 40.908581}}, {"id": 741099, "name": "Orduk\u00f6y", "state": "", "country": "TR", "coord": {"lon": 36.701641, "lat": 41.09404}}, {"id": 741100, "name": "Ordu", "state": "", "country": "TR", "coord": {"lon": 37.878891, "lat": 40.984718}}, {"id": 741136, "name": "Olur", "state": "", "country": "TR", "coord": {"lon": 42.12846, "lat": 40.82164}}, {"id": 741160, "name": "Oltu", "state": "", "country": "TR", "coord": {"lon": 42.001259, "lat": 40.549831}}, {"id": 741240, "name": "Of", "state": "", "country": "TR", "coord": {"lon": 40.26746, "lat": 40.94458}}, {"id": 741304, "name": "Niksar", "state": "", "country": "TR", "coord": {"lon": 36.951672, "lat": 40.591671}}, {"id": 741330, "name": "Narman", "state": "", "country": "TR", "coord": {"lon": 41.87027, "lat": 40.346531}}, {"id": 741335, "name": "Narl\u0131ca", "state": "", "country": "TR", "coord": {"lon": 29.48111, "lat": 40.38583}}, {"id": 741347, "name": "Nall\u0131han", "state": "", "country": "TR", "coord": {"lon": 31.351789, "lat": 40.185928}}, {"id": 741385, "name": "Mustafakemalpa\u015fa", "state": "", "country": "TR", "coord": {"lon": 28.411671, "lat": 40.035278}}, {"id": 741438, "name": "Muratl\u0131", "state": "", "country": "TR", "coord": {"lon": 27.499201, "lat": 41.172161}}, {"id": 741484, "name": "Mudurnu", "state": "", "country": "TR", "coord": {"lon": 31.20755, "lat": 40.473}}, {"id": 741487, "name": "Mudanya", "state": "", "country": "TR", "coord": {"lon": 28.882219, "lat": 40.375278}}, {"id": 741529, "name": "Mimarsinan", "state": "", "country": "TR", "coord": {"lon": 28.53768, "lat": 41.003151}}, {"id": 741538, "name": "Mihalgazi", "state": "", "country": "TR", "coord": {"lon": 30.57707, "lat": 40.026211}}, {"id": 741570, "name": "Mesudiye", "state": "", "country": "TR", "coord": {"lon": 37.772499, "lat": 40.462502}}, {"id": 741609, "name": "Merzifon", "state": "", "country": "TR", "coord": {"lon": 35.463058, "lat": 40.873329}}, {"id": 741628, "name": "Meri\u00e7", "state": "", "country": "TR", "coord": {"lon": 26.420971, "lat": 41.19183}}, {"id": 741644, "name": "Mengen", "state": "", "country": "TR", "coord": {"lon": 32.07642, "lat": 40.93877}}, {"id": 741692, "name": "Mecit\u00f6z\u00fc", "state": "", "country": "TR", "coord": {"lon": 35.29528, "lat": 40.52}}, {"id": 741725, "name": "Marmara Ere\u011flisi", "state": "", "country": "TR", "coord": {"lon": 27.95528, "lat": 40.970032}}, {"id": 741730, "name": "Marmara", "state": "", "country": "TR", "coord": {"lon": 27.55541, "lat": 40.58633}}, {"id": 741737, "name": "Manyas", "state": "", "country": "TR", "coord": {"lon": 27.969999, "lat": 40.046391}}, {"id": 741763, "name": "Maltepe", "state": "", "country": "TR", "coord": {"lon": 29.155069, "lat": 40.935669}}, {"id": 741771, "name": "Malkara", "state": "", "country": "TR", "coord": {"lon": 26.90111, "lat": 40.889999}}, {"id": 741850, "name": "Ma\u00e7ka", "state": "", "country": "TR", "coord": {"lon": 39.613609, "lat": 40.818611}}, {"id": 741855, "name": "L\u00fcleburgaz", "state": "", "country": "TR", "coord": {"lon": 27.35918, "lat": 41.403851}}, {"id": 741878, "name": "Lapseki", "state": "", "country": "TR", "coord": {"lon": 26.68556, "lat": 40.34417}}, {"id": 741884, "name": "L\u00e2lapa\u015fa", "state": "", "country": "TR", "coord": {"lon": 26.735609, "lat": 41.839512}}, {"id": 741892, "name": "Ladik", "state": "", "country": "TR", "coord": {"lon": 35.891941, "lat": 40.910561}}, {"id": 742095, "name": "Kuruca\u015file", "state": "", "country": "TR", "coord": {"lon": 32.716209, "lat": 41.837811}}, {"id": 742135, "name": "Kurtk\u00f6y", "state": "", "country": "TR", "coord": {"lon": 29.299999, "lat": 40.916672}}, {"id": 742164, "name": "Kur\u015funlu", "state": "", "country": "TR", "coord": {"lon": 33.260281, "lat": 40.841011}}, {"id": 742171, "name": "Kur\u015funlu", "state": "", "country": "TR", "coord": {"lon": 29.664721, "lat": 40.033611}}, {"id": 742189, "name": "K\u00fcre", "state": "", "country": "TR", "coord": {"lon": 33.711609, "lat": 41.805779}}, {"id": 742238, "name": "Kumru", "state": "", "country": "TR", "coord": {"lon": 37.263889, "lat": 40.874439}}, {"id": 742266, "name": "Kumburgaz", "state": "", "country": "TR", "coord": {"lon": 28.47715, "lat": 41.021069}}, {"id": 742292, "name": "Kullar", "state": "", "country": "TR", "coord": {"lon": 29.9723, "lat": 40.725739}}, {"id": 742348, "name": "K\u00fc\u00e7\u00fckkumla", "state": "", "country": "TR", "coord": {"lon": 29.12306, "lat": 40.477371}}, {"id": 742394, "name": "K\u00fc\u00e7\u00fck\u00e7ekmece", "state": "", "country": "TR", "coord": {"lon": 28.78083, "lat": 40.99461}}, {"id": 742499, "name": "Koyulhisar", "state": "", "country": "TR", "coord": {"lon": 37.831108, "lat": 40.302502}}, {"id": 742580, "name": "K\u00f6seler", "state": "", "country": "TR", "coord": {"lon": 43.509102, "lat": 40.456219}}, {"id": 742588, "name": "K\u00f6sek\u00f6y", "state": "", "country": "TR", "coord": {"lon": 30.030199, "lat": 40.753391}}, {"id": 742606, "name": "K\u00f6se", "state": "", "country": "TR", "coord": {"lon": 39.651112, "lat": 40.209999}}, {"id": 742617, "name": "Koruk\u00f6y", "state": "", "country": "TR", "coord": {"lon": 29.162901, "lat": 40.65435}}, {"id": 742657, "name": "Korgun", "state": "", "country": "TR", "coord": {"lon": 33.51844, "lat": 40.734798}}, {"id": 742658, "name": "Korgan", "state": "", "country": "TR", "coord": {"lon": 37.346668, "lat": 40.824718}}, {"id": 742659, "name": "Korgan", "state": "", "country": "TR", "coord": {"lon": 37.216671, "lat": 40.73333}}, {"id": 742686, "name": "K\u00f6pr\u00fcba\u015f\u0131", "state": "", "country": "TR", "coord": {"lon": 40.12376, "lat": 40.808578}}, {"id": 742794, "name": "Kof\u00e7az", "state": "", "country": "TR", "coord": {"lon": 27.158291, "lat": 41.944809}}, {"id": 742865, "name": "Kocaeli", "state": "", "country": "TR", "coord": {"lon": 29.91667, "lat": 40.916672}}, {"id": 742875, "name": "Kocadere", "state": "", "country": "TR", "coord": {"lon": 29.030001, "lat": 40.630001}}, {"id": 742902, "name": "Kocaali", "state": "", "country": "TR", "coord": {"lon": 30.852779, "lat": 41.05336}}, {"id": 742987, "name": "K\u0131z\u0131l\u0131rmak", "state": "", "country": "TR", "coord": {"lon": 33.986389, "lat": 40.345558}}, {"id": 743051, "name": "K\u0131z\u0131lcahamam", "state": "", "country": "TR", "coord": {"lon": 32.650558, "lat": 40.469719}}, {"id": 743165, "name": "K\u0131rklareli", "state": "", "country": "TR", "coord": {"lon": 27.5, "lat": 41.666672}}, {"id": 743166, "name": "K\u0131rklareli", "state": "", "country": "TR", "coord": {"lon": 27.22521, "lat": 41.735081}}, {"id": 743230, "name": "Dikmen", "state": "", "country": "TR", "coord": {"lon": 35.26667, "lat": 41.650002}}, {"id": 743256, "name": "Kirazl\u0131", "state": "", "country": "TR", "coord": {"lon": 29.04278, "lat": 40.09972}}, {"id": 743382, "name": "K\u0131br\u0131sc\u0131k", "state": "", "country": "TR", "coord": {"lon": 31.85194, "lat": 40.40778}}, {"id": 743404, "name": "Kestel", "state": "", "country": "TR", "coord": {"lon": 29.21237, "lat": 40.19828}}, {"id": 743438, "name": "Ke\u015fap", "state": "", "country": "TR", "coord": {"lon": 38.514439, "lat": 40.916389}}, {"id": 743439, "name": "Ke\u015fan", "state": "", "country": "TR", "coord": {"lon": 26.63028, "lat": 40.855831}}, {"id": 743537, "name": "Kelkit", "state": "", "country": "TR", "coord": {"lon": 39.436069, "lat": 40.12978}}, {"id": 743615, "name": "Kazan", "state": "", "country": "TR", "coord": {"lon": 32.683891, "lat": 40.23167}}, {"id": 743616, "name": "Kaytazdere", "state": "", "country": "TR", "coord": {"lon": 29.53236, "lat": 40.682251}}, {"id": 743633, "name": "Kaynarca", "state": "", "country": "TR", "coord": {"lon": 30.307501, "lat": 41.03083}}, {"id": 743818, "name": "Kavakl\u0131", "state": "", "country": "TR", "coord": {"lon": 28.33172, "lat": 41.092579}}, {"id": 743851, "name": "Kavak", "state": "", "country": "TR", "coord": {"lon": 36.0425, "lat": 41.078331}}, {"id": 743881, "name": "Kastamonu", "state": "", "country": "TR", "coord": {"lon": 33.666672, "lat": 41.5}}, {"id": 743882, "name": "Kastamonu", "state": "", "country": "TR", "coord": {"lon": 33.77528, "lat": 41.378052}}, {"id": 743932, "name": "Kartal", "state": "", "country": "TR", "coord": {"lon": 29.18861, "lat": 40.904949}}, {"id": 743942, "name": "Kars", "state": "", "country": "TR", "coord": {"lon": 43.083328, "lat": 40.416672}}, {"id": 743952, "name": "Kars", "state": "", "country": "TR", "coord": {"lon": 43.094952, "lat": 40.60199}}, {"id": 744006, "name": "Karg\u0131", "state": "", "country": "TR", "coord": {"lon": 34.487438, "lat": 41.133732}}, {"id": 744093, "name": "Karasu Mahallesi", "state": "", "country": "TR", "coord": {"lon": 30.785431, "lat": 41.070961}}, {"id": 744110, "name": "Karap\u00fcr\u00e7ek", "state": "", "country": "TR", "coord": {"lon": 30.53944, "lat": 40.641941}}, {"id": 744138, "name": "O\u011fuzlar", "state": "", "country": "TR", "coord": {"lon": 34.702751, "lat": 40.753529}}, {"id": 744168, "name": "Karam\u00fcrsel", "state": "", "country": "TR", "coord": {"lon": 29.615681, "lat": 40.691441}}, {"id": 744471, "name": "Karaca\u00f6ren", "state": "", "country": "TR", "coord": {"lon": 43.088829, "lat": 40.558048}}, {"id": 744498, "name": "Kara\u00e7al\u0131", "state": "", "country": "TR", "coord": {"lon": 30.318609, "lat": 41.108109}}, {"id": 744514, "name": "Karacak\u00f6y", "state": "", "country": "TR", "coord": {"lon": 28.383381, "lat": 41.402859}}, {"id": 744537, "name": "Karacabey", "state": "", "country": "TR", "coord": {"lon": 28.40378, "lat": 40.215248}}, {"id": 744562, "name": "Karab\u00fck", "state": "", "country": "TR", "coord": {"lon": 32.627682, "lat": 41.20488}}, {"id": 744716, "name": "Kand\u0131ra", "state": "", "country": "TR", "coord": {"lon": 30.174601, "lat": 41.073601}}, {"id": 744767, "name": "Kalkandere", "state": "", "country": "TR", "coord": {"lon": 40.441898, "lat": 40.92804}}, {"id": 744814, "name": "Kalecik", "state": "", "country": "TR", "coord": {"lon": 33.408329, "lat": 40.097221}}, {"id": 744873, "name": "Ka\u011f\u0131zman", "state": "", "country": "TR", "coord": {"lon": 43.134239, "lat": 40.156689}}, {"id": 744876, "name": "K\u00e2\u011f\u0131thane", "state": "", "country": "TR", "coord": {"lon": 28.96472, "lat": 41.079441}}, {"id": 744926, "name": "Kad\u0131k\u00f6y", "state": "", "country": "TR", "coord": {"lon": 29.225361, "lat": 40.620152}}, {"id": 744958, "name": "Kabata\u015f", "state": "", "country": "TR", "coord": {"lon": 37.450001, "lat": 40.75}}, {"id": 745007, "name": "Kabad\u00fcz", "state": "", "country": "TR", "coord": {"lon": 37.889999, "lat": 40.859718}}, {"id": 745026, "name": "\u0130znik", "state": "", "country": "TR", "coord": {"lon": 29.721109, "lat": 40.428612}}, {"id": 745028, "name": "\u0130zmit", "state": "", "country": "TR", "coord": {"lon": 29.916941, "lat": 40.766941}}, {"id": 745030, "name": "\u0130yidere", "state": "", "country": "TR", "coord": {"lon": 40.361851, "lat": 41.011921}}, {"id": 745042, "name": "\u0130stanbul", "state": "", "country": "TR", "coord": {"lon": 28.983311, "lat": 41.03508}}, {"id": 745044, "name": "Istanbul", "state": "", "country": "TR", "coord": {"lon": 28.949659, "lat": 41.01384}}, {"id": 745047, "name": "\u0130spir", "state": "", "country": "TR", "coord": {"lon": 40.995571, "lat": 40.482868}}, {"id": 745076, "name": "\u0130skilip", "state": "", "country": "TR", "coord": {"lon": 34.473888, "lat": 40.735279}}, {"id": 745148, "name": "\u0130psala", "state": "", "country": "TR", "coord": {"lon": 26.38273, "lat": 40.92115}}, {"id": 745164, "name": "\u0130nhisar", "state": "", "country": "TR", "coord": {"lon": 30.38521, "lat": 40.04932}}, {"id": 745169, "name": "\u0130negol", "state": "", "country": "TR", "coord": {"lon": 29.51333, "lat": 40.07806}}, {"id": 745175, "name": "\u0130nebolu", "state": "", "country": "TR", "coord": {"lon": 33.76083, "lat": 41.97472}}, {"id": 745260, "name": "G\u00f6k\u00e7eada", "state": "", "country": "TR", "coord": {"lon": 25.909019, "lat": 40.201069}}, {"id": 745344, "name": "Ilgaz", "state": "", "country": "TR", "coord": {"lon": 33.625858, "lat": 40.92511}}, {"id": 745362, "name": "\u0130kizdere", "state": "", "country": "TR", "coord": {"lon": 40.55888, "lat": 40.779129}}, {"id": 745364, "name": "\u0130kizce", "state": "", "country": "TR", "coord": {"lon": 37.08028, "lat": 41.058331}}, {"id": 745383, "name": "\u0130hsaniye", "state": "", "country": "TR", "coord": {"lon": 29.834721, "lat": 40.690868}}, {"id": 745387, "name": "\u0130hsangazi", "state": "", "country": "TR", "coord": {"lon": 33.55455, "lat": 41.204319}}, {"id": 745527, "name": "Horasan", "state": "", "country": "TR", "coord": {"lon": 42.172779, "lat": 40.04583}}, {"id": 745530, "name": "Hopa", "state": "", "country": "TR", "coord": {"lon": 41.43787, "lat": 41.405972}}, {"id": 745664, "name": "Hendek", "state": "", "country": "TR", "coord": {"lon": 30.74806, "lat": 40.799438}}, {"id": 745665, "name": "Nurluca", "state": "", "country": "TR", "coord": {"lon": 40.898338, "lat": 41.022678}}, {"id": 745693, "name": "Hayrat", "state": "", "country": "TR", "coord": {"lon": 40.369862, "lat": 40.888439}}, {"id": 745697, "name": "Hayrabolu", "state": "", "country": "TR", "coord": {"lon": 27.10688, "lat": 41.213112}}, {"id": 745714, "name": "Havza", "state": "", "country": "TR", "coord": {"lon": 35.66222, "lat": 40.970558}}, {"id": 745719, "name": "Havsa", "state": "", "country": "TR", "coord": {"lon": 26.822069, "lat": 41.548981}}, {"id": 745884, "name": "Han\u00f6n\u00fc", "state": "", "country": "TR", "coord": {"lon": 34.466671, "lat": 41.627048}}, {"id": 745903, "name": "Hanak", "state": "", "country": "TR", "coord": {"lon": 42.847221, "lat": 41.233608}}, {"id": 745922, "name": "Hamzabey", "state": "", "country": "TR", "coord": {"lon": 29.52639, "lat": 40.13583}}, {"id": 745954, "name": "Dedek\u00f6y", "state": "", "country": "TR", "coord": {"lon": 35.042488, "lat": 40.74752}}, {"id": 745955, "name": "Hamam\u00f6z\u00fc", "state": "", "country": "TR", "coord": {"lon": 35.025799, "lat": 40.78476}}, {"id": 745977, "name": "Halkal\u0131", "state": "", "country": "TR", "coord": {"lon": 28.78944, "lat": 41.036671}}, {"id": 746232, "name": "G\u00fcrsu", "state": "", "country": "TR", "coord": {"lon": 29.19487, "lat": 40.218761}}, {"id": 746234, "name": "G\u00fcrp\u0131nar", "state": "", "country": "TR", "coord": {"lon": 28.61528, "lat": 40.99028}}, {"id": 746252, "name": "G\u00fcrgentepe", "state": "", "country": "TR", "coord": {"lon": 37.601669, "lat": 40.78833}}, {"id": 746302, "name": "G\u00fcng\u00f6ren", "state": "", "country": "TR", "coord": {"lon": 28.88357, "lat": 41.018509}}, {"id": 746308, "name": "G\u00fcneysu", "state": "", "country": "TR", "coord": {"lon": 40.61359, "lat": 40.977619}}, {"id": 746413, "name": "G\u00fcm\u00fc\u015fova", "state": "", "country": "TR", "coord": {"lon": 30.941111, "lat": 40.846939}}, {"id": 746423, "name": "G\u00fcm\u00fc\u015fhane", "state": "", "country": "TR", "coord": {"lon": 39.583328, "lat": 40.25}}, {"id": 746425, "name": "Gumushkhane", "state": "", "country": "TR", "coord": {"lon": 39.481392, "lat": 40.460281}}, {"id": 746426, "name": "G\u00fcm\u00fc\u015fhac\u0131k\u00f6y", "state": "", "country": "TR", "coord": {"lon": 35.214722, "lat": 40.873058}}, {"id": 746455, "name": "G\u00fclp\u0131nar", "state": "", "country": "TR", "coord": {"lon": 36.394051, "lat": 40.299839}}, {"id": 746497, "name": "G\u00fcd\u00fcl", "state": "", "country": "TR", "coord": {"lon": 32.245522, "lat": 40.21051}}, {"id": 746527, "name": "Akkaya", "state": "", "country": "TR", "coord": {"lon": 33.471169, "lat": 41.228161}}, {"id": 746546, "name": "G\u00f6yn\u00fck", "state": "", "country": "TR", "coord": {"lon": 30.78833, "lat": 40.40028}}, {"id": 746547, "name": "G\u00f6yn\u00fccek", "state": "", "country": "TR", "coord": {"lon": 35.525002, "lat": 40.39917}}, {"id": 746565, "name": "G\u00f6rele", "state": "", "country": "TR", "coord": {"lon": 39.003059, "lat": 41.03083}}, {"id": 746574, "name": "G\u00f6nen", "state": "", "country": "TR", "coord": {"lon": 27.65399, "lat": 40.1049}}, {"id": 746590, "name": "G\u00f6lyaka", "state": "", "country": "TR", "coord": {"lon": 30.995871, "lat": 40.776901}}, {"id": 746602, "name": "G\u00f6lpazar\u0131", "state": "", "country": "TR", "coord": {"lon": 30.317221, "lat": 40.284721}}, {"id": 746603, "name": "G\u00f6lova", "state": "", "country": "TR", "coord": {"lon": 38.60667, "lat": 40.061939}}, {"id": 746611, "name": "Balarim", "state": "", "country": "TR", "coord": {"lon": 29.59025, "lat": 40.37381}}, {"id": 746628, "name": "G\u00f6lk\u00f6y", "state": "", "country": "TR", "coord": {"lon": 37.617779, "lat": 40.6875}}, {"id": 746643, "name": "G\u00f6le", "state": "", "country": "TR", "coord": {"lon": 42.609169, "lat": 40.79361}}, {"id": 746666, "name": "G\u00f6lc\u00fck", "state": "", "country": "TR", "coord": {"lon": 29.828609, "lat": 40.716671}}, {"id": 746712, "name": "Murgul", "state": "", "country": "TR", "coord": {"lon": 41.566109, "lat": 41.274441}}, {"id": 746821, "name": "G\u00f6k\u00e7ebey", "state": "", "country": "TR", "coord": {"lon": 32.142342, "lat": 41.305828}}, {"id": 746878, "name": "Giresun", "state": "", "country": "TR", "coord": {"lon": 38.5, "lat": 40.5}}, {"id": 746881, "name": "Giresun", "state": "", "country": "TR", "coord": {"lon": 38.387409, "lat": 40.916981}}, {"id": 746898, "name": "Geyve", "state": "", "country": "TR", "coord": {"lon": 30.2925, "lat": 40.5075}}, {"id": 746913, "name": "Gerze", "state": "", "country": "TR", "coord": {"lon": 35.201111, "lat": 41.803612}}, {"id": 746940, "name": "Gerede", "state": "", "country": "TR", "coord": {"lon": 32.196941, "lat": 40.800831}}, {"id": 746958, "name": "Gemlik", "state": "", "country": "TR", "coord": {"lon": 29.159691, "lat": 40.430939}}, {"id": 746983, "name": "Gelibolu", "state": "", "country": "TR", "coord": {"lon": 26.67083, "lat": 40.410278}}, {"id": 747014, "name": "Gebze", "state": "", "country": "TR", "coord": {"lon": 29.430679, "lat": 40.802761}}, {"id": 747090, "name": "F\u0131nd\u0131kl\u0131", "state": "", "country": "TR", "coord": {"lon": 41.151958, "lat": 41.279732}}, {"id": 747135, "name": "Ferizli", "state": "", "country": "TR", "coord": {"lon": 30.48583, "lat": 40.940819}}, {"id": 747155, "name": "Fatsa", "state": "", "country": "TR", "coord": {"lon": 37.501389, "lat": 41.027779}}, {"id": 747158, "name": "Fatih", "state": "", "country": "TR", "coord": {"lon": 28.94083, "lat": 41.022499}}, {"id": 747191, "name": "Eynesil", "state": "", "country": "TR", "coord": {"lon": 39.143799, "lat": 41.064529}}, {"id": 747217, "name": "Evren", "state": "", "country": "TR", "coord": {"lon": 39.175331, "lat": 40.24432}}, {"id": 747262, "name": "Eskipazar", "state": "", "country": "TR", "coord": {"lon": 32.53091, "lat": 40.942982}}, {"id": 747263, "name": "G\u00f6zyeri", "state": "", "country": "TR", "coord": {"lon": 32.541672, "lat": 40.865959}}, {"id": 747323, "name": "Esenyurt", "state": "", "country": "TR", "coord": {"lon": 28.67528, "lat": 41.033329}}, {"id": 747340, "name": "Esenler", "state": "", "country": "TR", "coord": {"lon": 28.87619, "lat": 41.043499}}, {"id": 747366, "name": "Esenbo\u011fa", "state": "", "country": "TR", "coord": {"lon": 32.985249, "lat": 40.133999}}, {"id": 747449, "name": "Erfelek", "state": "", "country": "TR", "coord": {"lon": 34.918381, "lat": 41.879261}}, {"id": 747458, "name": "Erenler", "state": "", "country": "TR", "coord": {"lon": 29.566669, "lat": 41.116669}}, {"id": 747471, "name": "Ere\u011fli", "state": "", "country": "TR", "coord": {"lon": 31.41806, "lat": 41.282619}}, {"id": 747482, "name": "Erdek", "state": "", "country": "TR", "coord": {"lon": 27.79348, "lat": 40.399601}}, {"id": 747489, "name": "Erbaa", "state": "", "country": "TR", "coord": {"lon": 36.567501, "lat": 40.668892}}, {"id": 747503, "name": "Enez", "state": "", "country": "TR", "coord": {"lon": 26.0825, "lat": 40.72472}}, {"id": 747618, "name": "Eldivan", "state": "", "country": "TR", "coord": {"lon": 33.499039, "lat": 40.529751}}, {"id": 747630, "name": "Elbeyli", "state": "", "country": "TR", "coord": {"lon": 29.72472, "lat": 40.486111}}, {"id": 747705, "name": "Eflani", "state": "", "country": "TR", "coord": {"lon": 32.957611, "lat": 41.42289}}, {"id": 747711, "name": "Edirne", "state": "", "country": "TR", "coord": {"lon": 26.66667, "lat": 41.25}}, {"id": 747712, "name": "Edirne", "state": "", "country": "TR", "coord": {"lon": 26.555969, "lat": 41.677189}}, {"id": 747728, "name": "Eceabat", "state": "", "country": "TR", "coord": {"lon": 26.357401, "lat": 40.184158}}, {"id": 747751, "name": "D\u00fczk\u00f6y", "state": "", "country": "TR", "coord": {"lon": 39.427158, "lat": 40.872841}}, {"id": 747764, "name": "D\u00fczce", "state": "", "country": "TR", "coord": {"lon": 31.163891, "lat": 40.83889}}, {"id": 747793, "name": "Durusu", "state": "", "country": "TR", "coord": {"lon": 28.67667, "lat": 41.305279}}, {"id": 747826, "name": "Dura\u011fan", "state": "", "country": "TR", "coord": {"lon": 35.05444, "lat": 41.415829}}, {"id": 747899, "name": "D\u00f6rtdivan", "state": "", "country": "TR", "coord": {"lon": 32.063141, "lat": 40.72052}}, {"id": 747912, "name": "Kar\u015f\u0131yaka", "state": "", "country": "TR", "coord": {"lon": 29.94154, "lat": 40.6936}}, {"id": 747978, "name": "Do\u011fanyurt", "state": "", "country": "TR", "coord": {"lon": 33.460289, "lat": 42.00457}}, {"id": 747986, "name": "Do\u011fan\u015far", "state": "", "country": "TR", "coord": {"lon": 37.533329, "lat": 40.216671}}, {"id": 748008, "name": "Do\u011fankent", "state": "", "country": "TR", "coord": {"lon": 38.917221, "lat": 40.807499}}, {"id": 748148, "name": "Digor", "state": "", "country": "TR", "coord": {"lon": 43.412781, "lat": 40.374722}}, {"id": 748166, "name": "Devrekani", "state": "", "country": "TR", "coord": {"lon": 33.839218, "lat": 41.603031}}, {"id": 748167, "name": "Devrek", "state": "", "country": "TR", "coord": {"lon": 31.95583, "lat": 41.21917}}, {"id": 748200, "name": "Dernekpazar\u0131", "state": "", "country": "TR", "coord": {"lon": 40.239578, "lat": 40.80286}}, {"id": 748230, "name": "Derepazar\u0131", "state": "", "country": "TR", "coord": {"lon": 40.423321, "lat": 41.023979}}, {"id": 748240, "name": "Dereli", "state": "", "country": "TR", "coord": {"lon": 38.449341, "lat": 40.737801}}, {"id": 748378, "name": "Demirta\u015f", "state": "", "country": "TR", "coord": {"lon": 29.09833, "lat": 40.271938}}, {"id": 748383, "name": "Pulur", "state": "", "country": "TR", "coord": {"lon": 39.892502, "lat": 40.163609}}, {"id": 748688, "name": "Damal", "state": "", "country": "TR", "coord": {"lon": 42.839359, "lat": 41.340351}}, {"id": 748761, "name": "Daday", "state": "", "country": "TR", "coord": {"lon": 33.466671, "lat": 41.478661}}, {"id": 748822, "name": "Corlu", "state": "", "country": "TR", "coord": {"lon": 27.9, "lat": 41.166672}}, {"id": 748870, "name": "\u00c7ubuk", "state": "", "country": "TR", "coord": {"lon": 33.032219, "lat": 40.238609}}, {"id": 748877, "name": "\u00c7orum", "state": "", "country": "TR", "coord": {"lon": 34.75, "lat": 40.5}}, {"id": 748879, "name": "\u00c7orum", "state": "", "country": "TR", "coord": {"lon": 34.953331, "lat": 40.548889}}, {"id": 748893, "name": "\u00c7orlu", "state": "", "country": "TR", "coord": {"lon": 27.799999, "lat": 41.159168}}, {"id": 749075, "name": "\u00c7\u0131narc\u0131k", "state": "", "country": "TR", "coord": {"lon": 29.145981, "lat": 40.641201}}, {"id": 749100, "name": "\u00c7ilimli", "state": "", "country": "TR", "coord": {"lon": 31.04917, "lat": 40.893608}}, {"id": 749109, "name": "Zurzuna", "state": "", "country": "TR", "coord": {"lon": 43.13361, "lat": 41.128059}}, {"id": 749163, "name": "\u00c7iftlikk\u00f6y", "state": "", "country": "TR", "coord": {"lon": 29.32361, "lat": 40.660278}}, {"id": 749183, "name": "Cide", "state": "", "country": "TR", "coord": {"lon": 33.004391, "lat": 41.892109}}, {"id": 749184, "name": "Ciciler", "state": "", "country": "TR", "coord": {"lon": 30.063601, "lat": 40.442982}}, {"id": 749262, "name": "S\u00fcleymanlar Mahallesi", "state": "", "country": "TR", "coord": {"lon": 31.41044, "lat": 41.290192}}, {"id": 749263, "name": "Cerrah", "state": "", "country": "TR", "coord": {"lon": 29.446609, "lat": 40.071239}}, {"id": 749274, "name": "\u00c7erkezk\u00f6y", "state": "", "country": "TR", "coord": {"lon": 28.00028, "lat": 41.285}}, {"id": 749279, "name": "\u00c7erke\u015f", "state": "", "country": "TR", "coord": {"lon": 32.893581, "lat": 40.811642}}, {"id": 749392, "name": "\u00c7ekerek", "state": "", "country": "TR", "coord": {"lon": 35.49472, "lat": 40.073059}}, {"id": 749421, "name": "K\u00fcrt\u00fcn", "state": "", "country": "TR", "coord": {"lon": 39.143608, "lat": 40.670921}}, {"id": 749456, "name": "\u00c7aykara", "state": "", "country": "TR", "coord": {"lon": 40.235519, "lat": 40.75481}}, {"id": 749502, "name": "\u00c7ayeli", "state": "", "country": "TR", "coord": {"lon": 40.72924, "lat": 41.092281}}, {"id": 749508, "name": "\u00c7aycuma", "state": "", "country": "TR", "coord": {"lon": 32.075562, "lat": 41.426392}}, {"id": 749518, "name": "\u00c7ayba\u015f\u0131", "state": "", "country": "TR", "coord": {"lon": 37.097961, "lat": 41.017109}}, {"id": 749609, "name": "\u00c7atalzeytin", "state": "", "country": "TR", "coord": {"lon": 34.21627, "lat": 41.95314}}, {"id": 749644, "name": "\u00c7atalca", "state": "", "country": "TR", "coord": {"lon": 28.46154, "lat": 41.143242}}, {"id": 749701, "name": "\u00c7ar\u015f\u0131ba\u015f\u0131", "state": "", "country": "TR", "coord": {"lon": 39.382778, "lat": 41.082779}}, {"id": 749704, "name": "\u00c7ar\u015famba", "state": "", "country": "TR", "coord": {"lon": 36.721939, "lat": 41.198891}}, {"id": 749740, "name": "\u00c7anta", "state": "", "country": "TR", "coord": {"lon": 28.080339, "lat": 41.118141}}, {"id": 749747, "name": "\u00c7ank\u0131r\u0131", "state": "", "country": "TR", "coord": {"lon": 33.416672, "lat": 40.666672}}, {"id": 749748, "name": "Khanjarah", "state": "", "country": "TR", "coord": {"lon": 33.615299, "lat": 40.599949}}, {"id": 749778, "name": "\u00c7anakkale", "state": "", "country": "TR", "coord": {"lon": 26.83333, "lat": 40.083328}}, {"id": 749780, "name": "\u00c7anakkale", "state": "", "country": "TR", "coord": {"lon": 26.406389, "lat": 40.145561}}, {"id": 749789, "name": "\u00c7anak\u00e7\u0131", "state": "", "country": "TR", "coord": {"lon": 38.998981, "lat": 40.911789}}, {"id": 749795, "name": "\u00c7an", "state": "", "country": "TR", "coord": {"lon": 27.052361, "lat": 40.033279}}, {"id": 749819, "name": "\u00c7amoluk", "state": "", "country": "TR", "coord": {"lon": 38.735561, "lat": 40.13583}}, {"id": 749841, "name": "\u00c7aml\u0131hem\u015fin", "state": "", "country": "TR", "coord": {"lon": 41.009441, "lat": 41.030281}}, {"id": 749843, "name": "\u00c7aml\u0131dere", "state": "", "country": "TR", "coord": {"lon": 32.474991, "lat": 40.489578}}, {"id": 749916, "name": "\u00c7ama\u015f", "state": "", "country": "TR", "coord": {"lon": 37.528839, "lat": 40.901669}}, {"id": 750043, "name": "\u00c7ak\u0131rl\u0131", "state": "", "country": "TR", "coord": {"lon": 29.452221, "lat": 40.518059}}, {"id": 750059, "name": "\u00c7ak\u0131rca", "state": "", "country": "TR", "coord": {"lon": 29.66333, "lat": 40.470558}}, {"id": 750165, "name": "La\u00e7in", "state": "", "country": "TR", "coord": {"lon": 34.89838, "lat": 40.77018}}, {"id": 750228, "name": "B\u00fcy\u00fck\u00e7avu\u015flu", "state": "", "country": "TR", "coord": {"lon": 28.064619, "lat": 41.242271}}, {"id": 750268, "name": "Bursa", "state": "", "country": "TR", "coord": {"lon": 29.08333, "lat": 40.166672}}, {"id": 750269, "name": "Bursa", "state": "", "country": "TR", "coord": {"lon": 29.06111, "lat": 40.191669}}, {"id": 750296, "name": "Sar\u0131cakaya", "state": "", "country": "TR", "coord": {"lon": 30.626751, "lat": 40.036861}}, {"id": 750317, "name": "Bulancak", "state": "", "country": "TR", "coord": {"lon": 38.229069, "lat": 40.937168}}, {"id": 750392, "name": "Bozkurt", "state": "", "country": "TR", "coord": {"lon": 34.01086, "lat": 41.957691}}, {"id": 750446, "name": "Boyal\u0131k", "state": "", "country": "TR", "coord": {"lon": 28.63142, "lat": 41.263371}}, {"id": 750450, "name": "Boyal\u0131ca", "state": "", "country": "TR", "coord": {"lon": 29.560829, "lat": 40.481941}}, {"id": 750468, "name": "Boyabat", "state": "", "country": "TR", "coord": {"lon": 34.76667, "lat": 41.468891}}, {"id": 750477, "name": "Bostanc\u0131l\u0131", "state": "", "country": "TR", "coord": {"lon": 35.105061, "lat": 42.01981}}, {"id": 750496, "name": "Bor\u00e7ka", "state": "", "country": "TR", "coord": {"lon": 41.676521, "lat": 41.363152}}, {"id": 750510, "name": "Bolu", "state": "", "country": "TR", "coord": {"lon": 31.58333, "lat": 40.666672}}, {"id": 750516, "name": "Bolu", "state": "", "country": "TR", "coord": {"lon": 31.60611, "lat": 40.735828}}, {"id": 750539, "name": "Bo\u011fazkale", "state": "", "country": "TR", "coord": {"lon": 34.60947, "lat": 40.021912}}, {"id": 750594, "name": "Bilmece", "state": "", "country": "TR", "coord": {"lon": 36.150002, "lat": 41.150002}}, {"id": 750598, "name": "Bilecik", "state": "", "country": "TR", "coord": {"lon": 29.979321, "lat": 40.141918}}, {"id": 750605, "name": "Biga", "state": "", "country": "TR", "coord": {"lon": 27.24222, "lat": 40.228062}}, {"id": 750615, "name": "Asarc\u0131k", "state": "", "country": "TR", "coord": {"lon": 36.235561, "lat": 41.035561}}, {"id": 750637, "name": "Beypazar\u0131", "state": "", "country": "TR", "coord": {"lon": 31.92111, "lat": 40.1675}}, {"id": 750662, "name": "Beykoz", "state": "", "country": "TR", "coord": {"lon": 29.090561, "lat": 41.14389}}, {"id": 750735, "name": "Be\u015fikd\u00fcz\u00fc", "state": "", "country": "TR", "coord": {"lon": 39.228439, "lat": 41.051991}}, {"id": 750874, "name": "Bayram\u00f6ren", "state": "", "country": "TR", "coord": {"lon": 33.202999, "lat": 40.943291}}, {"id": 750938, "name": "Bayburt", "state": "", "country": "TR", "coord": {"lon": 40.227779, "lat": 40.258888}}, {"id": 750948, "name": "Bayat", "state": "", "country": "TR", "coord": {"lon": 34.261391, "lat": 40.645828}}, {"id": 751036, "name": "Ba\u015f\u00e7iftlik", "state": "", "country": "TR", "coord": {"lon": 37.16917, "lat": 40.54694}}, {"id": 751057, "name": "Bart\u0131n", "state": "", "country": "TR", "coord": {"lon": 32.337502, "lat": 41.63583}}, {"id": 751077, "name": "Band\u0131rma", "state": "", "country": "TR", "coord": {"lon": 27.976669, "lat": 40.352219}}, {"id": 751103, "name": "Ondokuzmay\u0131s", "state": "", "country": "TR", "coord": {"lon": 36.068871, "lat": 41.501099}}, {"id": 751170, "name": "Bal\u00e7\u0131k", "state": "", "country": "TR", "coord": {"lon": 29.428329, "lat": 40.872501}}, {"id": 751214, "name": "Bak\u0131rk\u00f6y", "state": "", "country": "TR", "coord": {"lon": 28.87121, "lat": 40.989361}}, {"id": 751277, "name": "Bah\u00e7ecik", "state": "", "country": "TR", "coord": {"lon": 29.914881, "lat": 40.66729}}, {"id": 751324, "name": "Ba\u011fc\u0131lar", "state": "", "country": "TR", "coord": {"lon": 28.85671, "lat": 41.039028}}, {"id": 751335, "name": "Bafra", "state": "", "country": "TR", "coord": {"lon": 35.90694, "lat": 41.56778}}, {"id": 751371, "name": "Babaeski", "state": "", "country": "TR", "coord": {"lon": 27.09306, "lat": 41.432499}}, {"id": 751388, "name": "Azdavay", "state": "", "country": "TR", "coord": {"lon": 33.299999, "lat": 41.64267}}, {"id": 751427, "name": "Ayvac\u0131k", "state": "", "country": "TR", "coord": {"lon": 36.63139, "lat": 40.991112}}, {"id": 751475, "name": "Ayd\u0131ntepe", "state": "", "country": "TR", "coord": {"lon": 40.1506, "lat": 40.389439}}, {"id": 751491, "name": "Ayd\u0131nc\u0131k", "state": "", "country": "TR", "coord": {"lon": 35.287651, "lat": 40.12727}}, {"id": 751503, "name": "Aybast\u0131", "state": "", "country": "TR", "coord": {"lon": 37.39917, "lat": 40.686668}}, {"id": 751511, "name": "Aya\u015f", "state": "", "country": "TR", "coord": {"lon": 32.332211, "lat": 40.019329}}, {"id": 751516, "name": "Ayanc\u0131k", "state": "", "country": "TR", "coord": {"lon": 34.586109, "lat": 41.944721}}, {"id": 751575, "name": "Atkaracalar", "state": "", "country": "TR", "coord": {"lon": 33.075562, "lat": 40.815929}}, {"id": 751816, "name": "Artvin", "state": "", "country": "TR", "coord": {"lon": 41.833328, "lat": 41.166672}}, {"id": 751817, "name": "Artvin", "state": "", "country": "TR", "coord": {"lon": 41.819439, "lat": 41.18222}}, {"id": 751818, "name": "Artova", "state": "", "country": "TR", "coord": {"lon": 36.300098, "lat": 40.11578}}, {"id": 751838, "name": "Arsin", "state": "", "country": "TR", "coord": {"lon": 39.927559, "lat": 40.949581}}, {"id": 751864, "name": "Arpa\u00e7ay", "state": "", "country": "TR", "coord": {"lon": 43.329109, "lat": 40.848701}}, {"id": 751916, "name": "Ar\u0131kl\u0131ba\u011flar\u0131", "state": "", "country": "TR", "coord": {"lon": 32.349998, "lat": 40.049999}}, {"id": 751931, "name": "Arhavi", "state": "", "country": "TR", "coord": {"lon": 41.306938, "lat": 41.349171}}, {"id": 751949, "name": "Arde\u015fen", "state": "", "country": "TR", "coord": {"lon": 40.987499, "lat": 41.191109}}, {"id": 751950, "name": "Ardanu\u00e7", "state": "", "country": "TR", "coord": {"lon": 42.06292, "lat": 41.12738}}, {"id": 751952, "name": "Ardahan", "state": "", "country": "TR", "coord": {"lon": 42.702221, "lat": 41.108711}}, {"id": 751971, "name": "Arakl\u0131", "state": "", "country": "TR", "coord": {"lon": 40.058418, "lat": 40.938541}}, {"id": 751976, "name": "Ara\u00e7", "state": "", "country": "TR", "coord": {"lon": 33.327671, "lat": 41.242222}}, {"id": 752014, "name": "Amasya", "state": "", "country": "TR", "coord": {"lon": 35.833328, "lat": 40.666672}}, {"id": 752015, "name": "Amasya", "state": "", "country": "TR", "coord": {"lon": 35.833061, "lat": 40.653332}}, {"id": 752016, "name": "Amasra", "state": "", "country": "TR", "coord": {"lon": 32.38633, "lat": 41.74633}}, {"id": 752020, "name": "Alucra", "state": "", "country": "TR", "coord": {"lon": 38.763611, "lat": 40.320831}}, {"id": 752042, "name": "Alt\u0131nova", "state": "", "country": "TR", "coord": {"lon": 29.509859, "lat": 40.69495}}, {"id": 752083, "name": "Almus", "state": "", "country": "TR", "coord": {"lon": 36.904442, "lat": 40.375832}}, {"id": 752184, "name": "Alapl\u0131", "state": "", "country": "TR", "coord": {"lon": 31.379169, "lat": 41.169399}}, {"id": 752188, "name": "Alanyurt", "state": "", "country": "TR", "coord": {"lon": 29.518709, "lat": 40.10881}}, {"id": 752259, "name": "Ala\u00e7am", "state": "", "country": "TR", "coord": {"lon": 35.598061, "lat": 41.60556}}, {"id": 752278, "name": "Alaca", "state": "", "country": "TR", "coord": {"lon": 34.842499, "lat": 40.168331}}, {"id": 752284, "name": "Akyurt", "state": "", "country": "TR", "coord": {"lon": 33.08614, "lat": 40.13512}}, {"id": 752288, "name": "Akyaz\u0131", "state": "", "country": "TR", "coord": {"lon": 30.622219, "lat": 40.685001}}, {"id": 752297, "name": "Akyaka", "state": "", "country": "TR", "coord": {"lon": 43.626652, "lat": 40.73645}}, {"id": 752359, "name": "Aksu", "state": "", "country": "TR", "coord": {"lon": 38.035229, "lat": 40.089481}}, {"id": 752389, "name": "Akp\u0131nar", "state": "", "country": "TR", "coord": {"lon": 32.073261, "lat": 41.511799}}, {"id": 752437, "name": "Akku\u015f", "state": "", "country": "TR", "coord": {"lon": 37.016392, "lat": 40.79306}}, {"id": 752476, "name": "Ak\u0131nc\u0131lar", "state": "", "country": "TR", "coord": {"lon": 38.348061, "lat": 40.07972}}, {"id": 752584, "name": "Ak\u00e7akoca", "state": "", "country": "TR", "coord": {"lon": 31.11623, "lat": 41.086632}}, {"id": 752627, "name": "Ak\u00e7aabat", "state": "", "country": "TR", "coord": {"lon": 39.571461, "lat": 41.021198}}, {"id": 752770, "name": "A\u011fl\u0131", "state": "", "country": "TR", "coord": {"lon": 33.553829, "lat": 41.68602}}, {"id": 752850, "name": "Adapazar\u0131", "state": "", "country": "TR", "coord": {"lon": 30.40333, "lat": 40.78056}}, {"id": 752926, "name": "Abana", "state": "", "country": "TR", "coord": {"lon": 34.011002, "lat": 41.97858}}, {"id": 752963, "name": "\u017byrzyn", "state": "", "country": "PL", "coord": {"lon": 22.0917, "lat": 51.49918}}, {"id": 752967, "name": "\u017byrard\u00f3w", "state": "", "country": "PL", "coord": {"lon": 20.44599, "lat": 52.048801}}, {"id": 752968, "name": "\u017byrak\u00f3w", "state": "", "country": "PL", "coord": {"lon": 21.396219, "lat": 50.085449}}, {"id": 753004, "name": "Zwole\u0144", "state": "", "country": "PL", "coord": {"lon": 21.587681, "lat": 51.355419}}, {"id": 753020, "name": "Zwierzyniec", "state": "", "country": "PL", "coord": {"lon": 22.975121, "lat": 50.613998}}, {"id": 753037, "name": "\u017burowa", "state": "", "country": "PL", "coord": {"lon": 21.16894, "lat": 49.826359}}, {"id": 753053, "name": "\u017burawiczki", "state": "", "country": "PL", "coord": {"lon": 22.499491, "lat": 50.013699}}, {"id": 753056, "name": "\u017burawica", "state": "", "country": "PL", "coord": {"lon": 22.789249, "lat": 49.823479}}, {"id": 753130, "name": "\u017bo\u0142ynia", "state": "", "country": "PL", "coord": {"lon": 22.30825, "lat": 50.161999}}, {"id": 753140, "name": "\u017b\u00f3\u0142kiewka", "state": "", "country": "PL", "coord": {"lon": 22.83465, "lat": 50.909908}}, {"id": 753188, "name": "Zmiennica", "state": "", "country": "PL", "coord": {"lon": 21.96596, "lat": 49.676521}}, {"id": 753221, "name": "Z\u0142ota", "state": "", "country": "PL", "coord": {"lon": 20.593611, "lat": 50.381599}}, {"id": 753222, "name": "Z\u0142ota", "state": "", "country": "PL", "coord": {"lon": 20.69326, "lat": 49.880589}}, {"id": 753276, "name": "Zielonka", "state": "", "country": "PL", "coord": {"lon": 21.160179, "lat": 52.303761}}, {"id": 753319, "name": "Zg\u0142obie\u0144", "state": "", "country": "PL", "coord": {"lon": 21.8549, "lat": 50.012699}}, {"id": 753392, "name": "\u017belech\u00f3w", "state": "", "country": "PL", "coord": {"lon": 20.72777, "lat": 52.01532}}, {"id": 753394, "name": "\u017belech\u00f3w", "state": "", "country": "PL", "coord": {"lon": 21.897209, "lat": 51.810509}}, {"id": 753395, "name": "\u017belechlinek", "state": "", "country": "PL", "coord": {"lon": 20.034599, "lat": 51.712139}}, {"id": 753420, "name": "\u017begocina", "state": "", "country": "PL", "coord": {"lon": 20.41964, "lat": 49.81395}}, {"id": 753531, "name": "Zbuczyn", "state": "", "country": "PL", "coord": {"lon": 22.43829, "lat": 52.089741}}, {"id": 753549, "name": "Zb\u00f3jna", "state": "", "country": "PL", "coord": {"lon": 21.78812, "lat": 53.242931}}, {"id": 753571, "name": "Zbarz", "state": "", "country": "PL", "coord": {"lon": 20.98333, "lat": 52.166672}}, {"id": 753611, "name": "Zawichost", "state": "", "country": "PL", "coord": {"lon": 21.85408, "lat": 50.80743}}, {"id": 753702, "name": "Zatory", "state": "", "country": "PL", "coord": {"lon": 21.182581, "lat": 52.599289}}, {"id": 753732, "name": "Zastawa", "state": "", "country": "PL", "coord": {"lon": 23.83333, "lat": 52.700001}}, {"id": 753744, "name": "Zasanie", "state": "", "country": "PL", "coord": {"lon": 22.14476, "lat": 50.546841}}, {"id": 753760, "name": "Zarzecze", "state": "", "country": "PL", "coord": {"lon": 22.195221, "lat": 50.527672}}, {"id": 753762, "name": "Zarzecze", "state": "", "country": "PL", "coord": {"lon": 22.537161, "lat": 49.986328}}, {"id": 753776, "name": "Zarszyn", "state": "", "country": "PL", "coord": {"lon": 22.012831, "lat": 49.581779}}, {"id": 753787, "name": "\u017barn\u00f3w", "state": "", "country": "PL", "coord": {"lon": 20.174761, "lat": 51.246071}}, {"id": 753854, "name": "Zan\u0119cin", "state": "", "country": "PL", "coord": {"lon": 21.327551, "lat": 52.15456}}, {"id": 753865, "name": "Zamo\u015b\u0107", "state": "", "country": "PL", "coord": {"lon": 23.183331, "lat": 50.833328}}, {"id": 753866, "name": "Zamo\u015b\u0107", "state": "", "country": "PL", "coord": {"lon": 23.251961, "lat": 50.723141}}, {"id": 753885, "name": "Zamch", "state": "", "country": "PL", "coord": {"lon": 23.027861, "lat": 50.317131}}, {"id": 753895, "name": "Zambr\u00f3w", "state": "", "country": "PL", "coord": {"lon": 22.243191, "lat": 52.9855}}, {"id": 753910, "name": "Za\u0142uski", "state": "", "country": "PL", "coord": {"lon": 20.528641, "lat": 52.51152}}, {"id": 753911, "name": "Za\u0142uski", "state": "", "country": "PL", "coord": {"lon": 20.937321, "lat": 52.173569}}, {"id": 753943, "name": "Zaleszany", "state": "", "country": "PL", "coord": {"lon": 21.89069, "lat": 50.647991}}, {"id": 753955, "name": "Zalesie G\u00f3rne", "state": "", "country": "PL", "coord": {"lon": 21.036591, "lat": 52.027679}}, {"id": 753982, "name": "Zalesie", "state": "", "country": "PL", "coord": {"lon": 23.3636, "lat": 52.03743}}, {"id": 754027, "name": "Zakrz\u00f3wek", "state": "", "country": "PL", "coord": {"lon": 22.38138, "lat": 50.951241}}, {"id": 754029, "name": "Zakrzew", "state": "", "country": "PL", "coord": {"lon": 21.001051, "lat": 51.440948}}, {"id": 754066, "name": "Zakrzew", "state": "", "country": "PL", "coord": {"lon": 22.59115, "lat": 50.890041}}, {"id": 754069, "name": "Zakroczym", "state": "", "country": "PL", "coord": {"lon": 20.61207, "lat": 52.43351}}, {"id": 754090, "name": "Zaklik\u00f3w", "state": "", "country": "PL", "coord": {"lon": 22.102261, "lat": 50.75769}}, {"id": 754092, "name": "Zakliczyn", "state": "", "country": "PL", "coord": {"lon": 20.809349, "lat": 49.855888}}, {"id": 754148, "name": "Zagrody", "state": "", "country": "PL", "coord": {"lon": 22.83658, "lat": 49.9519}}, {"id": 754174, "name": "Zag\u00f3rzyce", "state": "", "country": "PL", "coord": {"lon": 21.675171, "lat": 50.016899}}, {"id": 754195, "name": "Zag\u00f3rz", "state": "", "country": "PL", "coord": {"lon": 22.267059, "lat": 49.514568}}, {"id": 754210, "name": "Zagna\u0144sk", "state": "", "country": "PL", "coord": {"lon": 20.663139, "lat": 50.98037}}, {"id": 754233, "name": "Zadzia\u0142", "state": "", "country": "PL", "coord": {"lon": 22.466669, "lat": 49.383331}}, {"id": 754329, "name": "\u017babno", "state": "", "country": "PL", "coord": {"lon": 20.88615, "lat": 50.133339}}, {"id": 754331, "name": "Zab\u0142ud\u00f3w", "state": "", "country": "PL", "coord": {"lon": 23.33831, "lat": 53.01442}}, {"id": 754351, "name": "Z\u0105bki", "state": "", "country": "PL", "coord": {"lon": 21.105391, "lat": 52.292709}}, {"id": 754364, "name": "Zabierz\u00f3w Boche\u0144ski", "state": "", "country": "PL", "coord": {"lon": 20.31896, "lat": 50.068211}}, {"id": 754367, "name": "\u017babieniec", "state": "", "country": "PL", "coord": {"lon": 21.04817, "lat": 52.058559}}, {"id": 754386, "name": "\u017babia Wola", "state": "", "country": "PL", "coord": {"lon": 20.69112, "lat": 52.031689}}, {"id": 754451, "name": "Wyszogr\u00f3d", "state": "", "country": "PL", "coord": {"lon": 20.190809, "lat": 52.389881}}, {"id": 754454, "name": "Wyszk\u00f3w", "state": "", "country": "PL", "coord": {"lon": 21.458401, "lat": 52.592781}}, {"id": 754456, "name": "Wyszki", "state": "", "country": "PL", "coord": {"lon": 22.98119, "lat": 52.84129}}, {"id": 754479, "name": "Wysokie Mazowieckie", "state": "", "country": "PL", "coord": {"lon": 22.51712, "lat": 52.916611}}, {"id": 754493, "name": "Wysokie", "state": "", "country": "PL", "coord": {"lon": 22.666, "lat": 50.910931}}, {"id": 754499, "name": "Wysoka Strzy\u017cowska", "state": "", "country": "PL", "coord": {"lon": 21.74074, "lat": 49.830559}}, {"id": 754508, "name": "Wysoka G\u0142ogowska", "state": "", "country": "PL", "coord": {"lon": 22.02124, "lat": 50.160191}}, {"id": 754509, "name": "Wysoka", "state": "", "country": "PL", "coord": {"lon": 22.260019, "lat": 50.044739}}, {"id": 754520, "name": "Wy\u015bmierzyce", "state": "", "country": "PL", "coord": {"lon": 20.81394, "lat": 51.624939}}, {"id": 754652, "name": "Wydminy", "state": "", "country": "PL", "coord": {"lon": 22.032391, "lat": 53.981941}}, {"id": 754800, "name": "Wo\u0142omin", "state": "", "country": "PL", "coord": {"lon": 21.242069, "lat": 52.340061}}, {"id": 754847, "name": "W\u00f3lka Tanewska", "state": "", "country": "PL", "coord": {"lon": 22.261129, "lat": 50.50005}}, {"id": 754886, "name": "W\u00f3lka Podle\u015bna", "state": "", "country": "PL", "coord": {"lon": 22.112129, "lat": 50.117851}}, {"id": 754897, "name": "W\u00f3lka Pe\u0142ki\u0144ska", "state": "", "country": "PL", "coord": {"lon": 22.623421, "lat": 50.095531}}, {"id": 754912, "name": "W\u00f3lka Nied\u017awiedzka", "state": "", "country": "PL", "coord": {"lon": 22.188259, "lat": 50.24226}}, {"id": 754946, "name": "W\u00f3lka Ko\u017cuchowska", "state": "", "country": "PL", "coord": {"lon": 20.83959, "lat": 51.630581}}, {"id": 755090, "name": "Wola \u017barczycka", "state": "", "country": "PL", "coord": {"lon": 22.250231, "lat": 50.291199}}, {"id": 755098, "name": "Wola Zabierzowska", "state": "", "country": "PL", "coord": {"lon": 20.33217, "lat": 50.072571}}, {"id": 755118, "name": "Wola Uhruska", "state": "", "country": "PL", "coord": {"lon": 23.62627, "lat": 51.321388}}, {"id": 755143, "name": "Wola Sernicka", "state": "", "country": "PL", "coord": {"lon": 22.68351, "lat": 51.44978}}, {"id": 755155, "name": "Wola R\u0119bkowska", "state": "", "country": "PL", "coord": {"lon": 21.55818, "lat": 51.90181}}, {"id": 755200, "name": "Wolan\u00f3w", "state": "", "country": "PL", "coord": {"lon": 20.97702, "lat": 51.380299}}, {"id": 755270, "name": "Wola Karczewska", "state": "", "country": "PL", "coord": {"lon": 21.39344, "lat": 52.126572}}, {"id": 755276, "name": "Wola Jachowa", "state": "", "country": "PL", "coord": {"lon": 20.858141, "lat": 50.845242}}, {"id": 755303, "name": "Wola D\u0119bi\u0144ska", "state": "", "country": "PL", "coord": {"lon": 20.687771, "lat": 49.98214}}, {"id": 755327, "name": "Wola Batorska", "state": "", "country": "PL", "coord": {"lon": 20.266171, "lat": 50.05262}}, {"id": 755369, "name": "Wojs\u0142awice", "state": "", "country": "PL", "coord": {"lon": 23.546021, "lat": 50.919159}}, {"id": 755390, "name": "Wojnicz", "state": "", "country": "PL", "coord": {"lon": 20.837851, "lat": 49.958}}, {"id": 755412, "name": "Wojcieszk\u00f3w", "state": "", "country": "PL", "coord": {"lon": 22.315889, "lat": 51.769218}}, {"id": 755421, "name": "Wojciechowice", "state": "", "country": "PL", "coord": {"lon": 21.58942, "lat": 50.842258}}, {"id": 755427, "name": "Wojciech\u00f3w", "state": "", "country": "PL", "coord": {"lon": 22.24551, "lat": 51.235432}}, {"id": 755435, "name": "Wojasz\u00f3wka", "state": "", "country": "PL", "coord": {"lon": 21.67079, "lat": 49.777771}}, {"id": 755436, "name": "Wojakowa", "state": "", "country": "PL", "coord": {"lon": 20.5616, "lat": 49.80365}}, {"id": 755438, "name": "Wohy\u0144", "state": "", "country": "PL", "coord": {"lon": 22.78582, "lat": 51.75642}}, {"id": 755439, "name": "Wodzis\u0142aw", "state": "", "country": "PL", "coord": {"lon": 20.1915, "lat": 50.52047}}, {"id": 755442, "name": "Wodynie", "state": "", "country": "PL", "coord": {"lon": 21.95575, "lat": 52.040401}}, {"id": 755474, "name": "W\u0142odawa", "state": "", "country": "PL", "coord": {"lon": 23.549999, "lat": 51.549999}}, {"id": 755502, "name": "Wizna", "state": "", "country": "PL", "coord": {"lon": 22.38241, "lat": 53.195179}}, {"id": 755551, "name": "Wisznice", "state": "", "country": "PL", "coord": {"lon": 23.208361, "lat": 51.789242}}, {"id": 755571, "name": "Wi\u015bniowa", "state": "", "country": "PL", "coord": {"lon": 21.655081, "lat": 49.868969}}, {"id": 755572, "name": "Wi\u015bniowa", "state": "", "country": "PL", "coord": {"lon": 20.115021, "lat": 49.7878}}, {"id": 755582, "name": "Wi\u015bniew", "state": "", "country": "PL", "coord": {"lon": 22.293921, "lat": 52.072651}}, {"id": 755593, "name": "Wi\u015blica", "state": "", "country": "PL", "coord": {"lon": 20.674379, "lat": 50.348911}}, {"id": 755594, "name": "Wiskitki", "state": "", "country": "PL", "coord": {"lon": 20.387079, "lat": 52.08831}}, {"id": 755609, "name": "Winnica", "state": "", "country": "PL", "coord": {"lon": 20.941139, "lat": 52.643059}}, {"id": 755670, "name": "Wilk\u00f3w", "state": "", "country": "PL", "coord": {"lon": 21.87756, "lat": 51.262241}}, {"id": 755675, "name": "Wilko\u0142az", "state": "", "country": "PL", "coord": {"lon": 22.35014, "lat": 51.014729}}, {"id": 755692, "name": "Wilga", "state": "", "country": "PL", "coord": {"lon": 21.37751, "lat": 51.852112}}, {"id": 755697, "name": "Wilczyce", "state": "", "country": "PL", "coord": {"lon": 21.657829, "lat": 50.746941}}, {"id": 755722, "name": "Wilcza", "state": "", "country": "PL", "coord": {"lon": 22.788731, "lat": 49.792351}}, {"id": 755754, "name": "Wietrzychowice", "state": "", "country": "PL", "coord": {"lon": 20.76502, "lat": 50.190971}}, {"id": 755775, "name": "Wierzchos\u0142awice", "state": "", "country": "PL", "coord": {"lon": 20.85677, "lat": 50.02478}}, {"id": 755792, "name": "Wierzbno", "state": "", "country": "PL", "coord": {"lon": 21.85902, "lat": 52.310081}}, {"id": 755797, "name": "Wierzbna", "state": "", "country": "PL", "coord": {"lon": 22.60128, "lat": 50.033112}}, {"id": 755810, "name": "Wierzbica", "state": "", "country": "PL", "coord": {"lon": 21.08259, "lat": 51.249401}}, {"id": 755823, "name": "Wierzawice", "state": "", "country": "PL", "coord": {"lon": 22.450899, "lat": 50.236229}}, {"id": 755848, "name": "Wieniawa", "state": "", "country": "PL", "coord": {"lon": 20.794889, "lat": 51.36171}}, {"id": 755855, "name": "Wielopole Skrzy\u0144skie", "state": "", "country": "PL", "coord": {"lon": 21.61491, "lat": 49.945641}}, {"id": 755873, "name": "Wielkie Oczy", "state": "", "country": "PL", "coord": {"lon": 23.16407, "lat": 50.023571}}, {"id": 755883, "name": "Wielka Wie\u015b", "state": "", "country": "PL", "coord": {"lon": 20.966551, "lat": 51.071072}}, {"id": 755885, "name": "Wielka Wie\u015b", "state": "", "country": "PL", "coord": {"lon": 20.82304, "lat": 49.93631}}, {"id": 755886, "name": "Wieliszew", "state": "", "country": "PL", "coord": {"lon": 20.968269, "lat": 52.451302}}, {"id": 755889, "name": "Wieliczka", "state": "", "country": "PL", "coord": {"lon": 20.06473, "lat": 49.987381}}, {"id": 755907, "name": "Wielbark", "state": "", "country": "PL", "coord": {"lon": 20.946289, "lat": 53.398579}}, {"id": 755919, "name": "Wieczfnia Ko\u015bcielna", "state": "", "country": "PL", "coord": {"lon": 20.47637, "lat": 53.195339}}, {"id": 755963, "name": "Wi\u0105zownica", "state": "", "country": "PL", "coord": {"lon": 22.70668, "lat": 50.080662}}, {"id": 756010, "name": "Weso\u0142a", "state": "", "country": "PL", "coord": {"lon": 22.10029, "lat": 49.79977}}, {"id": 756024, "name": "Weremie\u0144", "state": "", "country": "PL", "coord": {"lon": 22.32937, "lat": 49.453949}}, {"id": 756028, "name": "Werbkowice", "state": "", "country": "PL", "coord": {"lon": 23.764111, "lat": 50.753731}}, {"id": 756037, "name": "Wejsuny Ma\u0142e", "state": "", "country": "PL", "coord": {"lon": 21.61128, "lat": 53.679878}}, {"id": 756045, "name": "W\u0119grzce Wielkie", "state": "", "country": "PL", "coord": {"lon": 20.110821, "lat": 50.014912}}, {"id": 756046, "name": "W\u0119gr\u00f3w", "state": "", "country": "PL", "coord": {"lon": 22.01634, "lat": 52.39954}}, {"id": 756048, "name": "W\u0119gorzewo", "state": "", "country": "PL", "coord": {"lon": 21.7372, "lat": 54.215672}}, {"id": 756053, "name": "W\u0119gl\u00f3wka", "state": "", "country": "PL", "coord": {"lon": 20.085751, "lat": 49.734241}}, {"id": 756084, "name": "Wawrze\u0144czyce", "state": "", "country": "PL", "coord": {"lon": 20.31612, "lat": 50.110119}}, {"id": 756091, "name": "W\u0105wolnica", "state": "", "country": "PL", "coord": {"lon": 22.146811, "lat": 51.29467}}, {"id": 756106, "name": "W\u0105sosz", "state": "", "country": "PL", "coord": {"lon": 22.319151, "lat": 53.522091}}, {"id": 756109, "name": "Wa\u015bni\u00f3w", "state": "", "country": "PL", "coord": {"lon": 21.223009, "lat": 50.899139}}, {"id": 756120, "name": "Wasilk\u00f3w", "state": "", "country": "PL", "coord": {"lon": 23.20776, "lat": 53.199089}}, {"id": 756135, "name": "Warsaw", "state": "", "country": "PL", "coord": {"lon": 21.01178, "lat": 52.229771}}, {"id": 756151, "name": "Warka", "state": "", "country": "PL", "coord": {"lon": 21.19091, "lat": 51.784302}}, {"id": 756197, "name": "Jod\u0142\u00f3wka-Wa\u0142ki", "state": "", "country": "PL", "coord": {"lon": 21.13332, "lat": 50.049919}}, {"id": 756227, "name": "Waksmund", "state": "", "country": "PL", "coord": {"lon": 20.07563, "lat": 49.482071}}, {"id": 756246, "name": "Wadowice G\u00f3rne", "state": "", "country": "PL", "coord": {"lon": 21.302151, "lat": 50.263119}}, {"id": 756258, "name": "W\u0105chock", "state": "", "country": "PL", "coord": {"lon": 21.01243, "lat": 51.07391}}, {"id": 756280, "name": "Ustrzyki Dolne", "state": "", "country": "PL", "coord": {"lon": 22.593809, "lat": 49.430401}}, {"id": 756295, "name": "U\u015bcim\u00f3w Stary", "state": "", "country": "PL", "coord": {"lon": 22.95516, "lat": 51.46962}}, {"id": 756300, "name": "U\u015bcie Ruskie", "state": "", "country": "PL", "coord": {"lon": 21.133329, "lat": 49.51667}}, {"id": 756302, "name": "U\u015bcie Gorlickie", "state": "", "country": "PL", "coord": {"lon": 21.13821, "lat": 49.521919}}, {"id": 756311, "name": "Urzuty", "state": "", "country": "PL", "coord": {"lon": 20.6682, "lat": 50.21228}}, {"id": 756313, "name": "Urzejowice", "state": "", "country": "PL", "coord": {"lon": 22.461889, "lat": 50.011822}}, {"id": 756315, "name": "Urz\u0119d\u00f3w", "state": "", "country": "PL", "coord": {"lon": 22.142599, "lat": 50.993229}}, {"id": 756316, "name": "Urszulin", "state": "", "country": "PL", "coord": {"lon": 23.194799, "lat": 51.393902}}, {"id": 756349, "name": "Ulica Starowiejska", "state": "", "country": "PL", "coord": {"lon": 22.297779, "lat": 52.165588}}, {"id": 756351, "name": "Ulh\u00f3wek", "state": "", "country": "PL", "coord": {"lon": 23.799561, "lat": 50.449692}}, {"id": 756354, "name": "U\u0142\u0119\u017c", "state": "", "country": "PL", "coord": {"lon": 22.10741, "lat": 51.591949}}, {"id": 756377, "name": "Ulan\u00f3w", "state": "", "country": "PL", "coord": {"lon": 22.26362, "lat": 50.490311}}, {"id": 756406, "name": "Uherce Mineralne", "state": "", "country": "PL", "coord": {"lon": 22.398291, "lat": 49.46455}}, {"id": 756438, "name": "Tyszowce", "state": "", "country": "PL", "coord": {"lon": 23.69927, "lat": 50.616989}}, {"id": 756456, "name": "Tyrawa Wo\u0142oska", "state": "", "country": "PL", "coord": {"lon": 22.369881, "lat": 49.577438}}, {"id": 756474, "name": "Tymbark", "state": "", "country": "PL", "coord": {"lon": 20.32539, "lat": 49.728588}}, {"id": 756484, "name": "Tykocin", "state": "", "country": "PL", "coord": {"lon": 22.77457, "lat": 53.205669}}, {"id": 756485, "name": "Tyczyn", "state": "", "country": "PL", "coord": {"lon": 22.033979, "lat": 49.96384}}, {"id": 756507, "name": "Tworki", "state": "", "country": "PL", "coord": {"lon": 20.81978, "lat": 52.173828}}, {"id": 756510, "name": "Twierdza", "state": "", "country": "PL", "coord": {"lon": 21.62916, "lat": 49.833889}}, {"id": 756532, "name": "Turze Pole", "state": "", "country": "PL", "coord": {"lon": 22.004761, "lat": 49.663288}}, {"id": 756567, "name": "Turo\u015b\u0144 Ko\u015bcielna", "state": "", "country": "PL", "coord": {"lon": 23.055321, "lat": 53.014629}}, {"id": 756577, "name": "Turobin", "state": "", "country": "PL", "coord": {"lon": 22.742729, "lat": 50.823669}}, {"id": 756627, "name": "Tuczna", "state": "", "country": "PL", "coord": {"lon": 23.4252, "lat": 51.88028}}, {"id": 756629, "name": "Tucz\u0119py", "state": "", "country": "PL", "coord": {"lon": 20.991871, "lat": 50.516762}}, {"id": 756634, "name": "Tuch\u00f3w", "state": "", "country": "PL", "coord": {"lon": 21.05407, "lat": 49.894852}}, {"id": 756648, "name": "Trzydnik Du\u017cy", "state": "", "country": "PL", "coord": {"lon": 22.133591, "lat": 50.848869}}, {"id": 756679, "name": "Trzeme\u015bnia", "state": "", "country": "PL", "coord": {"lon": 20.02207, "lat": 49.827518}}, {"id": 756688, "name": "Trzebownisko", "state": "", "country": "PL", "coord": {"lon": 22.037121, "lat": 50.078289}}, {"id": 756692, "name": "Trzebiesz\u00f3w", "state": "", "country": "PL", "coord": {"lon": 22.555019, "lat": 51.990059}}, {"id": 756709, "name": "Trzcinica", "state": "", "country": "PL", "coord": {"lon": 21.4175, "lat": 49.743011}}, {"id": 756734, "name": "Trzciana", "state": "", "country": "PL", "coord": {"lon": 21.33725, "lat": 50.307709}}, {"id": 756735, "name": "Trzciana", "state": "", "country": "PL", "coord": {"lon": 21.838499, "lat": 50.071899}}, {"id": 756736, "name": "Trzciana", "state": "", "country": "PL", "coord": {"lon": 20.374149, "lat": 49.844849}}, {"id": 756748, "name": "Try\u0144cza", "state": "", "country": "PL", "coord": {"lon": 22.550079, "lat": 50.16087}}, {"id": 756769, "name": "Truskaw", "state": "", "country": "PL", "coord": {"lon": 20.78244, "lat": 52.301239}}, {"id": 756771, "name": "Troszyn", "state": "", "country": "PL", "coord": {"lon": 21.730829, "lat": 53.031151}}, {"id": 756794, "name": "Trojan\u00f3w", "state": "", "country": "PL", "coord": {"lon": 21.811119, "lat": 51.692249}}, {"id": 756819, "name": "Trawniki", "state": "", "country": "PL", "coord": {"lon": 22.998159, "lat": 51.13633}}, {"id": 756824, "name": "Trablice", "state": "", "country": "PL", "coord": {"lon": 21.128771, "lat": 51.352489}}, {"id": 756825, "name": "Tr\u0105bki", "state": "", "country": "PL", "coord": {"lon": 21.599291, "lat": 51.947922}}, {"id": 756826, "name": "Tr\u0105bki", "state": "", "country": "PL", "coord": {"lon": 20.142401, "lat": 49.962261}}, {"id": 756867, "name": "Tomasz\u00f3w Mazowiecki", "state": "", "country": "PL", "coord": {"lon": 20.008551, "lat": 51.531311}}, {"id": 756868, "name": "Tomasz\u00f3w Lubelski", "state": "", "country": "PL", "coord": {"lon": 23.416161, "lat": 50.44767}}, {"id": 756919, "name": "T\u0142uszcz", "state": "", "country": "PL", "coord": {"lon": 21.43561, "lat": 52.43058}}, {"id": 756933, "name": "Tereszpol", "state": "", "country": "PL", "coord": {"lon": 22.879801, "lat": 50.583729}}, {"id": 756937, "name": "Tereszpol", "state": "", "country": "PL", "coord": {"lon": 22.933331, "lat": 50.566669}}, {"id": 756938, "name": "Terespol", "state": "", "country": "PL", "coord": {"lon": 23.61614, "lat": 52.0755}}, {"id": 756939, "name": "Teresin", "state": "", "country": "PL", "coord": {"lon": 20.416719, "lat": 52.198872}}, {"id": 756980, "name": "Telatyn", "state": "", "country": "PL", "coord": {"lon": 23.83956, "lat": 50.527119}}, {"id": 756992, "name": "Tcz\u00f3w", "state": "", "country": "PL", "coord": {"lon": 21.44677, "lat": 51.326}}, {"id": 757020, "name": "Tarnowiec", "state": "", "country": "PL", "coord": {"lon": 20.986549, "lat": 49.98164}}, {"id": 757021, "name": "Tarnowiec", "state": "", "country": "PL", "coord": {"lon": 21.57663, "lat": 49.731079}}, {"id": 757026, "name": "Tarn\u00f3w", "state": "", "country": "PL", "coord": {"lon": 20.98698, "lat": 50.013809}}, {"id": 757029, "name": "Tarnogr\u00f3d", "state": "", "country": "PL", "coord": {"lon": 22.741739, "lat": 50.360901}}, {"id": 757033, "name": "Tarnobrzeg", "state": "", "country": "PL", "coord": {"lon": 21.679371, "lat": 50.57304}}, {"id": 757044, "name": "Tarnawatka", "state": "", "country": "PL", "coord": {"lon": 23.395901, "lat": 50.53154}}, {"id": 757050, "name": "Tar\u0142\u00f3w", "state": "", "country": "PL", "coord": {"lon": 21.714741, "lat": 51.001598}}, {"id": 757062, "name": "Targowisko", "state": "", "country": "PL", "coord": {"lon": 20.896231, "lat": 50.138401}}, {"id": 757063, "name": "Targowisko", "state": "", "country": "PL", "coord": {"lon": 20.293461, "lat": 49.98473}}, {"id": 757071, "name": "Tarczyn", "state": "", "country": "PL", "coord": {"lon": 20.833941, "lat": 51.981972}}, {"id": 757109, "name": "Taj\u0119cina", "state": "", "country": "PL", "coord": {"lon": 22.01111, "lat": 50.124649}}, {"id": 757135, "name": "Szynwa\u0142d", "state": "", "country": "PL", "coord": {"lon": 21.122931, "lat": 49.96767}}, {"id": 757152, "name": "Szymany", "state": "", "country": "PL", "coord": {"lon": 20.96357, "lat": 53.48465}}, {"id": 757174, "name": "Szyd\u0142owo", "state": "", "country": "PL", "coord": {"lon": 20.45071, "lat": 53.08062}}, {"id": 757178, "name": "Szyd\u0142owiec", "state": "", "country": "PL", "coord": {"lon": 20.861059, "lat": 51.22823}}, {"id": 757182, "name": "Szyd\u0142\u00f3w", "state": "", "country": "PL", "coord": {"lon": 21.0068, "lat": 50.591141}}, {"id": 757214, "name": "Szumowo", "state": "", "country": "PL", "coord": {"lon": 22.08449, "lat": 52.918839}}, {"id": 757240, "name": "Szre\u0144sk", "state": "", "country": "PL", "coord": {"lon": 20.12009, "lat": 53.012772}}, {"id": 757322, "name": "Szerzyny", "state": "", "country": "PL", "coord": {"lon": 21.2467, "lat": 49.809189}}, {"id": 757335, "name": "Szepietowo", "state": "", "country": "PL", "coord": {"lon": 22.543921, "lat": 52.870319}}, {"id": 757343, "name": "Szelk\u00f3w", "state": "", "country": "PL", "coord": {"lon": 21.21769, "lat": 52.834869}}, {"id": 757357, "name": "Szczytno", "state": "", "country": "PL", "coord": {"lon": 20.987471, "lat": 53.562592}}, {"id": 757376, "name": "Szczurowa", "state": "", "country": "PL", "coord": {"lon": 20.636101, "lat": 50.119148}}, {"id": 757386, "name": "Szczuczyn", "state": "", "country": "PL", "coord": {"lon": 22.285339, "lat": 53.563301}}, {"id": 757388, "name": "Szczucin", "state": "", "country": "PL", "coord": {"lon": 21.07444, "lat": 50.30957}}, {"id": 757452, "name": "Szczebrzeszyn", "state": "", "country": "PL", "coord": {"lon": 22.97954, "lat": 50.694988}}, {"id": 757460, "name": "Szczawnica Ni\u017cna", "state": "", "country": "PL", "coord": {"lon": 20.48333, "lat": 49.433331}}, {"id": 757461, "name": "Szczawnica", "state": "", "country": "PL", "coord": {"lon": 20.484871, "lat": 49.42437}}, {"id": 757472, "name": "Szastarka", "state": "", "country": "PL", "coord": {"lon": 22.3346, "lat": 50.854939}}, {"id": 757479, "name": "Szar\u00f3w", "state": "", "country": "PL", "coord": {"lon": 20.2696, "lat": 49.995049}}, {"id": 757512, "name": "Szaflary", "state": "", "country": "PL", "coord": {"lon": 20.02713, "lat": 49.426552}}, {"id": 757531, "name": "Sypniewo", "state": "", "country": "PL", "coord": {"lon": 21.307301, "lat": 53.005798}}, {"id": 757585, "name": "\u015awilcza", "state": "", "country": "PL", "coord": {"lon": 21.89798, "lat": 50.071789}}, {"id": 757608, "name": "Swi\u0119tajno", "state": "", "country": "PL", "coord": {"lon": 22.3183, "lat": 54.001511}}, {"id": 757609, "name": "Swietajno", "state": "", "country": "PL", "coord": {"lon": 22.33297, "lat": 54.038921}}, {"id": 757610, "name": "\u015awi\u0119tajno", "state": "", "country": "PL", "coord": {"lon": 21.21546, "lat": 53.566921}}, {"id": 757690, "name": "\u015awidnik Ma\u0142y", "state": "", "country": "PL", "coord": {"lon": 22.6805, "lat": 51.256008}}, {"id": 757692, "name": "\u015awidnik", "state": "", "country": "PL", "coord": {"lon": 22.696211, "lat": 51.218979}}, {"id": 757718, "name": "Suwa\u0142ki", "state": "", "country": "PL", "coord": {"lon": 22.93087, "lat": 54.111752}}, {"id": 757735, "name": "Susiec", "state": "", "country": "PL", "coord": {"lon": 23.19626, "lat": 50.419731}}, {"id": 757751, "name": "Sura\u017c", "state": "", "country": "PL", "coord": {"lon": 22.95653, "lat": 52.949081}}, {"id": 757758, "name": "Supra\u015bl", "state": "", "country": "PL", "coord": {"lon": 23.33934, "lat": 53.205261}}, {"id": 757773, "name": "Su\u0142\u00f3w", "state": "", "country": "PL", "coord": {"lon": 22.360609, "lat": 50.906609}}, {"id": 757774, "name": "Su\u0142\u00f3w", "state": "", "country": "PL", "coord": {"lon": 22.955931, "lat": 50.770988}}, {"id": 757782, "name": "Su\u0142kowice", "state": "", "country": "PL", "coord": {"lon": 21.089291, "lat": 51.9231}}, {"id": 757809, "name": "Sulej\u00f3wek", "state": "", "country": "PL", "coord": {"lon": 21.26902, "lat": 52.252209}}, {"id": 757848, "name": "Sucho\u017cebry", "state": "", "country": "PL", "coord": {"lon": 22.25289, "lat": 52.25948}}, {"id": 757850, "name": "Suchowola", "state": "", "country": "PL", "coord": {"lon": 23.105961, "lat": 53.57753}}, {"id": 757886, "name": "Suchedni\u00f3w", "state": "", "country": "PL", "coord": {"lon": 20.82922, "lat": 51.04776}}, {"id": 757894, "name": "Sucha", "state": "", "country": "PL", "coord": {"lon": 20.94887, "lat": 51.619991}}, {"id": 757912, "name": "Stupsk", "state": "", "country": "PL", "coord": {"lon": 20.4368, "lat": 53.022579}}, {"id": 757948, "name": "Stubno", "state": "", "country": "PL", "coord": {"lon": 22.95602, "lat": 49.89806}}, {"id": 757953, "name": "Strzy\u017cowice", "state": "", "country": "PL", "coord": {"lon": 22.44018, "lat": 51.048302}}, {"id": 757957, "name": "Strzy\u017c\u00f3w", "state": "", "country": "PL", "coord": {"lon": 21.79413, "lat": 49.870739}}, {"id": 757993, "name": "Strzegowo", "state": "", "country": "PL", "coord": {"lon": 20.28548, "lat": 52.89394}}, {"id": 758071, "name": "Stromiec", "state": "", "country": "PL", "coord": {"lon": 21.092291, "lat": 51.646999}}, {"id": 758090, "name": "Strawczyn", "state": "", "country": "PL", "coord": {"lon": 20.42135, "lat": 50.941769}}, {"id": 758091, "name": "Straszydle", "state": "", "country": "PL", "coord": {"lon": 21.981239, "lat": 49.900379}}, {"id": 758103, "name": "Strach\u00f3wka", "state": "", "country": "PL", "coord": {"lon": 21.635, "lat": 52.426922}}, {"id": 758110, "name": "Strachocina", "state": "", "country": "PL", "coord": {"lon": 22.08836, "lat": 49.60815}}, {"id": 758116, "name": "Stopnica", "state": "", "country": "PL", "coord": {"lon": 20.937799, "lat": 50.440182}}, {"id": 758157, "name": "Stoczek \u0141ukowski", "state": "", "country": "PL", "coord": {"lon": 21.971371, "lat": 51.961349}}, {"id": 758162, "name": "Stoczek", "state": "", "country": "PL", "coord": {"lon": 21.900129, "lat": 52.54332}}, {"id": 758175, "name": "St\u0119\u017cyca", "state": "", "country": "PL", "coord": {"lon": 21.77087, "lat": 51.581871}}, {"id": 758182, "name": "Sterdy\u0144", "state": "", "country": "PL", "coord": {"lon": 22.293579, "lat": 52.580261}}, {"id": 758204, "name": "Stefan\u00f3w", "state": "", "country": "PL", "coord": {"lon": 21.216669, "lat": 51.98333}}, {"id": 758238, "name": "Stawiski", "state": "", "country": "PL", "coord": {"lon": 22.154619, "lat": 53.379871}}, {"id": 758242, "name": "Stawiguda", "state": "", "country": "PL", "coord": {"lon": 20.40041, "lat": 53.6572}}, {"id": 758252, "name": "Stasz\u00f3w", "state": "", "country": "PL", "coord": {"lon": 21.16593, "lat": 50.563068}}, {"id": 758276, "name": "Stary Zamo\u015b\u0107", "state": "", "country": "PL", "coord": {"lon": 23.171539, "lat": 50.820042}}, {"id": 758278, "name": "Stary Wi\u015bnicz", "state": "", "country": "PL", "coord": {"lon": 20.48641, "lat": 49.92548}}, {"id": 758282, "name": "Stary S\u0105cz", "state": "", "country": "PL", "coord": {"lon": 20.63496, "lat": 49.563641}}, {"id": 758309, "name": "Starosielce", "state": "", "country": "PL", "coord": {"lon": 23.075291, "lat": 53.13353}}, {"id": 758327, "name": "Stare Miasto", "state": "", "country": "PL", "coord": {"lon": 22.429279, "lat": 50.288792}}, {"id": 758332, "name": "Stare Juchy", "state": "", "country": "PL", "coord": {"lon": 22.17367, "lat": 53.921982}}, {"id": 758343, "name": "Stare Babice", "state": "", "country": "PL", "coord": {"lon": 20.83403, "lat": 52.260281}}, {"id": 758371, "name": "Stara Wie\u015b", "state": "", "country": "PL", "coord": {"lon": 22.00441, "lat": 49.71505}}, {"id": 758390, "name": "Starachowice", "state": "", "country": "PL", "coord": {"lon": 21.07126, "lat": 51.037399}}, {"id": 758393, "name": "St\u0105pork\u00f3w", "state": "", "country": "PL", "coord": {"lon": 20.57173, "lat": 51.137619}}, {"id": 758415, "name": "Stanis\u0142aw\u00f3w Pierwszy", "state": "", "country": "PL", "coord": {"lon": 21.05184, "lat": 52.374851}}, {"id": 758416, "name": "Stanis\u0142aw\u00f3w", "state": "", "country": "PL", "coord": {"lon": 21.548479, "lat": 52.289371}}, {"id": 758435, "name": "Stanis\u0142awice", "state": "", "country": "PL", "coord": {"lon": 20.351231, "lat": 49.9855}}, {"id": 758445, "name": "Stalowa Wola", "state": "", "country": "PL", "coord": {"lon": 22.053341, "lat": 50.582859}}, {"id": 758467, "name": "Srokowo", "state": "", "country": "PL", "coord": {"lon": 21.52282, "lat": 54.214161}}, {"id": 758517, "name": "Spiczyn", "state": "", "country": "PL", "coord": {"lon": 22.75354, "lat": 51.341282}}, {"id": 758539, "name": "Sosn\u00f3wka", "state": "", "country": "PL", "coord": {"lon": 23.33814, "lat": 51.750839}}, {"id": 758548, "name": "Sosnowica", "state": "", "country": "PL", "coord": {"lon": 23.09215, "lat": 51.520649}}, {"id": 758558, "name": "So\u015bnica", "state": "", "country": "PL", "coord": {"lon": 22.874689, "lat": 49.900829}}, {"id": 758574, "name": "So\u0144sk", "state": "", "country": "PL", "coord": {"lon": 20.699011, "lat": 52.781639}}, {"id": 758575, "name": "Sonina", "state": "", "country": "PL", "coord": {"lon": 22.265511, "lat": 50.06089}}, {"id": 758577, "name": "Somianka", "state": "", "country": "PL", "coord": {"lon": 21.29339, "lat": 52.560909}}, {"id": 758603, "name": "Solec-Zdr\u00f3j", "state": "", "country": "PL", "coord": {"lon": 20.889561, "lat": 50.36594}}, {"id": 758605, "name": "Solec Nad Wis\u0142\u0105", "state": "", "country": "PL", "coord": {"lon": 21.765631, "lat": 51.13633}}, {"id": 758624, "name": "Soko\u0142y", "state": "", "country": "PL", "coord": {"lon": 22.7005, "lat": 52.993141}}, {"id": 758626, "name": "Soko\u0142\u00f3w Podlaski", "state": "", "country": "PL", "coord": {"lon": 22.253071, "lat": 52.406769}}, {"id": 758633, "name": "Soko\u0142\u00f3w Ma\u0142opolski", "state": "", "country": "PL", "coord": {"lon": 22.11968, "lat": 50.229092}}, {"id": 758636, "name": "Soko\u0142\u00f3w G\u00f3rny", "state": "", "country": "PL", "coord": {"lon": 20.45223, "lat": 50.723942}}, {"id": 758646, "name": "Sokolniki", "state": "", "country": "PL", "coord": {"lon": 21.80649, "lat": 50.638031}}, {"id": 758651, "name": "Sok\u00f3\u0142ka", "state": "", "country": "PL", "coord": {"lon": 23.502279, "lat": 53.40715}}, {"id": 758681, "name": "Sochocin", "state": "", "country": "PL", "coord": {"lon": 20.472589, "lat": 52.687149}}, {"id": 758682, "name": "Sochaczew", "state": "", "country": "PL", "coord": {"lon": 20.23838, "lat": 52.229439}}, {"id": 758697, "name": "Sobolew", "state": "", "country": "PL", "coord": {"lon": 21.66349, "lat": 51.736599}}, {"id": 758704, "name": "Sobk\u00f3w", "state": "", "country": "PL", "coord": {"lon": 20.450621, "lat": 50.699989}}, {"id": 758715, "name": "Sobienie Jeziory", "state": "", "country": "PL", "coord": {"lon": 21.30335, "lat": 51.932732}}, {"id": 758746, "name": "\u015aniadowo", "state": "", "country": "PL", "coord": {"lon": 21.99077, "lat": 53.038738}}, {"id": 758759, "name": "Smyk\u00f3w", "state": "", "country": "PL", "coord": {"lon": 20.40032, "lat": 51.044418}}, {"id": 758833, "name": "Sm\u0119gorz\u00f3w", "state": "", "country": "PL", "coord": {"lon": 21.004141, "lat": 50.228432}}, {"id": 758850, "name": "S\u0142upno", "state": "", "country": "PL", "coord": {"lon": 21.15572, "lat": 52.38409}}, {"id": 758853, "name": "S\u0142upiec", "state": "", "country": "PL", "coord": {"lon": 21.193741, "lat": 50.327869}}, {"id": 758857, "name": "S\u0142upia", "state": "", "country": "PL", "coord": {"lon": 20.1406, "lat": 51.013699}}, {"id": 758879, "name": "S\u0142otwiny", "state": "", "country": "PL", "coord": {"lon": 20.950899, "lat": 49.436951}}, {"id": 758883, "name": "S\u0142otowa", "state": "", "country": "PL", "coord": {"lon": 21.29425, "lat": 49.94603}}, {"id": 758887, "name": "S\u0142opnice", "state": "", "country": "PL", "coord": {"lon": 20.34325, "lat": 49.684959}}, {"id": 758905, "name": "S\u0142omniki", "state": "", "country": "PL", "coord": {"lon": 20.082239, "lat": 50.24012}}, {"id": 758952, "name": "S\u0142awno", "state": "", "country": "PL", "coord": {"lon": 20.14043, "lat": 51.392731}}, {"id": 758967, "name": "S\u0142awek", "state": "", "country": "PL", "coord": {"lon": 21.25, "lat": 52.349998}}, {"id": 758970, "name": "S\u0142aw\u0119cin", "state": "", "country": "PL", "coord": {"lon": 21.355961, "lat": 49.75238}}, {"id": 758973, "name": "S\u0142awatycze", "state": "", "country": "PL", "coord": {"lon": 23.5546, "lat": 51.763378}}, {"id": 759007, "name": "Skrzysz\u00f3w", "state": "", "country": "PL", "coord": {"lon": 21.06139, "lat": 49.993729}}, {"id": 759022, "name": "Skrzydlna", "state": "", "country": "PL", "coord": {"lon": 20.18618, "lat": 49.753429}}, {"id": 759064, "name": "Sk\u00f3rzec", "state": "", "country": "PL", "coord": {"lon": 22.13052, "lat": 52.107269}}, {"id": 759065, "name": "Skorupy", "state": "", "country": "PL", "coord": {"lon": 23.180019, "lat": 53.135239}}, {"id": 759083, "name": "Skopanie", "state": "", "country": "PL", "coord": {"lon": 21.57295, "lat": 50.481899}}, {"id": 759092, "name": "Sko\u0142yszyn", "state": "", "country": "PL", "coord": {"lon": 21.336651, "lat": 49.74955}}, {"id": 759123, "name": "Skierniewice", "state": "", "country": "PL", "coord": {"lon": 20.158369, "lat": 51.954849}}, {"id": 759127, "name": "Skierbiesz\u00f3w", "state": "", "country": "PL", "coord": {"lon": 23.359171, "lat": 50.851582}}, {"id": 759140, "name": "Skar\u017cysko Ko\u015bcielne", "state": "", "country": "PL", "coord": {"lon": 20.911961, "lat": 51.138222}}, {"id": 759141, "name": "Skar\u017cysko-Kamienna", "state": "", "country": "PL", "coord": {"lon": 20.87162, "lat": 51.11311}}, {"id": 759151, "name": "Skaryszew", "state": "", "country": "PL", "coord": {"lon": 21.252331, "lat": 51.310749}}, {"id": 759172, "name": "Skalbmierz", "state": "", "country": "PL", "coord": {"lon": 20.39929, "lat": 50.319931}}, {"id": 759180, "name": "Siwki", "state": "", "country": "PL", "coord": {"lon": 21.133329, "lat": 52.316669}}, {"id": 759190, "name": "Sitno", "state": "", "country": "PL", "coord": {"lon": 23.3626, "lat": 50.749439}}, {"id": 759194, "name": "Osiedle-Nowiny", "state": "", "country": "PL", "coord": {"lon": 20.54117, "lat": 50.817699}}, {"id": 759203, "name": "Sio\u0142kowa", "state": "", "country": "PL", "coord": {"lon": 20.93692, "lat": 49.634109}}, {"id": 759234, "name": "Sietesz", "state": "", "country": "PL", "coord": {"lon": 22.34671, "lat": 49.986221}}, {"id": 759245, "name": "Sierzch\u00f3w", "state": "", "country": "PL", "coord": {"lon": 21.119061, "lat": 51.986809}}, {"id": 759266, "name": "Sieradza", "state": "", "country": "PL", "coord": {"lon": 20.92947, "lat": 50.134991}}, {"id": 759275, "name": "Sienno", "state": "", "country": "PL", "coord": {"lon": 21.48325, "lat": 51.08773}}, {"id": 759282, "name": "Siennica", "state": "", "country": "PL", "coord": {"lon": 21.619209, "lat": 52.09164}}, {"id": 759301, "name": "Sieniawa", "state": "", "country": "PL", "coord": {"lon": 22.609541, "lat": 50.177898}}, {"id": 759302, "name": "Sieniawa", "state": "", "country": "PL", "coord": {"lon": 21.927851, "lat": 49.565079}}, {"id": 759316, "name": "Siemie\u0144", "state": "", "country": "PL", "coord": {"lon": 22.77243, "lat": 51.62883}}, {"id": 759317, "name": "Siemiech\u00f3w", "state": "", "country": "PL", "coord": {"lon": 20.905951, "lat": 49.853588}}, {"id": 759320, "name": "Siemiatycze", "state": "", "country": "PL", "coord": {"lon": 22.86231, "lat": 52.427189}}, {"id": 759325, "name": "Siemi\u0105tkowo", "state": "", "country": "PL", "coord": {"lon": 20.028931, "lat": 52.8811}}, {"id": 759398, "name": "Siedliska", "state": "", "country": "PL", "coord": {"lon": 21.94742, "lat": 49.95409}}, {"id": 759399, "name": "Siedliska", "state": "", "country": "PL", "coord": {"lon": 20.99625, "lat": 49.871632}}, {"id": 759409, "name": "Siedleczka", "state": "", "country": "PL", "coord": {"lon": 22.37949, "lat": 49.960609}}, {"id": 759412, "name": "Siedlce", "state": "", "country": "PL", "coord": {"lon": 22.29006, "lat": 52.167721}}, {"id": 759466, "name": "Serokomla", "state": "", "country": "PL", "coord": {"lon": 22.332371, "lat": 51.700699}}, {"id": 759470, "name": "Serock", "state": "", "country": "PL", "coord": {"lon": 21.069099, "lat": 52.510361}}, {"id": 759472, "name": "Serniki", "state": "", "country": "PL", "coord": {"lon": 22.658529, "lat": 51.43716}}, {"id": 759482, "name": "S\u0119popol", "state": "", "country": "PL", "coord": {"lon": 21.01453, "lat": 54.269032}}, {"id": 759495, "name": "S\u0119kowa", "state": "", "country": "PL", "coord": {"lon": 21.197689, "lat": 49.622169}}, {"id": 759503, "name": "Sejny", "state": "", "country": "PL", "coord": {"lon": 23.346979, "lat": 54.108021}}, {"id": 759504, "name": "S\u0119dzisz\u00f3w Ma\u0142opolski", "state": "", "country": "PL", "coord": {"lon": 21.700621, "lat": 50.07069}}, {"id": 759507, "name": "S\u0119dzisz\u00f3w", "state": "", "country": "PL", "coord": {"lon": 20.05563, "lat": 50.565899}}, {"id": 759534, "name": "Sawin", "state": "", "country": "PL", "coord": {"lon": 23.43375, "lat": 51.274429}}, {"id": 759579, "name": "Sarnaki", "state": "", "country": "PL", "coord": {"lon": 22.89044, "lat": 52.315041}}, {"id": 759591, "name": "Sanok", "state": "", "country": "PL", "coord": {"lon": 22.205601, "lat": 49.555729}}, {"id": 759603, "name": "Sandomierz", "state": "", "country": "PL", "coord": {"lon": 21.74898, "lat": 50.682652}}, {"id": 759631, "name": "Samborzec", "state": "", "country": "PL", "coord": {"lon": 21.64822, "lat": 50.646629}}, {"id": 759678, "name": "Sadowne", "state": "", "country": "PL", "coord": {"lon": 21.845631, "lat": 52.641239}}, {"id": 759680, "name": "Sadowie", "state": "", "country": "PL", "coord": {"lon": 21.368839, "lat": 50.852612}}, {"id": 759689, "name": "Sadkowice", "state": "", "country": "PL", "coord": {"lon": 20.51465, "lat": 51.72517}}, {"id": 759704, "name": "Sabnie", "state": "", "country": "PL", "coord": {"lon": 22.306971, "lat": 52.500969}}, {"id": 759722, "name": "Rzezawa", "state": "", "country": "PL", "coord": {"lon": 20.515079, "lat": 49.989971}}, {"id": 759726, "name": "Rzewnie", "state": "", "country": "PL", "coord": {"lon": 21.336821, "lat": 52.835079}}, {"id": 759734, "name": "Rzesz\u00f3w", "state": "", "country": "PL", "coord": {"lon": 21.99901, "lat": 50.041321}}, {"id": 759751, "name": "Rzepiennik Strzy\u017cewski", "state": "", "country": "PL", "coord": {"lon": 21.03599, "lat": 49.80542}}, {"id": 759754, "name": "Rzeped\u017a", "state": "", "country": "PL", "coord": {"lon": 22.11174, "lat": 49.369968}}, {"id": 759757, "name": "Rzeku\u0144", "state": "", "country": "PL", "coord": {"lon": 21.620689, "lat": 53.047562}}, {"id": 759778, "name": "Rzeczyca", "state": "", "country": "PL", "coord": {"lon": 22.74942, "lat": 51.96225}}, {"id": 759779, "name": "Rzeczyca", "state": "", "country": "PL", "coord": {"lon": 20.29484, "lat": 51.59824}}, {"id": 759786, "name": "Rzeczni\u00f3w", "state": "", "country": "PL", "coord": {"lon": 21.440081, "lat": 51.12804}}, {"id": 759802, "name": "Rz\u0105\u015bnik", "state": "", "country": "PL", "coord": {"lon": 21.36772, "lat": 52.713322}}, {"id": 759814, "name": "Rytwiany", "state": "", "country": "PL", "coord": {"lon": 21.20636, "lat": 50.529202}}, {"id": 759815, "name": "Rytro", "state": "", "country": "PL", "coord": {"lon": 20.666309, "lat": 49.48904}}, {"id": 759839, "name": "Ryn", "state": "", "country": "PL", "coord": {"lon": 21.546419, "lat": 53.937698}}, {"id": 759843, "name": "Ryman\u00f3w", "state": "", "country": "PL", "coord": {"lon": 21.868111, "lat": 49.576488}}, {"id": 759852, "name": "Ryki", "state": "", "country": "PL", "coord": {"lon": 21.932739, "lat": 51.62574}}, {"id": 759859, "name": "Ryglice", "state": "", "country": "PL", "coord": {"lon": 21.13748, "lat": 49.878868}}, {"id": 759875, "name": "Ryczyw\u00f3\u0142", "state": "", "country": "PL", "coord": {"lon": 21.42197, "lat": 51.691181}}, {"id": 759895, "name": "Rybno", "state": "", "country": "PL", "coord": {"lon": 20.10301, "lat": 52.242779}}, {"id": 759915, "name": "Rybie", "state": "", "country": "PL", "coord": {"lon": 20.93655, "lat": 52.15229}}, {"id": 759922, "name": "Rybczewice", "state": "", "country": "PL", "coord": {"lon": 22.850531, "lat": 51.028759}}, {"id": 759946, "name": "Rutki", "state": "", "country": "PL", "coord": {"lon": 22.433331, "lat": 53.099998}}, {"id": 759981, "name": "Rusin\u00f3w", "state": "", "country": "PL", "coord": {"lon": 20.587009, "lat": 51.436779}}, {"id": 759993, "name": "Rury Jezuickie", "state": "", "country": "PL", "coord": {"lon": 22.566669, "lat": 51.25}}, {"id": 760054, "name": "Rudnik", "state": "", "country": "PL", "coord": {"lon": 22.972931, "lat": 50.880348}}, {"id": 760055, "name": "Rudnik nad Sanem", "state": "", "country": "PL", "coord": {"lon": 22.24856, "lat": 50.441521}}, {"id": 760062, "name": "Rudna Wielka", "state": "", "country": "PL", "coord": {"lon": 21.94759, "lat": 50.08799}}, {"id": 760063, "name": "Rudna Ma\u0142a", "state": "", "country": "PL", "coord": {"lon": 21.960211, "lat": 50.098888}}, {"id": 760084, "name": "Rudka", "state": "", "country": "PL", "coord": {"lon": 22.726761, "lat": 52.724388}}, {"id": 760087, "name": "Rudka", "state": "", "country": "PL", "coord": {"lon": 21.328529, "lat": 52.143242}}, {"id": 760123, "name": "Ruda Maleniecka", "state": "", "country": "PL", "coord": {"lon": 20.22377, "lat": 51.14592}}, {"id": 760155, "name": "Ruda", "state": "", "country": "PL", "coord": {"lon": 22.383101, "lat": 50.695148}}, {"id": 760166, "name": "Ruciane-Nida", "state": "", "country": "PL", "coord": {"lon": 21.53964, "lat": 53.641609}}, {"id": 760182, "name": "Ro\u017cwienica", "state": "", "country": "PL", "coord": {"lon": 22.59424, "lat": 49.95277}}, {"id": 760203, "name": "Rozogi", "state": "", "country": "PL", "coord": {"lon": 21.36223, "lat": 53.485489}}, {"id": 760237, "name": "Rozb\u00f3rz", "state": "", "country": "PL", "coord": {"lon": 22.54686, "lat": 50.056149}}, {"id": 760254, "name": "Siennica R\u00f3\u017cana", "state": "", "country": "PL", "coord": {"lon": 23.322599, "lat": 51.001228}}, {"id": 760255, "name": "R\u00f3\u017can", "state": "", "country": "PL", "coord": {"lon": 21.39105, "lat": 52.887569}}, {"id": 760308, "name": "Rossosz", "state": "", "country": "PL", "coord": {"lon": 23.1374, "lat": 51.85836}}, {"id": 760318, "name": "Rososz", "state": "", "country": "PL", "coord": {"lon": 22.866671, "lat": 51.283329}}, {"id": 760343, "name": "Ropczyce", "state": "", "country": "PL", "coord": {"lon": 21.60891, "lat": 50.052292}}, {"id": 760347, "name": "Ropa", "state": "", "country": "PL", "coord": {"lon": 21.04431, "lat": 49.591461}}, {"id": 760395, "name": "Rokitno", "state": "", "country": "PL", "coord": {"lon": 23.295139, "lat": 52.121422}}, {"id": 760404, "name": "Rokietnica", "state": "", "country": "PL", "coord": {"lon": 22.64171, "lat": 49.89983}}, {"id": 760414, "name": "Rog\u00f3\u017ano", "state": "", "country": "PL", "coord": {"lon": 23.390409, "lat": 50.464169}}, {"id": 760415, "name": "Rog\u00f3\u017ano", "state": "", "country": "PL", "coord": {"lon": 22.374861, "lat": 50.073669}}, {"id": 760445, "name": "Rog\u00f3w", "state": "", "country": "PL", "coord": {"lon": 20.43483, "lat": 51.20414}}, {"id": 760462, "name": "Rogal\u00f3w", "state": "", "country": "PL", "coord": {"lon": 22.131519, "lat": 51.309811}}, {"id": 760488, "name": "Reszel", "state": "", "country": "PL", "coord": {"lon": 21.145849, "lat": 54.050419}}, {"id": 760490, "name": "Repki", "state": "", "country": "PL", "coord": {"lon": 22.391171, "lat": 52.385551}}, {"id": 760516, "name": "Rejowiec Fabryczny", "state": "", "country": "PL", "coord": {"lon": 23.24724, "lat": 51.11414}}, {"id": 760518, "name": "Rejowiec", "state": "", "country": "PL", "coord": {"lon": 23.281919, "lat": 51.091339}}, {"id": 760527, "name": "Regn\u00f3w", "state": "", "country": "PL", "coord": {"lon": 20.38711, "lat": 51.748501}}, {"id": 760528, "name": "Regimin", "state": "", "country": "PL", "coord": {"lon": 20.55319, "lat": 52.941662}}, {"id": 760584, "name": "Rawa Mazowiecka", "state": "", "country": "PL", "coord": {"lon": 20.25493, "lat": 51.76437}}, {"id": 760607, "name": "Raszyn", "state": "", "country": "PL", "coord": {"lon": 20.9226, "lat": 52.156029}}, {"id": 760624, "name": "Rani\u017c\u00f3w", "state": "", "country": "PL", "coord": {"lon": 21.971371, "lat": 50.258732}}, {"id": 760632, "name": "Rakszawa", "state": "", "country": "PL", "coord": {"lon": 22.239071, "lat": 50.160511}}, {"id": 760657, "name": "Rak\u00f3w", "state": "", "country": "PL", "coord": {"lon": 21.04517, "lat": 50.674271}}, {"id": 760672, "name": "Rajgr\u00f3d", "state": "", "country": "PL", "coord": {"lon": 22.705151, "lat": 53.731022}}, {"id": 760680, "name": "Radzy\u0144 Podlaski", "state": "", "country": "PL", "coord": {"lon": 22.616671, "lat": 51.783329}}, {"id": 760684, "name": "Radzymin", "state": "", "country": "PL", "coord": {"lon": 21.184139, "lat": 52.41592}}, {"id": 760697, "name": "Radzi\u0142\u00f3w", "state": "", "country": "PL", "coord": {"lon": 22.40988, "lat": 53.409939}}, {"id": 760711, "name": "Radziejowice", "state": "", "country": "PL", "coord": {"lon": 20.547701, "lat": 52.008339}}, {"id": 760723, "name": "Radzan\u00f3w", "state": "", "country": "PL", "coord": {"lon": 20.09219, "lat": 52.942379}}, {"id": 760724, "name": "Radzan\u00f3w", "state": "", "country": "PL", "coord": {"lon": 20.863979, "lat": 51.557861}}, {"id": 760727, "name": "Radymno", "state": "", "country": "PL", "coord": {"lon": 22.82375, "lat": 49.947201}}, {"id": 760745, "name": "Radoszyce", "state": "", "country": "PL", "coord": {"lon": 20.25836, "lat": 51.073921}}, {"id": 760769, "name": "Radomy\u015bl Wielki", "state": "", "country": "PL", "coord": {"lon": 21.27693, "lat": 50.19693}}, {"id": 760771, "name": "Radomy\u015bl", "state": "", "country": "PL", "coord": {"lon": 21.943649, "lat": 50.681011}}, {"id": 760778, "name": "Radom", "state": "", "country": "PL", "coord": {"lon": 21.147141, "lat": 51.402531}}, {"id": 760783, "name": "Rad\u0142\u00f3w", "state": "", "country": "PL", "coord": {"lon": 20.84967, "lat": 50.08419}}, {"id": 760804, "name": "Radgoszcz", "state": "", "country": "PL", "coord": {"lon": 21.11315, "lat": 50.205799}}, {"id": 760806, "name": "Radecznica", "state": "", "country": "PL", "coord": {"lon": 22.82976, "lat": 50.751549}}, {"id": 760825, "name": "Raczki", "state": "", "country": "PL", "coord": {"lon": 22.78487, "lat": 53.987492}}, {"id": 760830, "name": "Rac\u0142awice", "state": "", "country": "PL", "coord": {"lon": 22.16552, "lat": 50.513699}}, {"id": 760844, "name": "Raci\u0105\u017c", "state": "", "country": "PL", "coord": {"lon": 20.117701, "lat": 52.781521}}, {"id": 760853, "name": "Rachanie", "state": "", "country": "PL", "coord": {"lon": 23.546881, "lat": 50.538422}}, {"id": 760871, "name": "Pysznica", "state": "", "country": "PL", "coord": {"lon": 22.129129, "lat": 50.569988}}, {"id": 760892, "name": "Puszcza Maria\u0144ska", "state": "", "country": "PL", "coord": {"lon": 20.35037, "lat": 51.979012}}, {"id": 760909, "name": "Purda", "state": "", "country": "PL", "coord": {"lon": 20.706829, "lat": 53.708439}}, {"id": 760914, "name": "Pu\u0144sk", "state": "", "country": "PL", "coord": {"lon": 23.18124, "lat": 54.251141}}, {"id": 760917, "name": "Pu\u0142tusk", "state": "", "country": "PL", "coord": {"lon": 21.08276, "lat": 52.702499}}, {"id": 760924, "name": "Pu\u0142awy", "state": "", "country": "PL", "coord": {"lon": 21.969391, "lat": 51.41655}}, {"id": 760951, "name": "Puchacz\u00f3w", "state": "", "country": "PL", "coord": {"lon": 22.9737, "lat": 51.310501}}, {"id": 760987, "name": "Przytyk", "state": "", "country": "PL", "coord": {"lon": 20.90587, "lat": 51.465672}}, {"id": 760999, "name": "Przytoczno", "state": "", "country": "PL", "coord": {"lon": 22.271351, "lat": 51.619511}}, {"id": 761008, "name": "Przysucha", "state": "", "country": "PL", "coord": {"lon": 20.628889, "lat": 51.358582}}, {"id": 761055, "name": "Przy\u0142\u0119k", "state": "", "country": "PL", "coord": {"lon": 21.74744, "lat": 51.308559}}, {"id": 761085, "name": "Przybysz\u00f3wka", "state": "", "country": "PL", "coord": {"lon": 21.925791, "lat": 50.047878}}, {"id": 761101, "name": "Przybor\u00f3w", "state": "", "country": "PL", "coord": {"lon": 20.66279, "lat": 50.03035}}, {"id": 761131, "name": "Przeworsk", "state": "", "country": "PL", "coord": {"lon": 22.49408, "lat": 50.05912}}, {"id": 761145, "name": "Przesmyki", "state": "", "country": "PL", "coord": {"lon": 22.583941, "lat": 52.268162}}, {"id": 761168, "name": "Przemy\u015bl", "state": "", "country": "PL", "coord": {"lon": 22.767281, "lat": 49.784981}}, {"id": 761187, "name": "Prz\u0119dzel", "state": "", "country": "PL", "coord": {"lon": 22.21925, "lat": 50.494652}}, {"id": 761193, "name": "Przedmie\u015bcie Dubieckie", "state": "", "country": "PL", "coord": {"lon": 22.371771, "lat": 49.837101}}, {"id": 761210, "name": "Przec\u0142aw", "state": "", "country": "PL", "coord": {"lon": 21.48007, "lat": 50.19339}}, {"id": 761218, "name": "Przasnysz", "state": "", "country": "PL", "coord": {"lon": 20.880289, "lat": 53.01907}}, {"id": 761228, "name": "Pruszk\u00f3w", "state": "", "country": "PL", "coord": {"lon": 20.81214, "lat": 52.170719}}, {"id": 761255, "name": "Pruchnik", "state": "", "country": "PL", "coord": {"lon": 22.515539, "lat": 49.9062}}, {"id": 761258, "name": "Proszowice", "state": "", "country": "PL", "coord": {"lon": 20.289089, "lat": 50.192749}}, {"id": 761262, "name": "Prostki", "state": "", "country": "PL", "coord": {"lon": 22.431829, "lat": 53.699009}}, {"id": 761273, "name": "Promna", "state": "", "country": "PL", "coord": {"lon": 20.959169, "lat": 51.680061}}, {"id": 761300, "name": "Pra\u017cm\u00f3w", "state": "", "country": "PL", "coord": {"lon": 20.95479, "lat": 51.940399}}, {"id": 761331, "name": "Pozezdrze", "state": "", "country": "PL", "coord": {"lon": 21.859699, "lat": 54.141472}}, {"id": 761350, "name": "Potwor\u00f3w", "state": "", "country": "PL", "coord": {"lon": 20.72176, "lat": 51.508739}}, {"id": 761356, "name": "Potok Wielki", "state": "", "country": "PL", "coord": {"lon": 22.216419, "lat": 50.7915}}, {"id": 761363, "name": "Potok G\u00f3rny", "state": "", "country": "PL", "coord": {"lon": 22.56188, "lat": 50.384769}}, {"id": 761388, "name": "Po\u015bwi\u0119tne", "state": "", "country": "PL", "coord": {"lon": 21.42137, "lat": 52.32967}}, {"id": 761390, "name": "Po\u015bwi\u0119tne", "state": "", "country": "PL", "coord": {"lon": 20.364531, "lat": 51.532028}}, {"id": 761407, "name": "Posejny", "state": "", "country": "PL", "coord": {"lon": 23.357719, "lat": 54.096111}}, {"id": 761425, "name": "Posada Dolna", "state": "", "country": "PL", "coord": {"lon": 21.868481, "lat": 49.582668}}, {"id": 761437, "name": "Poronin", "state": "", "country": "PL", "coord": {"lon": 20.002911, "lat": 49.337811}}, {"id": 761461, "name": "Por\u0119ba Spytkowska", "state": "", "country": "PL", "coord": {"lon": 20.55405, "lat": 49.939949}}, {"id": 761471, "name": "Por\u0119ba", "state": "", "country": "PL", "coord": {"lon": 22.32004, "lat": 50.354031}}, {"id": 761472, "name": "Por\u0119ba", "state": "", "country": "PL", "coord": {"lon": 20.017179, "lat": 49.796452}}, {"id": 761474, "name": "Pora\u017c", "state": "", "country": "PL", "coord": {"lon": 22.225, "lat": 49.48597}}, {"id": 761477, "name": "Por\u0105bka Uszewska", "state": "", "country": "PL", "coord": {"lon": 20.690519, "lat": 49.9426}}, {"id": 761546, "name": "Poniatowa", "state": "", "country": "PL", "coord": {"lon": 22.13093, "lat": 51.179829}}, {"id": 761556, "name": "Pomorzany", "state": "", "country": "PL", "coord": {"lon": 21.13858, "lat": 51.225239}}, {"id": 761561, "name": "Pomiech\u00f3wek", "state": "", "country": "PL", "coord": {"lon": 20.729231, "lat": 52.471378}}, {"id": 761582, "name": "Po\u0142omia", "state": "", "country": "PL", "coord": {"lon": 21.891979, "lat": 49.904751}}, {"id": 761607, "name": "Policzna", "state": "", "country": "PL", "coord": {"lon": 21.626841, "lat": 51.455448}}, {"id": 761652, "name": "Po\u0142aniec", "state": "", "country": "PL", "coord": {"lon": 21.2812, "lat": 50.433239}}, {"id": 761653, "name": "Pola\u0144czyk", "state": "", "country": "PL", "coord": {"lon": 22.42112, "lat": 49.36969}}, {"id": 761663, "name": "Pokrzywnica", "state": "", "country": "PL", "coord": {"lon": 21.019251, "lat": 52.62072}}, {"id": 761671, "name": "Pokr\u00f3wka", "state": "", "country": "PL", "coord": {"lon": 23.463449, "lat": 51.094791}}, {"id": 761714, "name": "Pog\u00f3rska Wola", "state": "", "country": "PL", "coord": {"lon": 21.157949, "lat": 50.018551}}, {"id": 761812, "name": "Pod\u0142\u0119\u017ce", "state": "", "country": "PL", "coord": {"lon": 20.16781, "lat": 50.01458}}, {"id": 761878, "name": "Podkowa Le\u015bna", "state": "", "country": "PL", "coord": {"lon": 20.72665, "lat": 52.122372}}, {"id": 761920, "name": "Podem\u0142ynek", "state": "", "country": "PL", "coord": {"lon": 20.903521, "lat": 51.123718}}, {"id": 761921, "name": "Podegrodzie", "state": "", "country": "PL", "coord": {"lon": 20.588551, "lat": 49.576881}}, {"id": 761922, "name": "Podedw\u00f3rze", "state": "", "country": "PL", "coord": {"lon": 23.19961, "lat": 51.688148}}, {"id": 761968, "name": "Pobitno", "state": "", "country": "PL", "coord": {"lon": 22.028191, "lat": 50.04628}}, {"id": 761973, "name": "Poberezany", "state": "", "country": "PL", "coord": {"lon": 23.902809, "lat": 50.79364}}, {"id": 761978, "name": "Pniewy", "state": "", "country": "PL", "coord": {"lon": 20.745781, "lat": 51.91468}}, {"id": 762021, "name": "P\u0142o\u0144sk", "state": "", "country": "PL", "coord": {"lon": 20.375521, "lat": 52.623482}}, {"id": 762032, "name": "P\u0142oniawy-Bramura", "state": "", "country": "PL", "coord": {"lon": 21.071779, "lat": 52.977798}}, {"id": 762056, "name": "Ple\u015bna", "state": "", "country": "PL", "coord": {"lon": 20.945259, "lat": 49.926418}}, {"id": 762071, "name": "P\u0142awo", "state": "", "country": "PL", "coord": {"lon": 22.072769, "lat": 50.569939}}, {"id": 762106, "name": "Piwniczna-Zdr\u00f3j", "state": "", "country": "PL", "coord": {"lon": 20.71423, "lat": 49.440559}}, {"id": 762118, "name": "Piszczac", "state": "", "country": "PL", "coord": {"lon": 23.37719, "lat": 51.981178}}, {"id": 762120, "name": "Pisz", "state": "", "country": "PL", "coord": {"lon": 21.812531, "lat": 53.627441}}, {"id": 762126, "name": "Piskorowice", "state": "", "country": "PL", "coord": {"lon": 22.528669, "lat": 50.23579}}, {"id": 762199, "name": "Pionki", "state": "", "country": "PL", "coord": {"lon": 21.449949, "lat": 51.47604}}, {"id": 762201, "name": "Pi\u0144cz\u00f3w", "state": "", "country": "PL", "coord": {"lon": 20.526489, "lat": 50.520519}}, {"id": 762203, "name": "Pilzno", "state": "", "country": "PL", "coord": {"lon": 21.29228, "lat": 49.978828}}, {"id": 762223, "name": "Pilawa", "state": "", "country": "PL", "coord": {"lon": 21.53089, "lat": 51.95945}}, {"id": 762275, "name": "Pierzchnica", "state": "", "country": "PL", "coord": {"lon": 20.75489, "lat": 50.69754}},