[{"id": 7533178, "name": "Nowogard", "state": "", "country": "PL", "coord": {"lon": 15.1186, "lat": 53.671902}}, {"id": 7533179, "name": "Jastrowie", "state": "", "country": "PL", "coord": {"lon": 16.7887, "lat": 53.4076}}, {"id": 7533180, "name": "W\u0105chock", "state": "", "country": "PL", "coord": {"lon": 21.0431, "lat": 51.071499}}, {"id": 7533183, "name": "Mi\u0119dzyzdroje", "state": "", "country": "PL", "coord": {"lon": 14.4365, "lat": 53.925701}}, {"id": 7533185, "name": "Czerwionka-Leszczyny", "state": "", "country": "PL", "coord": {"lon": 18.678471, "lat": 50.150341}}, {"id": 7533188, "name": "Sob\u00f3tka", "state": "", "country": "PL", "coord": {"lon": 16.724701, "lat": 50.8764}}, {"id": 7533189, "name": "Kluczbork", "state": "", "country": "PL", "coord": {"lon": 18.2204, "lat": 50.974499}}, {"id": 7533191, "name": "Kozienice", "state": "", "country": "PL", "coord": {"lon": 21.536501, "lat": 51.585999}}, {"id": 7533198, "name": "Ryki", "state": "", "country": "PL", "coord": {"lon": 21.9263, "lat": 51.6259}}, {"id": 7533199, "name": "Byt\u00f3w", "state": "", "country": "PL", "coord": {"lon": 17.500601, "lat": 54.179699}}, {"id": 7533200, "name": "Z\u0105bkowice \u015al\u0105skie", "state": "", "country": "PL", "coord": {"lon": 16.8228, "lat": 50.587299}}, {"id": 7533203, "name": "Rawicz", "state": "", "country": "PL", "coord": {"lon": 16.878201, "lat": 51.616901}}, {"id": 7533207, "name": "Nekla", "state": "", "country": "PL", "coord": {"lon": 17.4058, "lat": 52.384998}}, {"id": 7533214, "name": "\u015acinawa", "state": "", "country": "PL", "coord": {"lon": 16.4251, "lat": 51.410099}}, {"id": 7533223, "name": "Tolkmicko", "state": "", "country": "PL", "coord": {"lon": 19.5313, "lat": 54.321201}}, {"id": 7533224, "name": "Opalenica", "state": "", "country": "PL", "coord": {"lon": 16.4135, "lat": 52.313301}}, {"id": 7533226, "name": "\u017bnin", "state": "", "country": "PL", "coord": {"lon": 17.73, "lat": 52.844601}}, {"id": 7533227, "name": "Gogolin", "state": "", "country": "PL", "coord": {"lon": 18.022301, "lat": 50.4888}}, {"id": 7533231, "name": "Soko\u0142\u00f3w Ma\u0142opolski", "state": "", "country": "PL", "coord": {"lon": 22.1196, "lat": 50.236698}}, {"id": 7533234, "name": "Tarnogr\u00f3d", "state": "", "country": "PL", "coord": {"lon": 22.742901, "lat": 50.364101}}, {"id": 7533235, "name": "Mogilno", "state": "", "country": "PL", "coord": {"lon": 17.9541, "lat": 52.658699}}, {"id": 7533237, "name": "Uj\u015bcie", "state": "", "country": "PL", "coord": {"lon": 16.727699, "lat": 53.054798}}, {"id": 7533239, "name": "Gosty\u0144", "state": "", "country": "PL", "coord": {"lon": 17.0091, "lat": 51.882702}}, {"id": 7533246, "name": "Krotoszyn", "state": "", "country": "PL", "coord": {"lon": 17.443701, "lat": 51.695099}}, {"id": 7533247, "name": "Krosno Odrza\u0144skie", "state": "", "country": "PL", "coord": {"lon": 15.1014, "lat": 52.040901}}, {"id": 7533248, "name": "Olesno", "state": "", "country": "PL", "coord": {"lon": 18.4132, "lat": 50.875999}}, {"id": 7533249, "name": "\u0141azy", "state": "", "country": "PL", "coord": {"lon": 19.392, "lat": 50.425201}}, {"id": 7533250, "name": "Biecz", "state": "", "country": "PL", "coord": {"lon": 21.259001, "lat": 49.732201}}, {"id": 7533251, "name": "Mszczon\u00f3w", "state": "", "country": "PL", "coord": {"lon": 20.532101, "lat": 51.9771}}, {"id": 7533252, "name": "Chocian\u00f3w", "state": "", "country": "PL", "coord": {"lon": 15.906, "lat": 51.4175}}, {"id": 7533255, "name": "Piwniczna-Zdr\u00f3j", "state": "", "country": "PL", "coord": {"lon": 20.6721, "lat": 49.432499}}, {"id": 7533257, "name": "Babimost", "state": "", "country": "PL", "coord": {"lon": 15.8285, "lat": 52.1647}}, {"id": 7533262, "name": "Bia\u0142a Rawska", "state": "", "country": "PL", "coord": {"lon": 20.473801, "lat": 51.798401}}, {"id": 7533264, "name": "Wadowice", "state": "", "country": "PL", "coord": {"lon": 19.495399, "lat": 49.884201}}, {"id": 7533265, "name": "Oborniki \u015al\u0105skie", "state": "", "country": "PL", "coord": {"lon": 16.9093, "lat": 51.296101}}, {"id": 7533266, "name": "Chorzele", "state": "", "country": "PL", "coord": {"lon": 20.914801, "lat": 53.2603}}, {"id": 7533267, "name": "Tuch\u00f3w", "state": "", "country": "PL", "coord": {"lon": 21.059401, "lat": 49.894001}}, {"id": 7533268, "name": "Wilamowice", "state": "", "country": "PL", "coord": {"lon": 19.159201, "lat": 49.919498}}, {"id": 7533270, "name": "Sian\u00f3w", "state": "", "country": "PL", "coord": {"lon": 16.319201, "lat": 54.224201}}, {"id": 7533272, "name": "Ciechanowiec", "state": "", "country": "PL", "coord": {"lon": 22.5072, "lat": 52.6763}}, {"id": 7533276, "name": "\u015awiecie", "state": "", "country": "PL", "coord": {"lon": 18.418699, "lat": 53.403099}}, {"id": 7533278, "name": "Gryf\u00f3w \u015al\u0105ski", "state": "", "country": "PL", "coord": {"lon": 15.4195, "lat": 51.026199}}, {"id": 7533280, "name": "Mirsk", "state": "", "country": "PL", "coord": {"lon": 15.3837, "lat": 50.9664}}, {"id": 7533285, "name": "Margonin", "state": "", "country": "PL", "coord": {"lon": 17.0998, "lat": 52.970501}}, {"id": 7533287, "name": "Olkusz", "state": "", "country": "PL", "coord": {"lon": 19.561701, "lat": 50.285801}}, {"id": 7533293, "name": "Iwonicz-Zdr\u00f3j", "state": "", "country": "PL", "coord": {"lon": 21.785101, "lat": 49.563}}, {"id": 7533295, "name": "Nowa D\u0119ba", "state": "", "country": "PL", "coord": {"lon": 21.754, "lat": 50.4198}}, {"id": 7533296, "name": "Pr\u00f3szk\u00f3w", "state": "", "country": "PL", "coord": {"lon": 17.875, "lat": 50.572201}}, {"id": 7533297, "name": "Supra\u015bl", "state": "", "country": "PL", "coord": {"lon": 23.3465, "lat": 53.2117}}, {"id": 7533298, "name": "Drohiczyn", "state": "", "country": "PL", "coord": {"lon": 22.653999, "lat": 52.406399}}, {"id": 7533299, "name": "Brok", "state": "", "country": "PL", "coord": {"lon": 21.880501, "lat": 52.6982}}, {"id": 7533301, "name": "Strzy\u017c\u00f3w", "state": "", "country": "PL", "coord": {"lon": 21.788799, "lat": 49.871201}}, {"id": 7533303, "name": "D\u0105browa Tarnowska", "state": "", "country": "PL", "coord": {"lon": 20.9949, "lat": 50.1698}}, {"id": 7533306, "name": "Libi\u0105\u017c", "state": "", "country": "PL", "coord": {"lon": 19.3179, "lat": 50.094898}}, {"id": 7533309, "name": "Uniej\u00f3w", "state": "", "country": "PL", "coord": {"lon": 18.7973, "lat": 51.968399}}, {"id": 7533311, "name": "Krapkowice", "state": "", "country": "PL", "coord": {"lon": 17.957399, "lat": 50.478401}}, {"id": 7533313, "name": "Lewin Brzeski", "state": "", "country": "PL", "coord": {"lon": 17.630301, "lat": 50.754501}}, {"id": 7533314, "name": "Praszka", "state": "", "country": "PL", "coord": {"lon": 18.4529, "lat": 51.048302}}, {"id": 7533315, "name": "Radomy\u015bl Wielki", "state": "", "country": "PL", "coord": {"lon": 21.2757, "lat": 50.196301}}, {"id": 7533316, "name": "Wyszk\u00f3w", "state": "", "country": "PL", "coord": {"lon": 21.4471, "lat": 52.592201}}, {"id": 7533317, "name": "Nisko", "state": "", "country": "PL", "coord": {"lon": 22.129, "lat": 50.503201}}, {"id": 7533318, "name": "Ogrodzieniec", "state": "", "country": "PL", "coord": {"lon": 19.518499, "lat": 50.44854}}, {"id": 7533319, "name": "Piaseczno", "state": "", "country": "PL", "coord": {"lon": 21.017, "lat": 52.073399}}, {"id": 7533321, "name": "K\u0119ty", "state": "", "country": "PL", "coord": {"lon": 19.2097, "lat": 49.879299}}, {"id": 7533322, "name": "Miko\u0142ajki", "state": "", "country": "PL", "coord": {"lon": 21.5809, "lat": 53.801899}}, {"id": 7533327, "name": "Chrzan\u00f3w", "state": "", "country": "PL", "coord": {"lon": 19.359501, "lat": 50.1292}}, {"id": 7533328, "name": "\u0141obez", "state": "", "country": "PL", "coord": {"lon": 15.6133, "lat": 53.635899}}, {"id": 7533329, "name": "Wrze\u015bnia", "state": "", "country": "PL", "coord": {"lon": 17.568501, "lat": 52.325802}}, {"id": 7533330, "name": "Police", "state": "", "country": "PL", "coord": {"lon": 14.5792, "lat": 53.567699}}, {"id": 7533335, "name": "Trzebinia", "state": "", "country": "PL", "coord": {"lon": 19.438, "lat": 50.179501}}, {"id": 7533336, "name": "Tyszowce", "state": "", "country": "PL", "coord": {"lon": 23.723499, "lat": 50.624599}}, {"id": 7533337, "name": "Szprotawa", "state": "", "country": "PL", "coord": {"lon": 15.5217, "lat": 51.560902}}, {"id": 7533339, "name": "\u015aroda Wielkopolska", "state": "", "country": "PL", "coord": {"lon": 17.2803, "lat": 52.2299}}, {"id": 7533347, "name": "Poniatowa", "state": "", "country": "PL", "coord": {"lon": 22.0578, "lat": 51.182999}}, {"id": 7533348, "name": "Brzoz\u00f3w", "state": "", "country": "PL", "coord": {"lon": 22.0194, "lat": 49.697701}}, {"id": 7533350, "name": "Nysa", "state": "", "country": "PL", "coord": {"lon": 17.336901, "lat": 50.473499}}, {"id": 7533356, "name": "Zag\u00f3rz", "state": "", "country": "PL", "coord": {"lon": 22.2651, "lat": 49.507702}}, {"id": 7533357, "name": "Ropczyce", "state": "", "country": "PL", "coord": {"lon": 21.6127, "lat": 50.049}}, {"id": 7533358, "name": "Czaplinek", "state": "", "country": "PL", "coord": {"lon": 16.232639, "lat": 53.557899}}, {"id": 7533360, "name": "Busko-Zdr\u00f3j", "state": "", "country": "PL", "coord": {"lon": 20.716499, "lat": 50.4702}}, {"id": 7533362, "name": "G\u0105bin", "state": "", "country": "PL", "coord": {"lon": 19.730801, "lat": 52.401199}}, {"id": 7533365, "name": "Wo\u0142omin", "state": "", "country": "PL", "coord": {"lon": 21.2362, "lat": 52.342602}}, {"id": 7533366, "name": "Skoki", "state": "", "country": "PL", "coord": {"lon": 17.1663, "lat": 52.6647}}, {"id": 7533367, "name": "Bytom Odrza\u0144ski", "state": "", "country": "PL", "coord": {"lon": 15.8242, "lat": 51.7281}}, {"id": 7533369, "name": "Zi\u0119bice", "state": "", "country": "PL", "coord": {"lon": 17.035101, "lat": 50.5924}}, {"id": 7533371, "name": "Brwin\u00f3w", "state": "", "country": "PL", "coord": {"lon": 20.716299, "lat": 52.143101}}, {"id": 7533372, "name": "Strzegom", "state": "", "country": "PL", "coord": {"lon": 16.3442, "lat": 50.9599}}, {"id": 7533373, "name": "Brzeszcze", "state": "", "country": "PL", "coord": {"lon": 19.147449, "lat": 49.983521}}, {"id": 7533374, "name": "W\u0142oszczowa", "state": "", "country": "PL", "coord": {"lon": 19.986601, "lat": 50.8573}}, {"id": 7533378, "name": "\u015arem", "state": "", "country": "PL", "coord": {"lon": 17.0187, "lat": 52.0867}}, {"id": 7533379, "name": "Szczebrzeszyn", "state": "", "country": "PL", "coord": {"lon": 22.9508, "lat": 50.701698}}, {"id": 7533380, "name": "Go\u0142dap", "state": "", "country": "PL", "coord": {"lon": 22.2983, "lat": 54.313099}}, {"id": 7533381, "name": "Olecko", "state": "", "country": "PL", "coord": {"lon": 22.4981, "lat": 54.036098}}, {"id": 7533383, "name": "Grodzisk Wielkopolski", "state": "", "country": "PL", "coord": {"lon": 16.365999, "lat": 52.226101}}, {"id": 7533385, "name": "Frampol", "state": "", "country": "PL", "coord": {"lon": 22.6651, "lat": 50.674}}, {"id": 7533387, "name": "W\u0119gorzewo", "state": "", "country": "PL", "coord": {"lon": 21.748899, "lat": 54.208}}, {"id": 7533388, "name": "Choszczno", "state": "", "country": "PL", "coord": {"lon": 15.4269, "lat": 53.168701}}, {"id": 7533390, "name": "Goleni\u00f3w", "state": "", "country": "PL", "coord": {"lon": 14.8382, "lat": 53.5606}}, {"id": 7533395, "name": "Nowogrodziec", "state": "", "country": "PL", "coord": {"lon": 15.3939, "lat": 51.1991}}, {"id": 7533397, "name": "Brzeg Dolny", "state": "", "country": "PL", "coord": {"lon": 16.719601, "lat": 51.268398}}, {"id": 7533398, "name": "Syc\u00f3w", "state": "", "country": "PL", "coord": {"lon": 17.729401, "lat": 51.3032}}, {"id": 7533399, "name": "Koprzywnica", "state": "", "country": "PL", "coord": {"lon": 21.576, "lat": 50.594799}}, {"id": 7533402, "name": "Rad\u0142\u00f3w", "state": "", "country": "PL", "coord": {"lon": 20.8417, "lat": 50.083599}}, {"id": 7533404, "name": "Milicz", "state": "", "country": "PL", "coord": {"lon": 17.269899, "lat": 51.5215}}, {"id": 7533405, "name": "\u017bar\u00f3w", "state": "", "country": "PL", "coord": {"lon": 16.4932, "lat": 50.942799}}, {"id": 7533409, "name": "Paczk\u00f3w", "state": "", "country": "PL", "coord": {"lon": 17.003799, "lat": 50.466099}}, {"id": 7533410, "name": "Strumie\u0144", "state": "", "country": "PL", "coord": {"lon": 18.7542, "lat": 49.918499}}, {"id": 7533411, "name": "Mi\u0119dzylesie", "state": "", "country": "PL", "coord": {"lon": 16.6465, "lat": 50.144299}}, {"id": 7533412, "name": "Solec Kujawski", "state": "", "country": "PL", "coord": {"lon": 18.242599, "lat": 53.0746}}, {"id": 7533413, "name": "G\u0142uszyca", "state": "", "country": "PL", "coord": {"lon": 16.3892, "lat": 50.688599}}, {"id": 7533414, "name": "Tuchola", "state": "", "country": "PL", "coord": {"lon": 17.86162, "lat": 53.586948}}, {"id": 7533415, "name": "Konstancin-Jeziorna", "state": "", "country": "PL", "coord": {"lon": 21.1056, "lat": 52.083801}}, {"id": 7533417, "name": "Skwierzyna", "state": "", "country": "PL", "coord": {"lon": 15.5058, "lat": 52.591202}}, {"id": 7533419, "name": "Lubniewice", "state": "", "country": "PL", "coord": {"lon": 15.2386, "lat": 52.510101}}, {"id": 7533421, "name": "Otmuch\u00f3w", "state": "", "country": "PL", "coord": {"lon": 17.1236, "lat": 50.465401}}, {"id": 7533423, "name": "Gryfino", "state": "", "country": "PL", "coord": {"lon": 14.4967, "lat": 53.256001}}, {"id": 7533425, "name": "Szubin", "state": "", "country": "PL", "coord": {"lon": 17.7423, "lat": 53.009602}}, {"id": 7533426, "name": "Rzepin", "state": "", "country": "PL", "coord": {"lon": 14.8363, "lat": 52.3437}}, {"id": 7533427, "name": "Trzciel", "state": "", "country": "PL", "coord": {"lon": 15.876, "lat": 52.3638}}, {"id": 7533428, "name": "\u015awiebodzin", "state": "", "country": "PL", "coord": {"lon": 15.5311, "lat": 52.244202}}, {"id": 7533429, "name": "Rychwa\u0142", "state": "", "country": "PL", "coord": {"lon": 18.1738, "lat": 52.072201}}, {"id": 7533433, "name": "Kozieg\u0142owy", "state": "", "country": "PL", "coord": {"lon": 19.1675, "lat": 50.615799}}, {"id": 7533434, "name": "Wielu\u0144", "state": "", "country": "PL", "coord": {"lon": 18.569, "lat": 51.2253}}, {"id": 7533435, "name": "Kos\u00f3w Lacki", "state": "", "country": "PL", "coord": {"lon": 22.1535, "lat": 52.5951}}, {"id": 7533437, "name": "Ustrzyki Dolne", "state": "", "country": "PL", "coord": {"lon": 22.578199, "lat": 49.430199}}, {"id": 7533440, "name": "Okonek", "state": "", "country": "PL", "coord": {"lon": 16.8535, "lat": 53.5284}}, {"id": 7533441, "name": "Olszyna", "state": "", "country": "PL", "coord": {"lon": 15.3713, "lat": 51.0756}}, {"id": 7533442, "name": "Kazimierz Dolny", "state": "", "country": "PL", "coord": {"lon": 21.950001, "lat": 51.3069}}, {"id": 7533444, "name": "S\u0142ubice", "state": "", "country": "PL", "coord": {"lon": 14.5899, "lat": 52.359001}}, {"id": 7533445, "name": "S\u0142omniki", "state": "", "country": "PL", "coord": {"lon": 20.076799, "lat": 50.239899}}, {"id": 7533446, "name": "Nowy Staw", "state": "", "country": "PL", "coord": {"lon": 19.0098, "lat": 54.138901}}, {"id": 7533451, "name": "Mierosz\u00f3w", "state": "", "country": "PL", "coord": {"lon": 16.19059, "lat": 50.669811}}, {"id": 7533453, "name": "Stronie \u015al\u0105skie", "state": "", "country": "PL", "coord": {"lon": 16.878901, "lat": 50.297001}}, {"id": 7533455, "name": "Czch\u00f3w", "state": "", "country": "PL", "coord": {"lon": 20.660999, "lat": 49.8274}}, {"id": 7533459, "name": "Strzelce Opolskie", "state": "", "country": "PL", "coord": {"lon": 18.299999, "lat": 50.529701}}, {"id": 7533462, "name": "Swarz\u0119dz", "state": "", "country": "PL", "coord": {"lon": 17.0665, "lat": 52.409401}}, {"id": 7533463, "name": "Trzebiat\u00f3w", "state": "", "country": "PL", "coord": {"lon": 15.2825, "lat": 54.055698}}, {"id": 7533464, "name": "Pyrzyce", "state": "", "country": "PL", "coord": {"lon": 14.893, "lat": 53.1418}}, {"id": 7533465, "name": "J\u0119drzej\u00f3w", "state": "", "country": "PL", "coord": {"lon": 20.289301, "lat": 50.6395}}, {"id": 7533472, "name": "Muszyna", "state": "", "country": "PL", "coord": {"lon": 20.895651, "lat": 49.354542}}, {"id": 7533476, "name": "Wasilk\u00f3w", "state": "", "country": "PL", "coord": {"lon": 23.1959, "lat": 53.212898}}, {"id": 7533477, "name": "Pie\u0144sk", "state": "", "country": "PL", "coord": {"lon": 15.0561, "lat": 51.250401}}, {"id": 7533478, "name": "Jedlicze", "state": "", "country": "PL", "coord": {"lon": 21.646999, "lat": 49.716999}}, {"id": 7533483, "name": "Mi\u0119dzyrzecz", "state": "", "country": "PL", "coord": {"lon": 15.5914, "lat": 52.448299}}, {"id": 7533486, "name": "Ka\u0144czuga", "state": "", "country": "PL", "coord": {"lon": 22.395599, "lat": 49.9772}}, {"id": 7533493, "name": "Szlichtyngowa", "state": "", "country": "PL", "coord": {"lon": 16.239401, "lat": 51.708099}}, {"id": 7533497, "name": "\u0141omianki", "state": "", "country": "PL", "coord": {"lon": 20.8939, "lat": 52.333199}}, {"id": 7533500, "name": "Tykocin", "state": "", "country": "PL", "coord": {"lon": 22.7596, "lat": 53.195801}}, {"id": 7533501, "name": "W\u0119gorzyno", "state": "", "country": "PL", "coord": {"lon": 15.5645, "lat": 53.5382}}, {"id": 7533502, "name": "Tyczyn", "state": "", "country": "PL", "coord": {"lon": 22.0257, "lat": 49.962799}}, {"id": 7533503, "name": "Kolbuszowa", "state": "", "country": "PL", "coord": {"lon": 21.7666, "lat": 50.236}}, {"id": 7533507, "name": "Grodzisk Mazowiecki", "state": "", "country": "PL", "coord": {"lon": 20.6332, "lat": 52.105202}}, {"id": 7533510, "name": "Miros\u0142awiec", "state": "", "country": "PL", "coord": {"lon": 16.087799, "lat": 53.344501}}, {"id": 7533514, "name": "Wyszogr\u00f3d", "state": "", "country": "PL", "coord": {"lon": 20.191099, "lat": 52.391701}}, {"id": 7533517, "name": "Stasz\u00f3w", "state": "", "country": "PL", "coord": {"lon": 21.190701, "lat": 50.562}}, {"id": 7533523, "name": "Szczekociny", "state": "", "country": "PL", "coord": {"lon": 19.8277, "lat": 50.6213}}, {"id": 7533524, "name": "\u0141ask", "state": "", "country": "PL", "coord": {"lon": 19.158199, "lat": 51.601799}}, {"id": 7533527, "name": "Namys\u0142\u00f3w", "state": "", "country": "PL", "coord": {"lon": 17.6954, "lat": 51.076801}}, {"id": 7533528, "name": "Kleszczele", "state": "", "country": "PL", "coord": {"lon": 23.3304, "lat": 52.577599}}, {"id": 7533529, "name": "Jan\u00f3w Lubelski", "state": "", "country": "PL", "coord": {"lon": 22.413601, "lat": 50.7006}}, {"id": 7533532, "name": "Prabuty", "state": "", "country": "PL", "coord": {"lon": 19.2145, "lat": 53.7495}}, {"id": 7533534, "name": "Sok\u00f3\u0142ka", "state": "", "country": "PL", "coord": {"lon": 23.5026, "lat": 53.406799}}, {"id": 7533538, "name": "Andrych\u00f3w", "state": "", "country": "PL", "coord": {"lon": 19.339199, "lat": 49.853802}}, {"id": 7533539, "name": "Skawina", "state": "", "country": "PL", "coord": {"lon": 19.825001, "lat": 49.973301}}, {"id": 7533540, "name": "Wolin", "state": "", "country": "PL", "coord": {"lon": 14.5979, "lat": 53.831799}}, {"id": 7533545, "name": "Czarna Bia\u0142ostocka", "state": "", "country": "PL", "coord": {"lon": 23.267799, "lat": 53.302299}}, {"id": 7533549, "name": "K\u0142ecko", "state": "", "country": "PL", "coord": {"lon": 17.4415, "lat": 52.626701}}, {"id": 7533551, "name": "Toszek", "state": "", "country": "PL", "coord": {"lon": 18.524799, "lat": 50.4599}}, {"id": 7533552, "name": "Przedb\u00f3rz", "state": "", "country": "PL", "coord": {"lon": 19.8745, "lat": 51.082699}}, {"id": 7533553, "name": "Gniew", "state": "", "country": "PL", "coord": {"lon": 18.811399, "lat": 53.841}}, {"id": 7533554, "name": "Oborniki", "state": "", "country": "PL", "coord": {"lon": 16.8053, "lat": 52.652699}}, {"id": 7533558, "name": "Rajgr\u00f3d", "state": "", "country": "PL", "coord": {"lon": 22.679899, "lat": 53.730099}}, {"id": 7533560, "name": "Aleksandr\u00f3w \u0141\u00f3dzki", "state": "", "country": "PL", "coord": {"lon": 19.303801, "lat": 51.816002}}, {"id": 7533563, "name": "Pilzno", "state": "", "country": "PL", "coord": {"lon": 21.2834, "lat": 49.974499}}, {"id": 7533564, "name": "Opole Lubelskie", "state": "", "country": "PL", "coord": {"lon": 21.969601, "lat": 51.148499}}, {"id": 7533570, "name": "Lubawka", "state": "", "country": "PL", "coord": {"lon": 16.006399, "lat": 50.698502}}, {"id": 7533595, "name": "shimochi", "state": "", "country": "JP", "coord": {"lon": 125.149467, "lat": 24.827169}}, {"id": 7533612, "name": "Kowloon City", "state": "", "country": "HK", "coord": {"lon": 114.191208, "lat": 22.328659}}, {"id": 7534274, "name": "Sztutowo", "state": "", "country": "PL", "coord": {"lon": 19.179211, "lat": 54.32679}}, {"id": 7534282, "name": "\u017barki-Letnisko", "state": "", "country": "PL", "coord": {"lon": 19.27508, "lat": 50.622952}}, {"id": 7534286, "name": "Ostr\u00f3wek", "state": "", "country": "PL", "coord": {"lon": 21.36738, "lat": 52.389381}}, {"id": 7534412, "name": "Pog\u00f3rze", "state": "", "country": "PL", "coord": {"lon": 18.843269, "lat": 49.79961}}, {"id": 7534439, "name": "Podeb\u0142ocie", "state": "", "country": "PL", "coord": {"lon": 21.7442, "lat": 51.640228}}, {"id": 7534440, "name": "Sulbiny G\u00f3rne", "state": "", "country": "PL", "coord": {"lon": 21.631741, "lat": 51.873211}}, {"id": 7534548, "name": "Biskupiec", "state": "", "country": "PL", "coord": {"lon": 19.350559, "lat": 53.500561}}, {"id": 7534559, "name": "Ruda-Huta", "state": "", "country": "PL", "coord": {"lon": 23.59486, "lat": 51.23666}}, {"id": 7534560, "name": "I\u0142owo -Osada", "state": "", "country": "PL", "coord": {"lon": 20.29295, "lat": 53.168079}}, {"id": 7534562, "name": "Artola", "state": "", "country": "ES", "coord": {"lon": -4.75562, "lat": 36.494041}}, {"id": 7534563, "name": "Sainte-H\u00e9l\u00e8ne-de-Breakeyville", "state": "", "country": "CA", "coord": {"lon": -71.23381, "lat": 46.665459}}, {"id": 7534583, "name": "Koszyce Wielkie", "state": "", "country": "PL", "coord": {"lon": 20.94552, "lat": 49.980759}}, {"id": 7534656, "name": "Radwanice", "state": "", "country": "PL", "coord": {"lon": 15.94803, "lat": 51.570831}}, {"id": 7534709, "name": "Rutki-Kossaki", "state": "", "country": "PL", "coord": {"lon": 22.440109, "lat": 53.089321}}, {"id": 7534722, "name": "Zalesie", "state": "", "country": "PL", "coord": {"lon": 22.532619, "lat": 50.01226}}, {"id": 7534754, "name": "Sant Jordi", "state": "", "country": "ES", "coord": {"lon": 1.39664, "lat": 38.891171}}, {"id": 7535367, "name": "Bartniczka", "state": "", "country": "PL", "coord": {"lon": 19.60433, "lat": 53.247761}}, {"id": 7535492, "name": "Lubicz Dolny", "state": "", "country": "PL", "coord": {"lon": 18.74559, "lat": 53.031509}}, {"id": 7535493, "name": "Lubicz G\u00f3rny", "state": "", "country": "PL", "coord": {"lon": 18.771, "lat": 53.026859}}, {"id": 7535494, "name": "Tomaszkowice", "state": "", "country": "PL", "coord": {"lon": 20.099661, "lat": 49.979179}}, {"id": 7535495, "name": "Chotcza", "state": "", "country": "PL", "coord": {"lon": 21.776621, "lat": 51.240429}}, {"id": 7535498, "name": "Gemeente  Oldambt", "state": "", "country": "NL", "coord": {"lon": 7.04224, "lat": 53.168591}}, {"id": 7535501, "name": "Gemeente Zuidplas", "state": "", "country": "NL", "coord": {"lon": 4.61048, "lat": 52.015739}}, {"id": 7535565, "name": "Bia\u0142a", "state": "", "country": "PL", "coord": {"lon": 19.649561, "lat": 52.60524}}, {"id": 7535566, "name": "Ma\u0142a Wie\u015b", "state": "", "country": "PL", "coord": {"lon": 20.10223, "lat": 52.45779}}, {"id": 7535568, "name": "Baranowo", "state": "", "country": "PL", "coord": {"lon": 16.78631, "lat": 52.435249}}, {"id": 7535570, "name": "Wi\u015bniewo", "state": "", "country": "PL", "coord": {"lon": 20.348049, "lat": 53.064739}}, {"id": 7535582, "name": "Izabelin", "state": "", "country": "PL", "coord": {"lon": 20.817289, "lat": 52.299919}}, {"id": 7535607, "name": "\u015awiercze", "state": "", "country": "PL", "coord": {"lon": 20.763901, "lat": 52.670551}}, {"id": 7535637, "name": "Avellaneda", "state": "", "country": "AR", "coord": {"lon": -58.367439, "lat": -34.660179}}, {"id": 7535657, "name": "Karney Shomron", "state": "", "country": "PS", "coord": {"lon": 35.097672, "lat": 32.171398}}, {"id": 7535661, "name": "London Borough of Harrow", "state": "", "country": "GB", "coord": {"lon": -0.33333, "lat": 51.566669}}, {"id": 7535672, "name": "\u0141\u0119townia", "state": "", "country": "PL", "coord": {"lon": 19.87109, "lat": 49.697449}}, {"id": 7535673, "name": "Cap-Sant\u00e9", "state": "", "country": "CA", "coord": {"lon": -71.788116, "lat": 46.671589}}, {"id": 7535681, "name": "Saint-Augustin-de-Desmaures", "state": "", "country": "CA", "coord": {"lon": -71.451309, "lat": 46.740639}}, {"id": 7535690, "name": "Donnacona", "state": "", "country": "CA", "coord": {"lon": -71.7239, "lat": 46.68042}}, {"id": 7535692, "name": "La Pocati\u00e8re", "state": "", "country": "CA", "coord": {"lon": -70.061859, "lat": 47.348358}}, {"id": 7535693, "name": "Saint-Joseph-de-Beauce", "state": "", "country": "CA", "coord": {"lon": -70.866669, "lat": 46.299999}}, {"id": 7535694, "name": "Metabetchouan-Lac-a-la-Croix", "state": "", "country": "CA", "coord": {"lon": -71.779999, "lat": 48.41}}, {"id": 7535696, "name": "Spitsbergen", "state": "", "country": "SJ", "coord": {"lon": 17.709961, "lat": 78.052902}}, {"id": 7535712, "name": "Czechy", "state": "", "country": "PL", "coord": {"lon": 16.657681, "lat": 51.076241}}, {"id": 7535721, "name": "Broniszewice", "state": "", "country": "PL", "coord": {"lon": 17.816481, "lat": 51.966961}}, {"id": 7535732, "name": "Czarna D\u0105br\u00f3wka", "state": "", "country": "PL", "coord": {"lon": 17.56456, "lat": 54.356312}}, {"id": 7535938, "name": "Skarbimierz Osiedle", "state": "", "country": "PL", "coord": {"lon": 17.41865, "lat": 50.84584}}, {"id": 7535941, "name": "Olonkinbyen", "state": "", "country": "SJ", "coord": {"lon": -8.7187, "lat": 70.922096}}, {"id": 7535952, "name": "San Pedro De Cachora", "state": "", "country": "PE", "coord": {"lon": -72.883331, "lat": -13.63333}}, {"id": 7535964, "name": "Trodica", "state": "", "country": "IT", "coord": {"lon": 13.59369, "lat": 43.274578}}, {"id": 7535972, "name": "Wilczyce", "state": "", "country": "PL", "coord": {"lon": 17.15472, "lat": 51.12944}}, {"id": 7536078, "name": "Irkutsk", "state": "", "country": "RU", "coord": {"lon": 104.302139, "lat": 52.280762}}, {"id": 7536080, "name": "Ulan-Ude", "state": "", "country": "RU", "coord": {"lon": 107.609802, "lat": 51.826061}}, {"id": 7536143, "name": "Saga", "state": "", "country": "CN", "coord": {"lon": 85.226013, "lat": 29.323669}}, {"id": 7536147, "name": "Singapay", "state": "", "country": "RU", "coord": {"lon": 72.660721, "lat": 61.154518}}, {"id": 7536148, "name": "Priozersk", "state": "", "country": "KZ", "coord": {"lon": 73.702469, "lat": 46.031059}}, {"id": 7536163, "name": "Krzczon\u00f3w", "state": "", "country": "PL", "coord": {"lon": 22.71097, "lat": 51.007271}}, {"id": 7536245, "name": "Athmuqam", "state": "", "country": "PK", "coord": {"lon": 73.89724, "lat": 34.571732}}, {"id": 7536596, "name": "Chang\u2019an", "state": "", "country": "CN", "coord": {"lon": 129.668549, "lat": 43.027191}}, {"id": 7536600, "name": "Elxon", "state": "", "country": "UZ", "coord": {"lon": 71.56382, "lat": 40.99258}}, {"id": 7537278, "name": "Uzumzor", "state": "", "country": "UZ", "coord": {"lon": 71.388077, "lat": 40.64864}}, {"id": 7537374, "name": "Bairro Vista Alegre", "state": "", "country": "BR", "coord": {"lon": -43.780628, "lat": -22.86474}}, {"id": 7537426, "name": "Loteamento S\u00e3o Miguel", "state": "", "country": "BR", "coord": {"lon": -43.702991, "lat": -22.931641}}, {"id": 7538229, "name": "Vila Pedro II", "state": "", "country": "BR", "coord": {"lon": -43.358082, "lat": -22.80681}}, {"id": 7538533, "name": "Pav\u00e3o-Pavaozinho", "state": "", "country": "BR", "coord": {"lon": -43.196621, "lat": -22.980141}}, {"id": 7538753, "name": "Vila Joaniza", "state": "", "country": "BR", "coord": {"lon": -43.230709, "lat": -22.81415}}, {"id": 7539258, "name": "Huangni", "state": "", "country": "CN", "coord": {"lon": 127.296501, "lat": 42.556389}}, {"id": 7541337, "name": "Kelanabian", "state": "", "country": "ID", "coord": {"lon": 115.176903, "lat": -8.7519}}, {"id": 7541513, "name": "Kangin", "state": "", "country": "ID", "coord": {"lon": 115.125504, "lat": -8.8322}}, {"id": 7542695, "name": "Goluwapokuna", "state": "", "country": "LK", "coord": {"lon": 79.874199, "lat": 7.1898}}, {"id": 7543962, "name": "Lim\u00f3n", "state": "", "country": "PE", "coord": {"lon": -76.545113, "lat": -7.05513}}, {"id": 7544046, "name": "Rinc\u00f3n de Contado", "state": "", "country": "CO", "coord": {"lon": -76.110847, "lat": 1.86076}}, {"id": 7544153, "name": "Juanjuiycillo", "state": "", "country": "PE", "coord": {"lon": -76.735741, "lat": -7.18756}}, {"id": 7544228, "name": "El Ejido", "state": "", "country": "CO", "coord": {"lon": -76.92778, "lat": 1.19615}}, {"id": 7544732, "name": "Xianpudong", "state": "", "country": "CN", "coord": {"lon": 129.402863, "lat": 42.45034}}, {"id": 7544733, "name": "Chongmin", "state": "", "country": "CN", "coord": {"lon": 129.59935, "lat": 42.72839}}, {"id": 7544739, "name": "Beifenglindong", "state": "", "country": "CN", "coord": {"lon": 129.422684, "lat": 42.864281}}, {"id": 7545182, "name": "Klatakan", "state": "", "country": "ID", "coord": {"lon": 114.3834, "lat": -8.1762}}, {"id": 7545189, "name": "Kebunjeruk", "state": "", "country": "ID", "coord": {"lon": 114.377602, "lat": -8.1977}}, {"id": 7545190, "name": "Grobokan", "state": "", "country": "ID", "coord": {"lon": 114.379204, "lat": -8.2046}}, {"id": 7545192, "name": "Sritanjung", "state": "", "country": "ID", "coord": {"lon": 114.377098, "lat": -8.2075}}, {"id": 7545196, "name": "Ujung", "state": "", "country": "ID", "coord": {"lon": 114.381798, "lat": -8.2137}}, {"id": 7545199, "name": "Kaliasin", "state": "", "country": "ID", "coord": {"lon": 114.3778, "lat": -8.2203}}, {"id": 7545260, "name": "Possumur", "state": "", "country": "ID", "coord": {"lon": 114.419701, "lat": -8.0424}}, {"id": 7545578, "name": "Jempongwareng", "state": "", "country": "ID", "coord": {"lon": 116.094498, "lat": -8.5646}}, {"id": 7545790, "name": "Kampungbaru", "state": "", "country": "ID", "coord": {"lon": 116.664398, "lat": -8.5021}}, {"id": 7545820, "name": "Pringgabaya", "state": "", "country": "ID", "coord": {"lon": 116.631897, "lat": -8.557}}, {"id": 7546468, "name": "Venture Colony", "state": "", "country": "LK", "coord": {"lon": 80.607498, "lat": 6.8303}}, {"id": 7547253, "name": "Delod Pangkung", "state": "", "country": "ID", "coord": {"lon": 114.635399, "lat": -8.3812}}, {"id": 7547260, "name": "Banjar Dauhmarga", "state": "", "country": "ID", "coord": {"lon": 114.6726, "lat": -8.3916}}, {"id": 7547406, "name": "Ac\u00e1cias", "state": "", "country": "BR", "coord": {"lon": -44.3228, "lat": -22.440001}}, {"id": 7549049, "name": "Saco", "state": "", "country": "BR", "coord": {"lon": -44.041901, "lat": -22.941401}}, {"id": 7549091, "name": "Pelitli", "state": "", "country": "TR", "coord": {"lon": 39.793968, "lat": 40.981411}}, {"id": 7552914, "name": "Nangan", "state": "", "country": "TW", "coord": {"lon": 119.932838, "lat": 26.150391}}, {"id": 7553270, "name": "Banjar Tegakgede", "state": "", "country": "ID", "coord": {"lon": 114.775497, "lat": -8.3937}}, {"id": 7553294, "name": "Banjar Delodsetra", "state": "", "country": "ID", "coord": {"lon": 114.817802, "lat": -8.3987}}, {"id": 7553299, "name": "Pekutatan", "state": "", "country": "ID", "coord": {"lon": 114.8228, "lat": -8.4207}}, {"id": 7553307, "name": "Banjar Dangin Pangkung", "state": "", "country": "ID", "coord": {"lon": 114.8386, "lat": -8.4273}}, {"id": 7553315, "name": "Banjar Asahduren", "state": "", "country": "ID", "coord": {"lon": 114.852501, "lat": -8.3981}}, {"id": 7553317, "name": "Banjar Swastika", "state": "", "country": "ID", "coord": {"lon": 114.860001, "lat": -8.4318}}, {"id": 7553752, "name": "Minzhu", "state": "", "country": "CN", "coord": {"lon": 126.201813, "lat": 41.132149}}, {"id": 7554372, "name": "Lokokrangan", "state": "", "country": "ID", "coord": {"lon": 116.259102, "lat": -8.255}}, {"id": 7554575, "name": "Tanahsong Daya", "state": "", "country": "ID", "coord": {"lon": 116.167801, "lat": -8.3512}}, {"id": 7554590, "name": "Prawira", "state": "", "country": "ID", "coord": {"lon": 116.144096, "lat": -8.3611}}, {"id": 7554615, "name": "Todo", "state": "", "country": "ID", "coord": {"lon": 116.1819, "lat": -8.3718}}, {"id": 7554761, "name": "Santong", "state": "", "country": "ID", "coord": {"lon": 116.286697, "lat": -8.3178}}, {"id": 7555291, "name": "Labuhankuris", "state": "", "country": "ID", "coord": {"lon": 117.634399, "lat": -8.58061}}, {"id": 7555355, "name": "Vila Osris", "state": "", "country": "BR", "coord": {"lon": -46.231602, "lat": -23.314699}}, {"id": 7555444, "name": "Stio Caracol", "state": "", "country": "BR", "coord": {"lon": -46.24052, "lat": -23.45262}}, {"id": 7555989, "name": "Lukkarya", "state": "", "country": "ID", "coord": {"lon": 117.288101, "lat": -8.4288}}, {"id": 7556085, "name": "Waiha", "state": "", "country": "ID", "coord": {"lon": 119.042999, "lat": -9.6356}}, {"id": 7556130, "name": "Ngondokandawu", "state": "", "country": "ID", "coord": {"lon": 119.076302, "lat": -9.6602}}, {"id": 7556146, "name": "Panenggoede", "state": "", "country": "ID", "coord": {"lon": 119.051102, "lat": -9.6701}}, {"id": 7556335, "name": "Kalembutillu", "state": "", "country": "ID", "coord": {"lon": 119.243652, "lat": -9.5604}}, {"id": 7556351, "name": "Weetombo", "state": "", "country": "ID", "coord": {"lon": 119.128403, "lat": -9.566}}, {"id": 7556365, "name": "Weekombaka", "state": "", "country": "ID", "coord": {"lon": 119.141899, "lat": -9.51}}, {"id": 7556462, "name": "Radamata", "state": "", "country": "ID", "coord": {"lon": 119.146004, "lat": -9.549}}, {"id": 7556501, "name": "Pasonobenu", "state": "", "country": "ID", "coord": {"lon": 119.170502, "lat": -9.5502}}, {"id": 7556524, "name": "Manola", "state": "", "country": "ID", "coord": {"lon": 119.201401, "lat": -9.5639}}, {"id": 7556531, "name": "Weekaka", "state": "", "country": "ID", "coord": {"lon": 119.220596, "lat": -9.5662}}, {"id": 7556572, "name": "Delo", "state": "", "country": "ID", "coord": {"lon": 119.212502, "lat": -9.5948}}, {"id": 7557026, "name": "Ombakamia", "state": "", "country": "ID", "coord": {"lon": 119.303703, "lat": -9.5224}}, {"id": 7557041, "name": "Weegaingo", "state": "", "country": "ID", "coord": {"lon": 119.352097, "lat": -9.5278}}, {"id": 7557066, "name": "Watulabara", "state": "", "country": "ID", "coord": {"lon": 119.267403, "lat": -9.5295}}, {"id": 7557083, "name": "Weerame", "state": "", "country": "ID", "coord": {"lon": 119.287598, "lat": -9.5418}}, {"id": 7557120, "name": "Andelara", "state": "", "country": "ID", "coord": {"lon": 119.311501, "lat": -9.5433}}, {"id": 7557179, "name": "Weelimbu", "state": "", "country": "ID", "coord": {"lon": 119.337402, "lat": -9.5623}}, {"id": 7557192, "name": "Ombarade", "state": "", "country": "ID", "coord": {"lon": 119.3022, "lat": -9.56278}}, {"id": 7557248, "name": "Andekantor", "state": "", "country": "ID", "coord": {"lon": 119.366997, "lat": -9.582}}, {"id": 7558726, "name": "Bugis", "state": "", "country": "ID", "coord": {"lon": 123.060204, "lat": 0.5333}}, {"id": 7559741, "name": "Weepanapi", "state": "", "country": "ID", "coord": {"lon": 119.445602, "lat": -9.5739}}, {"id": 7561373, "name": "Bondoboghila", "state": "", "country": "ID", "coord": {"lon": 119.353203, "lat": -9.4116}}, {"id": 7561416, "name": "Weepangali", "state": "", "country": "ID", "coord": {"lon": 119.263496, "lat": -9.4266}}, {"id": 7563698, "name": "Tanatoku", "state": "", "country": "ID", "coord": {"lon": 119.539299, "lat": -9.521}}, {"id": 7563722, "name": "Tamaau", "state": "", "country": "ID", "coord": {"lon": 119.555702, "lat": -9.5904}}, {"id": 7563745, "name": "Katikuloko", "state": "", "country": "ID", "coord": {"lon": 119.542603, "lat": -9.5977}}, {"id": 7563835, "name": "Wailolung", "state": "", "country": "ID", "coord": {"lon": 119.581596, "lat": -9.5875}}, {"id": 7563856, "name": "Waihibar", "state": "", "country": "ID", "coord": {"lon": 119.623703, "lat": -9.6099}}, {"id": 7563868, "name": "Manukaka", "state": "", "country": "ID", "coord": {"lon": 119.587601, "lat": -9.5972}}, {"id": 7563870, "name": "Kabondok", "state": "", "country": "ID", "coord": {"lon": 119.571999, "lat": -9.5994}}, {"id": 7563892, "name": "Galubakul", "state": "", "country": "ID", "coord": {"lon": 119.566711, "lat": -9.62074}}, {"id": 7564226, "name": "Teongtoda", "state": "", "country": "ID", "coord": {"lon": 120.004097, "lat": -8.6431}}, {"id": 7564230, "name": "Werang", "state": "", "country": "ID", "coord": {"lon": 120.010597, "lat": -8.6488}}, {"id": 7564244, "name": "Rambang", "state": "", "country": "ID", "coord": {"lon": 120.046204, "lat": -8.648}}, {"id": 7564277, "name": "Nunang", "state": "", "country": "ID", "coord": {"lon": 120.004402, "lat": -8.7202}}, {"id": 7564299, "name": "Dahot", "state": "", "country": "ID", "coord": {"lon": 120.072304, "lat": -8.6474}}, {"id": 7564315, "name": "Laci", "state": "", "country": "ID", "coord": {"lon": 120.106903, "lat": -8.6939}}, {"id": 7564519, "name": "Montongkemong", "state": "", "country": "ID", "coord": {"lon": 116.554298, "lat": -8.4905}}, {"id": 7564547, "name": "Rasabou", "state": "", "country": "ID", "coord": {"lon": 118.254898, "lat": -8.5369}}, {"id": 7564566, "name": "Npongge", "state": "", "country": "ID", "coord": {"lon": 118.292297, "lat": -8.5531}}, {"id": 7565022, "name": "Waikambila", "state": "", "country": "ID", "coord": {"lon": 119.668999, "lat": -9.5324}}, {"id": 7565098, "name": "Bolubewa", "state": "", "country": "ID", "coord": {"lon": 119.7136, "lat": -9.533}}, {"id": 7566613, "name": "Alto", "state": "", "country": "BR", "coord": {"lon": -42.98381, "lat": -22.44165}}, {"id": 7566984, "name": "Paukate", "state": "", "country": "ID", "coord": {"lon": 120.854401, "lat": -8.8128}}, {"id": 7566994, "name": "Waelengga", "state": "", "country": "ID", "coord": {"lon": 120.807297, "lat": -8.8261}}, {"id": 7567165, "name": "Vila Molica", "state": "", "country": "BR", "coord": {"lon": -45.20816, "lat": -22.794371}}, {"id": 7567175, "name": "Bairro Marciana", "state": "", "country": "BR", "coord": {"lon": -45.2183, "lat": -22.827801}}, {"id": 7567562, "name": "Lurut", "state": "", "country": "ID", "coord": {"lon": 120.659103, "lat": -8.6528}}, {"id": 7567577, "name": "Waling", "state": "", "country": "ID", "coord": {"lon": 120.637802, "lat": -8.6466}}, {"id": 7567601, "name": "Ngusu", "state": "", "country": "ID", "coord": {"lon": 120.676903, "lat": -8.7065}}, {"id": 7567657, "name": "Lewe", "state": "", "country": "ID", "coord": {"lon": 120.645203, "lat": -8.744}}, {"id": 7567664, "name": "Pejek", "state": "", "country": "ID", "coord": {"lon": 120.722504, "lat": -8.6461}}, {"id": 7567666, "name": "Ranambeling", "state": "", "country": "ID", "coord": {"lon": 120.712898, "lat": -8.6595}}, {"id": 7567671, "name": "Mukun", "state": "", "country": "ID", "coord": {"lon": 120.696098, "lat": -8.658}}, {"id": 7567672, "name": "Dalo", "state": "", "country": "ID", "coord": {"lon": 120.696503, "lat": -8.6593}}, {"id": 7567694, "name": "Pedak", "state": "", "country": "ID", "coord": {"lon": 120.6931, "lat": -8.671}}, {"id": 7567796, "name": "Sawirara", "state": "", "country": "ID", "coord": {"lon": 119.477997, "lat": -9.3925}}, {"id": 7567813, "name": "Lokori", "state": "", "country": "ID", "coord": {"lon": 119.398003, "lat": -9.4194}}, {"id": 7567833, "name": "Malata", "state": "", "country": "ID", "coord": {"lon": 119.384499, "lat": -9.4466}}, {"id": 7567942, "name": "Bolengpulau", "state": "", "country": "ID", "coord": {"lon": 119.994301, "lat": -8.4384}}, {"id": 7567971, "name": "Rungkam", "state": "", "country": "ID", "coord": {"lon": 119.989601, "lat": -8.4734}}, {"id": 7567989, "name": "Waewaso", "state": "", "country": "ID", "coord": {"lon": 119.896698, "lat": -8.4905}}, {"id": 7568002, "name": "Cempa", "state": "", "country": "ID", "coord": {"lon": 119.878197, "lat": -8.493}}, {"id": 7568153, "name": "Puunage", "state": "", "country": "ID", "coord": {"lon": 121.212502, "lat": -8.8816}}, {"id": 7568175, "name": "Maukeli", "state": "", "country": "ID", "coord": {"lon": 121.161598, "lat": -8.8932}}, {"id": 7568182, "name": "Batawa", "state": "", "country": "ID", "coord": {"lon": 121.148201, "lat": -8.8954}}, {"id": 7568192, "name": "Maumbawa", "state": "", "country": "ID", "coord": {"lon": 121.136803, "lat": -8.8985}}, {"id": 7568340, "name": "Maumaru", "state": "", "country": "ID", "coord": {"lon": 120.497803, "lat": -10.0036}}, {"id": 7568369, "name": "Panjir", "state": "", "country": "ID", "coord": {"lon": 120.407204, "lat": -10.025}}, {"id": 7568407, "name": "Umanggudang", "state": "", "country": "ID", "coord": {"lon": 120.483902, "lat": -10.0533}}, {"id": 7568456, "name": "Latang", "state": "", "country": "ID", "coord": {"lon": 120.3815, "lat": -10.0963}}, {"id": 7568598, "name": "Landa", "state": "", "country": "ID", "coord": {"lon": 120.223297, "lat": -9.5923}}, {"id": 7568606, "name": "Tambulatana", "state": "", "country": "ID", "coord": {"lon": 120.197899, "lat": -9.5128}}, {"id": 7568630, "name": "S\u00edtio Agenor D. Sim\u00e3o", "state": "", "country": "BR", "coord": {"lon": -48.726799, "lat": -26.387199}}, {"id": 7569004, "name": "Hulutao", "state": "", "country": "CN", "coord": {"lon": 125.939758, "lat": 41.793308}}, {"id": 7569005, "name": "Jindou", "state": "", "country": "CN", "coord": {"lon": 125.690941, "lat": 41.704769}}, {"id": 7569006, "name": "Jiangdianzi", "state": "", "country": "CN", "coord": {"lon": 125.713188, "lat": 41.468948}}, {"id": 7569007, "name": "Dachuan", "state": "", "country": "CN", "coord": {"lon": 125.539017, "lat": 41.547771}}, {"id": 7569197, "name": "Praimarada", "state": "", "country": "ID", "coord": {"lon": 120.621651, "lat": -9.89128}}, {"id": 7569266, "name": "G\u00fcce", "state": "", "country": "TR", "coord": {"lon": 38.807129, "lat": 40.896671}}, {"id": 7569325, "name": "Nasawewe", "state": "", "country": "ID", "coord": {"lon": 121.279602, "lat": -8.8829}}, {"id": 7569348, "name": "Bongewu", "state": "", "country": "ID", "coord": {"lon": 120.953903, "lat": -8.7785}}, {"id": 7569351, "name": "Bogenga", "state": "", "country": "ID", "coord": {"lon": 120.961304, "lat": -8.7769}}, {"id": 7569358, "name": "Trikora", "state": "", "country": "ID", "coord": {"lon": 120.971497, "lat": -8.7865}}, {"id": 7569359, "name": "Ngedukelu", "state": "", "country": "ID", "coord": {"lon": 120.9748, "lat": -8.7877}}, {"id": 7569360, "name": "Kisanata", "state": "", "country": "ID", "coord": {"lon": 120.969704, "lat": -8.7901}}, {"id": 7569362, "name": "Tanalodu", "state": "", "country": "ID", "coord": {"lon": 120.973999, "lat": -8.7908}}, {"id": 7569388, "name": "Mari", "state": "", "country": "ID", "coord": {"lon": 120.9617, "lat": -8.8277}}, {"id": 7569395, "name": "Bojawa", "state": "", "country": "ID", "coord": {"lon": 120.959297, "lat": -8.8341}}, {"id": 7569428, "name": "Maunuri", "state": "", "country": "ID", "coord": {"lon": 121.280602, "lat": -8.8899}}, {"id": 7569438, "name": "Romba", "state": "", "country": "ID", "coord": {"lon": 121.296097, "lat": -8.9039}}, {"id": 7569439, "name": "Bengga", "state": "", "country": "ID", "coord": {"lon": 121.309708, "lat": -8.90845}}, {"id": 7569753, "name": "Wangkung", "state": "", "country": "ID", "coord": {"lon": 120.009201, "lat": -8.5161}}, {"id": 7569755, "name": "Betong", "state": "", "country": "ID", "coord": {"lon": 120.048798, "lat": -8.516}}, {"id": 7569776, "name": "Kondas", "state": "", "country": "ID", "coord": {"lon": 120.037003, "lat": -8.5752}}, {"id": 7569781, "name": "Ndewel", "state": "", "country": "ID", "coord": {"lon": 120.046997, "lat": -8.5848}}, {"id": 7569783, "name": "Tondongraja", "state": "", "country": "ID", "coord": {"lon": 120.058197, "lat": -8.5833}}, {"id": 7569792, "name": "Golondalas", "state": "", "country": "ID", "coord": {"lon": 120.017998, "lat": -8.5938}}, {"id": 7569799, "name": "Ranggawatu", "state": "", "country": "ID", "coord": {"lon": 120.042099, "lat": -8.6101}}, {"id": 7569802, "name": "Bambor", "state": "", "country": "ID", "coord": {"lon": 120.059799, "lat": -8.6126}}, {"id": 7569869, "name": "Zepe", "state": "", "country": "ID", "coord": {"lon": 121.093193, "lat": -8.76813}}, {"id": 7569889, "name": "Pogo", "state": "", "country": "ID", "coord": {"lon": 121.108597, "lat": -8.7962}}, {"id": 7569909, "name": "Mangulewa", "state": "", "country": "ID", "coord": {"lon": 121.0186, "lat": -8.8194}}, {"id": 7569912, "name": "Ranisoba", "state": "", "country": "ID", "coord": {"lon": 121.019402, "lat": -8.8231}}, {"id": 7569918, "name": "Dorupare", "state": "", "country": "ID", "coord": {"lon": 121.053001, "lat": -8.8229}}, {"id": 7569919, "name": "Mataloko", "state": "", "country": "ID", "coord": {"lon": 121.063004, "lat": -8.8206}}, {"id": 7569925, "name": "Sobo", "state": "", "country": "ID", "coord": {"lon": 121.0224, "lat": -8.8237}}, {"id": 7569949, "name": "Taka", "state": "", "country": "ID", "coord": {"lon": 121.113998, "lat": -8.8406}}, {"id": 7569953, "name": "Warekeo", "state": "", "country": "ID", "coord": {"lon": 121.010902, "lat": -8.8445}}, {"id": 7569959, "name": "Jadho", "state": "", "country": "ID", "coord": {"lon": 121.051102, "lat": -8.8428}}, {"id": 7569963, "name": "Nuamuzi", "state": "", "country": "ID", "coord": {"lon": 121.012001, "lat": -8.8567}}, {"id": 7569990, "name": "Waturoka", "state": "", "country": "ID", "coord": {"lon": 121.085197, "lat": -8.8714}}, {"id": 7570002, "name": "Kampungbajo", "state": "", "country": "ID", "coord": {"lon": 120.148102, "lat": -8.3457}}, {"id": 7570008, "name": "Genang", "state": "", "country": "ID", "coord": {"lon": 120.2006, "lat": -8.3462}}, {"id": 7570014, "name": "Toroloji", "state": "", "country": "ID", "coord": {"lon": 120.169296, "lat": -8.3582}}, {"id": 7570034, "name": "Tibakisa", "state": "", "country": "ID", "coord": {"lon": 121.178802, "lat": -8.7571}}, {"id": 7570038, "name": "Wologama", "state": "", "country": "ID", "coord": {"lon": 121.243797, "lat": -8.7785}}, {"id": 7570046, "name": "Jawagae", "state": "", "country": "ID", "coord": {"lon": 121.236603, "lat": -8.7681}}, {"id": 7570051, "name": "Mulakoli", "state": "", "country": "ID", "coord": {"lon": 121.218002, "lat": -8.8044}}, {"id": 7570054, "name": "Wolonio", "state": "", "country": "ID", "coord": {"lon": 121.219002, "lat": -8.7833}}, {"id": 7570055, "name": "Rega", "state": "", "country": "ID", "coord": {"lon": 121.208603, "lat": -8.7678}}, {"id": 7570061, "name": "Wudu", "state": "", "country": "ID", "coord": {"lon": 121.2034, "lat": -8.7742}}, {"id": 7570081, "name": "Nunukae", "state": "", "country": "ID", "coord": {"lon": 121.153, "lat": -8.8011}}, {"id": 7570100, "name": "Padhahegha", "state": "", "country": "ID", "coord": {"lon": 121.137001, "lat": -8.7733}}, {"id": 7570104, "name": "Hobonio", "state": "", "country": "ID", "coord": {"lon": 121.125603, "lat": -8.7867}}, {"id": 7570121, "name": "Wagha", "state": "", "country": "ID", "coord": {"lon": 121.158859, "lat": -8.86785}}, {"id": 7570125, "name": "Doya", "state": "", "country": "ID", "coord": {"lon": 121.162598, "lat": -8.8234}}, {"id": 7570139, "name": "Sukamaju", "state": "", "country": "ID", "coord": {"lon": 121.193001, "lat": -8.8564}}, {"id": 7570140, "name": "Pajoreja", "state": "", "country": "ID", "coord": {"lon": 121.195602, "lat": -8.8449}}, {"id": 7570142, "name": "Dawe", "state": "", "country": "ID", "coord": {"lon": 121.203201, "lat": -8.8456}}, {"id": 7570153, "name": "Lokawolo", "state": "", "country": "ID", "coord": {"lon": 121.210197, "lat": -8.8406}}, {"id": 7570159, "name": "Gelu", "state": "", "country": "ID", "coord": {"lon": 121.218002, "lat": -8.8503}}, {"id": 7570175, "name": "Pusu", "state": "", "country": "ID", "coord": {"lon": 121.247803, "lat": -8.8328}}, {"id": 7570299, "name": "Nggilat", "state": "", "country": "ID", "coord": {"lon": 120.250298, "lat": -8.3082}}, {"id": 7570338, "name": "Sambelia", "state": "", "country": "ID", "coord": {"lon": 116.686897, "lat": -8.3791}}, {"id": 7570445, "name": "Waetuwa", "state": "", "country": "ID", "coord": {"lon": 120.606201, "lat": -8.3796}}, {"id": 7570468, "name": "Golopau", "state": "", "country": "ID", "coord": {"lon": 120.550201, "lat": -8.4101}}, {"id": 7570487, "name": "Waso", "state": "", "country": "ID", "coord": {"lon": 120.585899, "lat": -8.4298}}, {"id": 7570519, "name": "Bentengjawa", "state": "", "country": "ID", "coord": {"lon": 120.572197, "lat": -8.4569}}, {"id": 7570522, "name": "Rentung", "state": "", "country": "ID", "coord": {"lon": 120.549797, "lat": -8.4572}}, {"id": 7570528, "name": "Golomunta", "state": "", "country": "ID", "coord": {"lon": 120.512802, "lat": -8.4636}}, {"id": 7570546, "name": "Kenca", "state": "", "country": "ID", "coord": {"lon": 120.558998, "lat": -8.4727}}, {"id": 7570551, "name": "Moso", "state": "", "country": "ID", "coord": {"lon": 120.5121, "lat": -8.4781}}, {"id": 7570560, "name": "Necak", "state": "", "country": "ID", "coord": {"lon": 120.619003, "lat": -8.4918}}, {"id": 7570762, "name": "Naru", "state": "", "country": "ID", "coord": {"lon": 120.986298, "lat": -8.7645}}, {"id": 7570771, "name": "Lekosoro", "state": "", "country": "ID", "coord": {"lon": 120.979301, "lat": -8.7826}}, {"id": 7570784, "name": "Bosiko", "state": "", "country": "ID", "coord": {"lon": 120.9907, "lat": -8.8101}}, {"id": 7570835, "name": "Pasolapida", "state": "", "country": "ID", "coord": {"lon": 119.163101, "lat": -9.64}}, {"id": 7570940, "name": "Itinga II", "state": "", "country": "BR", "coord": {"lon": -48.737701, "lat": -26.652}}, {"id": 7571945, "name": "Dampek", "state": "", "country": "ID", "coord": {"lon": 120.593803, "lat": -8.301}}, {"id": 7571955, "name": "Satarteu", "state": "", "country": "ID", "coord": {"lon": 120.517799, "lat": -8.321}}, {"id": 7571981, "name": "Weleng", "state": "", "country": "ID", "coord": {"lon": 120.523308, "lat": -8.405}}, {"id": 7572238, "name": "Gahondogo", "state": "", "country": "RW", "coord": {"lon": 29.6185, "lat": -1.4856}}, {"id": 7574258, "name": "Nangahaledoi", "state": "", "country": "ID", "coord": {"lon": 122.319298, "lat": -8.6325}}, {"id": 7574263, "name": "Waipare", "state": "", "country": "ID", "coord": {"lon": 122.278702, "lat": -8.6374}}, {"id": 7574268, "name": "Higetegera", "state": "", "country": "ID", "coord": {"lon": 122.274399, "lat": -8.6464}}, {"id": 7574271, "name": "Kawapante", "state": "", "country": "ID", "coord": {"lon": 122.295799, "lat": -8.6461}}, {"id": 7574291, "name": "Nitakloang", "state": "", "country": "ID", "coord": {"lon": 122.291496, "lat": -8.6622}}, {"id": 7574297, "name": "Watuliwung", "state": "", "country": "ID", "coord": {"lon": 122.254303, "lat": -8.6579}}, {"id": 7574306, "name": "Potet", "state": "", "country": "ID", "coord": {"lon": 122.308098, "lat": -8.683}}, {"id": 7574313, "name": "Kloangrotat", "state": "", "country": "ID", "coord": {"lon": 122.335503, "lat": -8.6793}}, {"id": 7574321, "name": "Aibura", "state": "", "country": "ID", "coord": {"lon": 122.331902, "lat": -8.667}}, {"id": 7574332, "name": "Baobatun", "state": "", "country": "ID", "coord": {"lon": 122.281097, "lat": -8.6873}}, {"id": 7574347, "name": "Magetlegar", "state": "", "country": "ID", "coord": {"lon": 122.351402, "lat": -8.6986}}, {"id": 7574367, "name": "Ojan", "state": "", "country": "ID", "coord": {"lon": 122.260696, "lat": -8.7026}}, {"id": 7574369, "name": "Bei", "state": "", "country": "ID", "coord": {"lon": 122.270699, "lat": -8.7006}}, {"id": 7574375, "name": "Watublapi", "state": "", "country": "ID", "coord": {"lon": 122.313202, "lat": -8.701}}, {"id": 7574385, "name": "Kloangpopot", "state": "", "country": "ID", "coord": {"lon": 122.351799, "lat": -8.7115}}, {"id": 7574409, "name": "Habibola", "state": "", "country": "ID", "coord": {"lon": 122.370399, "lat": -8.749}}, {"id": 7574423, "name": "Wolokoli", "state": "", "country": "ID", "coord": {"lon": 122.280502, "lat": -8.7281}}, {"id": 7574431, "name": "Taranggatar", "state": "", "country": "ID", "coord": {"lon": 122.270897, "lat": -8.7383}}, {"id": 7575224, "name": "Testo Central Alto", "state": "", "country": "BR", "coord": {"lon": -49.173599, "lat": -26.750799}}, {"id": 7575327, "name": "Ribeir\u00e3o das Pedras", "state": "", "country": "BR", "coord": {"lon": -49.238201, "lat": -26.9126}}, {"id": 7576105, "name": "Be\u0142\u017cec", "state": "", "country": "PL", "coord": {"lon": 23.438391, "lat": 50.384529}}, {"id": 7576107, "name": "Godzisz\u00f3w Pierwszy", "state": "", "country": "PL", "coord": {"lon": 22.48386, "lat": 50.75753}}, {"id": 7576141, "name": "Rokiciny-Kolonia", "state": "", "country": "PL", "coord": {"lon": 19.783119, "lat": 51.66468}}, {"id": 7576143, "name": "Nowe Ostrowy", "state": "", "country": "PL", "coord": {"lon": 19.192169, "lat": 52.303181}}, {"id": 7576212, "name": "Kocierzew Po\u0142udniowy", "state": "", "country": "PL", "coord": {"lon": 20.01812, "lat": 52.217281}}, {"id": 7576293, "name": "Dentenberg", "state": "", "country": "CH", "coord": {"lon": 7.53327, "lat": 46.943001}}, {"id": 7576318, "name": "Zdziechowice Drugie", "state": "", "country": "PL", "coord": {"lon": 22.109989, "lat": 50.784779}}, {"id": 7576320, "name": "Przys\u0142op", "state": "", "country": "PL", "coord": {"lon": 19.572399, "lat": 49.692402}}, {"id": 7576332, "name": "Chr\u00f3\u015bcina", "state": "", "country": "PL", "coord": {"lon": 17.36861, "lat": 50.623058}}, {"id": 7576421, "name": "Mirk\u00f3w", "state": "", "country": "PL", "coord": {"lon": 17.170259, "lat": 51.161049}}, {"id": 7576424, "name": "Radwanice", "state": "", "country": "PL", "coord": {"lon": 17.10932, "lat": 51.054131}}, {"id": 7576449, "name": "Rotmanka", "state": "", "country": "PL", "coord": {"lon": 18.6038, "lat": 54.27425}}, {"id": 7576667, "name": "Nowe Grocholice", "state": "", "country": "PL", "coord": {"lon": 20.9111, "lat": 52.159241}}, {"id": 7576812, "name": "Rabenau", "state": "", "country": "DE", "coord": {"lon": 8.86425, "lat": 50.677528}}, {"id": 7576815, "name": "Alt-K\u00f6lln", "state": "", "country": "DE", "coord": {"lon": 13.40285, "lat": 52.514858}}, {"id": 7576909, "name": "Makin Village", "state": "", "country": "KI", "coord": {"lon": 172.983521, "lat": 3.3644}}, {"id": 7576935, "name": "Ebsdorfergrund", "state": "", "country": "DE", "coord": {"lon": 8.85704, "lat": 50.726021}}, {"id": 7577022, "name": "Tres Cantos", "state": "", "country": "ES", "coord": {"lon": -3.70806, "lat": 40.600922}}, {"id": 7577023, "name": "Castellar del Riu", "state": "", "country": "ES", "coord": {"lon": 1.77378, "lat": 42.12299}}, {"id": 7577024, "name": "Senterada", "state": "", "country": "ES", "coord": {"lon": 0.93641, "lat": 42.325489}}, {"id": 7577025, "name": "Mendexa", "state": "", "country": "ES", "coord": {"lon": -2.4842, "lat": 43.345901}}, {"id": 7577026, "name": "Capolat", "state": "", "country": "ES", "coord": {"lon": 1.75352, "lat": 42.077202}}, {"id": 7577033, "name": "Sumulic\u00eb", "state": "", "country": "RS", "coord": {"lon": 21.733999, "lat": 42.386822}}, {"id": 7577093, "name": "Vilaller", "state": "", "country": "ES", "coord": {"lon": 0.75831, "lat": 42.53421}}, {"id": 7577100, "name": "Ceuta", "state": "", "country": "ES", "coord": {"lon": -5.31738, "lat": 35.886822}}, {"id": 7577101, "name": "Melilla", "state": "", "country": "ES", "coord": {"lon": -2.9409, "lat": 35.29187}}, {"id": 7578270, "name": "Chisong", "state": "", "country": "CN", "coord": {"lon": 127.005623, "lat": 42.57996}}, {"id": 7578271, "name": "Dujia", "state": "", "country": "CN", "coord": {"lon": 126.893333, "lat": 42.65086}}, {"id": 7578272, "name": "Yanping", "state": "", "country": "CN", "coord": {"lon": 126.911217, "lat": 42.268681}}, {"id": 7578489, "name": "Zhuanjiaolou", "state": "", "country": "CN", "coord": {"lon": 131.16153, "lat": 44.071461}}, {"id": 7578502, "name": "Sanchahe", "state": "", "country": "CN", "coord": {"lon": 131.189667, "lat": 43.5313}}, {"id": 7578503, "name": "Sanchakou Chaoxianzu", "state": "", "country": "CN", "coord": {"lon": 131.236389, "lat": 44.016949}}, {"id": 7579467, "name": "Tiang", "state": "", "country": "ID", "coord": {"lon": 111.888298, "lat": -8.0015}}, {"id": 7579474, "name": "Tebokan", "state": "", "country": "ID", "coord": {"lon": 111.913696, "lat": -8.0056}}, {"id": 7579478, "name": "Pulerejo", "state": "", "country": "ID", "coord": {"lon": 111.941101, "lat": -8.003}}, {"id": 7579480, "name": "Temenggungan", "state": "", "country": "ID", "coord": {"lon": 111.982697, "lat": -8.0015}}, {"id": 7579484, "name": "Ngamba", "state": "", "country": "ID", "coord": {"lon": 111.985603, "lat": -8.0146}}, {"id": 7579487, "name": "Tambakrejo", "state": "", "country": "ID", "coord": {"lon": 111.964104, "lat": -8.011}}, {"id": 7579489, "name": "Ngasinan", "state": "", "country": "ID", "coord": {"lon": 111.931702, "lat": -8.0116}}, {"id": 7579491, "name": "Sembon", "state": "", "country": "ID", "coord": {"lon": 111.9021, "lat": -8.0137}}, {"id": 7579492, "name": "Sukowidodo Barat", "state": "", "country": "ID", "coord": {"lon": 111.890999, "lat": -8.0116}}, {"id": 7579498, "name": "Setonobendo", "state": "", "country": "ID", "coord": {"lon": 111.882896, "lat": -8.0186}}, {"id": 7579501, "name": "Tamanan", "state": "", "country": "ID", "coord": {"lon": 111.893204, "lat": -8.0234}}, {"id": 7579509, "name": "Pinggirsari", "state": "", "country": "ID", "coord": {"lon": 111.941299, "lat": -8.0245}}, {"id": 7579513, "name": "Salam", "state": "", "country": "ID", "coord": {"lon": 111.975899, "lat": -8.0256}}, {"id": 7579517, "name": "Balong", "state": "", "country": "ID", "coord": {"lon": 111.957603, "lat": -8.0321}}, {"id": 7579520, "name": "Tapan", "state": "", "country": "ID", "coord": {"lon": 111.930298, "lat": -8.0332}}, {"id": 7579522, "name": "Gendingsari", "state": "", "country": "ID", "coord": {"lon": 111.909302, "lat": -8.0283}}, {"id": 7579527, "name": "Bungur", "state": "", "country": "ID", "coord": {"lon": 111.888702, "lat": -8.0271}}, {"id": 7579530, "name": "Simo Satu", "state": "", "country": "ID", "coord": {"lon": 111.902901, "lat": -8.0366}}, {"id": 7579532, "name": "Majan", "state": "", "country": "ID", "coord": {"lon": 111.902397, "lat": -8.0393}}, {"id": 7579538, "name": "Mayangan", "state": "", "country": "ID", "coord": {"lon": 111.9561, "lat": -8.0387}}, {"id": 7579543, "name": "Ngrawan", "state": "", "country": "ID", "coord": {"lon": 111.9786, "lat": -8.0339}}, {"id": 7579544, "name": "Tawangrejo", "state": "", "country": "ID", "coord": {"lon": 111.993698, "lat": -8.0357}}, {"id": 7579548, "name": "Kaliboto", "state": "", "country": "ID", "coord": {"lon": 111.979897, "lat": -8.0431}}, {"id": 7579552, "name": "Bangoan", "state": "", "country": "ID", "coord": {"lon": 111.941002, "lat": -8.0443}}, {"id": 7579553, "name": "Rejoagung", "state": "", "country": "ID", "coord": {"lon": 111.913498, "lat": -8.0439}}, {"id": 7579556, "name": "Kanugrahan", "state": "", "country": "ID", "coord": {"lon": 111.899498, "lat": -8.0503}}, {"id": 7579560, "name": "Batangsaren", "state": "", "country": "ID", "coord": {"lon": 111.880997, "lat": -8.054}}, {"id": 7579567, "name": "Sentulan", "state": "", "country": "ID", "coord": {"lon": 111.889503, "lat": -8.0591}}, {"id": 7579574, "name": "Kedungtaman", "state": "", "country": "ID", "coord": {"lon": 111.9114, "lat": -8.0547}}, {"id": 7579578, "name": "Bulusari", "state": "", "country": "ID", "coord": {"lon": 111.949997, "lat": -8.0502}}, {"id": 7579579, "name": "Kedungdoro", "state": "", "country": "ID", "coord": {"lon": 111.950203, "lat": -8.0577}}, {"id": 7579581, "name": "Pucung", "state": "", "country": "ID", "coord": {"lon": 111.973198, "lat": -8.053}}, {"id": 7579585, "name": "Sambirobyong", "state": "", "country": "ID", "coord": {"lon": 111.969398, "lat": -8.0649}}, {"id": 7579589, "name": "Ringinagung", "state": "", "country": "ID", "coord": {"lon": 111.932297, "lat": -8.0608}}, {"id": 7579591, "name": "Mekarsari", "state": "", "country": "ID", "coord": {"lon": 111.923698, "lat": -8.0648}}, {"id": 7579592, "name": "Kepatihan", "state": "", "country": "ID", "coord": {"lon": 111.9133, "lat": -8.0629}}, {"id": 7579597, "name": "Sembung", "state": "", "country": "ID", "coord": {"lon": 111.895699, "lat": -8.061}}, {"id": 7579599, "name": "Kauman", "state": "", "country": "ID", "coord": {"lon": 111.8964, "lat": -8.0649}}, {"id": 7579605, "name": "Kutoanyar", "state": "", "country": "ID", "coord": {"lon": 111.889999, "lat": -8.0677}}, {"id": 7579606, "name": "Tertek", "state": "", "country": "ID", "coord": {"lon": 111.891899, "lat": -8.0704}}, {"id": 7579607, "name": "Karangwaru", "state": "", "country": "ID", "coord": {"lon": 111.898399, "lat": -8.0703}}, {"id": 7579608, "name": "Tamanan", "state": "", "country": "ID", "coord": {"lon": 111.902603, "lat": -8.0722}}, {"id": 7579609, "name": "Bago", "state": "", "country": "ID", "coord": {"lon": 111.909103, "lat": -8.0684}}, {"id": 7579618, "name": "Ngrukem", "state": "", "country": "ID", "coord": {"lon": 111.979401, "lat": -8.0786}}, {"id": 7579621, "name": "Jabalan", "state": "", "country": "ID", "coord": {"lon": 111.966599, "lat": -8.0822}}, {"id": 7579623, "name": "Selojeneng", "state": "", "country": "ID", "coord": {"lon": 111.946602, "lat": -8.0783}}, {"id": 7579625, "name": "Kudusan", "state": "", "country": "ID", "coord": {"lon": 111.926804, "lat": -8.0785}}, {"id": 7579626, "name": "Jepun", "state": "", "country": "ID", "coord": {"lon": 111.910797, "lat": -8.0755}}, {"id": 7579627, "name": "Serut", "state": "", "country": "ID", "coord": {"lon": 111.909698, "lat": -8.081}}, {"id": 7579631, "name": "Gedangsewu Selatan", "state": "", "country": "ID", "coord": {"lon": 111.889397, "lat": -8.0759}}, {"id": 7579633, "name": "Pacet", "state": "", "country": "ID", "coord": {"lon": 111.881798, "lat": -8.0786}}, {"id": 7579645, "name": "Tanggulangin", "state": "", "country": "ID", "coord": {"lon": 111.925697, "lat": -8.085}}, {"id": 7579648, "name": "Bendilmuning", "state": "", "country": "ID", "coord": {"lon": 111.941704, "lat": -8.0925}}, {"id": 7579649, "name": "Sadar", "state": "", "country": "ID", "coord": {"lon": 111.952202, "lat": -8.0906}}, {"id": 7579654, "name": "Pulosari", "state": "", "country": "ID", "coord": {"lon": 111.988998, "lat": -8.0928}}, {"id": 7579655, "name": "Kromasan", "state": "", "country": "ID", "coord": {"lon": 111.978996, "lat": -8.097}}, {"id": 7579656, "name": "Setonokalong", "state": "", "country": "ID", "coord": {"lon": 111.962898, "lat": -8.0934}}, {"id": 7579657, "name": "Kedungsinggil", "state": "", "country": "ID", "coord": {"lon": 111.9161, "lat": -8.0993}}, {"id": 7579663, "name": "Ngipik", "state": "", "country": "ID", "coord": {"lon": 111.876602, "lat": -8.1036}}, {"id": 7579685, "name": "Karanggayam", "state": "", "country": "ID", "coord": {"lon": 111.911003, "lat": -8.1002}}, {"id": 7579686, "name": "Bayanan", "state": "", "country": "ID", "coord": {"lon": 111.912804, "lat": -8.1031}}, {"id": 7579689, "name": "Doropayung", "state": "", "country": "ID", "coord": {"lon": 111.9403, "lat": -8.1069}}, {"id": 7579691, "name": "Tambaksumber", "state": "", "country": "ID", "coord": {"lon": 111.951797, "lat": -8.1041}}, {"id": 7579695, "name": "Sadeng", "state": "", "country": "ID", "coord": {"lon": 111.9664, "lat": -8.1073}}, {"id": 7579698, "name": "Sumberjo Kulon", "state": "", "country": "ID", "coord": {"lon": 111.992302, "lat": -8.1082}}, {"id": 7579700, "name": "Dukuh", "state": "", "country": "ID", "coord": {"lon": 111.976402, "lat": -8.109}}, {"id": 7579704, "name": "Dawuhan", "state": "", "country": "ID", "coord": {"lon": 111.947403, "lat": -8.1135}}, {"id": 7579706, "name": "Wajak", "state": "", "country": "ID", "coord": {"lon": 111.915298, "lat": -8.1087}}, {"id": 7579710, "name": "Genting", "state": "", "country": "ID", "coord": {"lon": 111.884399, "lat": -8.1191}}, {"id": 7579711, "name": "Blimbing", "state": "", "country": "ID", "coord": {"lon": 111.884102, "lat": -8.1238}}, {"id": 7579713, "name": "Pucung Kidul", "state": "", "country": "ID", "coord": {"lon": 111.903999, "lat": -8.1208}}, {"id": 7579714, "name": "Sanggrahan Kidul", "state": "", "country": "ID", "coord": {"lon": 111.914703, "lat": -8.1207}}, {"id": 7579716, "name": "Mojo", "state": "", "country": "ID", "coord": {"lon": 111.920601, "lat": -8.1185}}, {"id": 7579721, "name": "Bendilwungu Lor", "state": "", "country": "ID", "coord": {"lon": 111.953201, "lat": -8.1197}}, {"id": 7579724, "name": "Cangkringan", "state": "", "country": "ID", "coord": {"lon": 111.970703, "lat": -8.1199}}, {"id": 7580140, "name": "Gongji", "state": "", "country": "CN", "coord": {"lon": 126.886787, "lat": 42.995049}}, {"id": 7580215, "name": "B\u00fcrserberg", "state": "", "country": "AT", "coord": {"lon": 9.77736, "lat": 47.146439}}, {"id": 7580311, "name": "Dachsberg", "state": "", "country": "DE", "coord": {"lon": 8.10001, "lat": 47.72945}}, {"id": 7580900, "name": "Banyuanyar", "state": "", "country": "ID", "coord": {"lon": 113.977997, "lat": -8.2664}}, {"id": 7580910, "name": "Kalibaru Kulon", "state": "", "country": "ID", "coord": {"lon": 113.979103, "lat": -8.2877}}, {"id": 7581129, "name": "Ban Nong King Fa", "state": "", "country": "TH", "coord": {"lon": 98.544746, "lat": 16.694}}, {"id": 7581189, "name": "Holzgau", "state": "", "country": "AT", "coord": {"lon": 10.34419, "lat": 47.260448}}, {"id": 7581514, "name": "\u00c7atalp\u0131nar", "state": "", "country": "TR", "coord": {"lon": 37.45351, "lat": 40.87899}}, {"id": 7581582, "name": "Bor", "state": "", "country": "RS", "coord": {"lon": 22.25, "lat": 44.366669}}, {"id": 7581718, "name": "Satria", "state": "", "country": "ID", "coord": {"lon": 114.626701, "lat": -8.3534}}, {"id": 7581720, "name": "Loloan Timur", "state": "", "country": "ID", "coord": {"lon": 114.625801, "lat": -8.3665}}, {"id": 7581723, "name": "Pamedilan", "state": "", "country": "ID", "coord": {"lon": 114.643303, "lat": -8.3652}}, {"id": 7581724, "name": "Batuagung", "state": "", "country": "ID", "coord": {"lon": 114.642998, "lat": -8.3592}}, {"id": 7581728, "name": "Banjar Sebual", "state": "", "country": "ID", "coord": {"lon": 114.656799, "lat": -8.3661}}, {"id": 7581731, "name": "Baler Baleagung", "state": "", "country": "ID", "coord": {"lon": 114.670998, "lat": -8.3728}}, {"id": 7581796, "name": "South Ba\u010dka", "state": "", "country": "RS", "coord": {"lon": 19.88917, "lat": 45.408611}}, {"id": 7581797, "name": "South Banat", "state": "", "country": "RS", "coord": {"lon": 20.96583, "lat": 45.08083}}, {"id": 7581814, "name": "Grujugan", "state": "", "country": "ID", "coord": {"lon": 114.0056, "lat": -7.7776}}, {"id": 7581822, "name": "Krajan Satu Klampokan", "state": "", "country": "ID", "coord": {"lon": 114.051903, "lat": -7.7548}}, {"id": 7581829, "name": "Sumuranyar", "state": "", "country": "ID", "coord": {"lon": 114.0625, "lat": -7.7546}}, {"id": 7581842, "name": "Jatisari Satu", "state": "", "country": "ID", "coord": {"lon": 114.101501, "lat": -7.7637}}, {"id": 7581849, "name": "Coratatal", "state": "", "country": "ID", "coord": {"lon": 114.0783, "lat": -7.7799}}, {"id": 7581857, "name": "Suling Kulon", "state": "", "country": "ID", "coord": {"lon": 114.037498, "lat": -7.7897}}, {"id": 7581860, "name": "Ramban Kulon", "state": "", "country": "ID", "coord": {"lon": 114.018898, "lat": -7.7773}}, {"id": 7581861, "name": "Krajan Bandilan", "state": "", "country": "ID", "coord": {"lon": 114.011703, "lat": -7.7954}}, {"id": 7581862, "name": "Banyumas", "state": "", "country": "ID", "coord": {"lon": 114.004204, "lat": -7.7972}}, {"id": 7581884, "name": "Duwe", "state": "", "country": "ID", "coord": {"lon": 114.001404, "lat": -7.8742}}, {"id": 7581890, "name": "Kladi", "state": "", "country": "ID", "coord": {"lon": 114.085899, "lat": -7.816}}, {"id": 7581895, "name": "Kepeg Satu", "state": "", "country": "ID", "coord": {"lon": 114.071198, "lat": -7.8378}}, {"id": 7581911, "name": "West Ba\u010dka", "state": "", "country": "RS", "coord": {"lon": 19.112221, "lat": 45.77417}}, {"id": 7581933, "name": "Besisora", "state": "", "country": "ID", "coord": {"lon": 116.827698, "lat": -8.8579}}, {"id": 7581958, "name": "Jelateng Timur", "state": "", "country": "ID", "coord": {"lon": 116.084999, "lat": -8.7548}}, {"id": 7582093, "name": "Tawun", "state": "", "country": "ID", "coord": {"lon": 116.008102, "lat": -8.7526}}, {"id": 7582364, "name": "Sukadana", "state": "", "country": "ID", "coord": {"lon": 115.541298, "lat": -8.2273}}, {"id": 7582376, "name": "Baturinggit Kaja", "state": "", "country": "ID", "coord": {"lon": 115.563103, "lat": -8.2464}}, {"id": 7582741, "name": "Charqueada", "state": "", "country": "BR", "coord": {"lon": -51.426102, "lat": -29.7519}}, {"id": 7582820, "name": "Linha Floresta", "state": "", "country": "BR", "coord": {"lon": -53.862598, "lat": -25.1131}}, {"id": 7582881, "name": "Travessa Santa Tereza", "state": "", "country": "BR", "coord": {"lon": -51.195099, "lat": -29.2103}}, {"id": 7583030, "name": "S\u00edtio Santana", "state": "", "country": "BR", "coord": {"lon": -47.167789, "lat": -23.54738}}, {"id": 7584656, "name": "Padedemanu", "state": "", "country": "ID", "coord": {"lon": 119.103203, "lat": -9.4508}}, {"id": 7584708, "name": "Baroh", "state": "", "country": "ID", "coord": {"lon": 119.042999, "lat": -9.4884}}, {"id": 7584771, "name": "Sangumata", "state": "", "country": "ID", "coord": {"lon": 119.5606, "lat": -9.4033}}, {"id": 7585456, "name": "Tolomango", "state": "", "country": "ID", "coord": {"lon": 118.613297, "lat": -8.5052}}, {"id": 7585460, "name": "Melati", "state": "", "country": "ID", "coord": {"lon": 118.623398, "lat": -8.5072}}, {"id": 7585461, "name": "Leu", "state": "", "country": "ID", "coord": {"lon": 118.624496, "lat": -8.5066}}, {"id": 7585470, "name": "Tambe", "state": "", "country": "ID", "coord": {"lon": 118.605003, "lat": -8.5098}}, {"id": 7585503, "name": "Beringin", "state": "", "country": "ID", "coord": {"lon": 118.572098, "lat": -8.5237}}, {"id": 7585538, "name": "Rate", "state": "", "country": "ID", "coord": {"lon": 118.555397, "lat": -8.5402}}, {"id": 7585578, "name": "Woro", "state": "", "country": "ID", "coord": {"lon": 118.543701, "lat": -8.573}}, {"id": 7586714, "name": "Grigor\u2019yevskoye", "state": "", "country": "RU", "coord": {"lon": 37.2491, "lat": 57.0653}}, {"id": 7586836, "name": "Pataha", "state": "", "country": "ID", "coord": {"lon": 119.009499, "lat": -8.5297}}, {"id": 7586854, "name": "Naebugis", "state": "", "country": "ID", "coord": {"lon": 119.006897, "lat": -8.5774}}, {"id": 7586887, "name": "Bombo", "state": "", "country": "ID", "coord": {"lon": 119.0131, "lat": -8.6131}}, {"id": 7586889, "name": "Sigirato", "state": "", "country": "ID", "coord": {"lon": 119.012604, "lat": -8.6189}}, {"id": 7588425, "name": "Changsal-li", "state": "", "country": "KR", "coord": {"lon": 128.589996, "lat": 38.13792}}, {"id": 7588461, "name": "Jangjolli", "state": "", "country": "KR", "coord": {"lon": 128.674957, "lat": 38.06588}}, {"id": 7588653, "name": "S\u00edtio Bom Jardim", "state": "", "country": "BR", "coord": {"lon": -47.864601, "lat": -23.055799}}, {"id": 7588689, "name": "Jequitaia", "state": "", "country": "BR", "coord": {"lon": -47.816299, "lat": -23.108601}}, {"id": 7589098, "name": "Harapankarya", "state": "", "country": "ID", "coord": {"lon": 119.643799, "lat": -3.9893}}, {"id": 7590363, "name": "Yaz\u0131ba\u015f\u0131", "state": "", "country": "TR", "coord": {"lon": 36.873531, "lat": 39.821079}}, {"id": 7590521, "name": "Novyy", "state": "", "country": "RU", "coord": {"lon": 53.951401, "lat": 53.883701}}, {"id": 7591834, "name": "Walakeri", "state": "", "country": "ID", "coord": {"lon": 120.528999, "lat": -10.2057}}, {"id": 7591840, "name": "Mbulung", "state": "", "country": "ID", "coord": {"lon": 120.540001, "lat": -10.2241}}, {"id": 7591845, "name": "Pahenya", "state": "", "country": "ID", "coord": {"lon": 120.534401, "lat": -10.205}}, {"id": 7591860, "name": "Umakadambung", "state": "", "country": "ID", "coord": {"lon": 120.560204, "lat": -10.2136}}, {"id": 7592119, "name": "Walakeri", "state": "", "country": "ID", "coord": {"lon": 120.151001, "lat": -9.9367}}, {"id": 7592176, "name": "Bidikotak", "state": "", "country": "ID", "coord": {"lon": 120.182098, "lat": -9.8323}}, {"id": 7592197, "name": "Penang", "state": "", "country": "ID", "coord": {"lon": 120.246384, "lat": -9.84456}}, {"id": 7592586, "name": "Laimuda", "state": "", "country": "ID", "coord": {"lon": 120.331596, "lat": -9.9866}}, {"id": 7592960, "name": "Byumba Ville", "state": "", "country": "RW", "coord": {"lon": 30.0634, "lat": -1.5734}}, {"id": 7593282, "name": "Taquaral", "state": "", "country": "BR", "coord": {"lon": -45.508209, "lat": -22.518749}}, {"id": 7593618, "name": "Bicudo", "state": "", "country": "BR", "coord": {"lon": -45.747398, "lat": -22.7367}}, {"id": 7593628, "name": "Monjolinho", "state": "", "country": "BR", "coord": {"lon": -45.712299, "lat": -22.702101}}, {"id": 7593881, "name": "Cercadinho", "state": "", "country": "BR", "coord": {"lon": -47.7617, "lat": -23.468941}}, {"id": 7594343, "name": "S\u00edtio Velho", "state": "", "country": "BR", "coord": {"lon": -47.556999, "lat": -23.598}}, {"id": 7594610, "name": "Bakcha-Saray", "state": "", "country": "RU", "coord": {"lon": 52.085999, "lat": 55.552799}}, {"id": 7594893, "name": "Sredniy Tolkish", "state": "", "country": "RU", "coord": {"lon": 51.001099, "lat": 55.338001}}, {"id": 7594929, "name": "Taktalachuk", "state": "", "country": "RU", "coord": {"lon": 53.942902, "lat": 55.874699}}, {"id": 7595653, "name": "Nyakabanda", "state": "", "country": "RW", "coord": {"lon": 30.1106, "lat": -1.9643}}, {"id": 7595671, "name": "Samuduha", "state": "", "country": "RW", "coord": {"lon": 30.1373, "lat": -1.9751}}, {"id": 7595832, "name": "Aktuba", "state": "", "country": "RU", "coord": {"lon": 52.775299, "lat": 54.814999}}, {"id": 7596769, "name": "Arkhangelka", "state": "", "country": "RU", "coord": {"lon": 74.508598, "lat": 55.067699}}, {"id": 7597144, "name": "Vila Natal", "state": "", "country": "BR", "coord": {"lon": -50.995701, "lat": -29.928499}}, {"id": 7601200, "name": "Art\u00ebmovo", "state": "", "country": "RU", "coord": {"lon": 36.263401, "lat": 56.632801}}, {"id": 7601266, "name": "Selino", "state": "", "country": "RU", "coord": {"lon": 36.026901, "lat": 56.480099}}, {"id": 7601267, "name": "L\u2019nozavod", "state": "", "country": "RU", "coord": {"lon": 36.006599, "lat": 56.4939}}, {"id": 7601272, "name": "Grishkino", "state": "", "country": "RU", "coord": {"lon": 36.0868, "lat": 56.374599}}, {"id": 7601294, "name": "Igumnovo", "state": "", "country": "RU", "coord": {"lon": 36.305801, "lat": 56.397202}}, {"id": 7601295, "name": "Kryukovo", "state": "", "country": "RU", "coord": {"lon": 36.4118, "lat": 56.419899}}, {"id": 7601305, "name": "Ovsyannikovo", "state": "", "country": "RU", "coord": {"lon": 36.172001, "lat": 56.369499}}, {"id": 7601306, "name": "Glukhino", "state": "", "country": "RU", "coord": {"lon": 36.1535, "lat": 56.3843}}, {"id": 7601308, "name": "Bortnitsy", "state": "", "country": "RU", "coord": {"lon": 36.251099, "lat": 56.385799}}, {"id": 7601341, "name": "Sheverikha", "state": "", "country": "RU", "coord": {"lon": 36.184898, "lat": 56.315701}}, {"id": 7601361, "name": "Makarikha", "state": "", "country": "RU", "coord": {"lon": 36.130901, "lat": 56.265499}}, {"id": 7601362, "name": "Portsino", "state": "", "country": "RU", "coord": {"lon": 36.119999, "lat": 56.273499}}, {"id": 7601393, "name": "Rodionovo", "state": "", "country": "RU", "coord": {"lon": 36.107201, "lat": 56.194}}, {"id": 7601394, "name": "Fadeyevo", "state": "", "country": "RU", "coord": {"lon": 36.134499, "lat": 56.188499}}, {"id": 7601395, "name": "Smol\u2019nikovo", "state": "", "country": "RU", "coord": {"lon": 36.1507, "lat": 56.176399}}, {"id": 7601425, "name": "Ozhogino", "state": "", "country": "RU", "coord": {"lon": 36.168201, "lat": 56.161499}}, {"id": 7601427, "name": "Novoye", "state": "", "country": "RU", "coord": {"lon": 36.146599, "lat": 56.159599}}, {"id": 7601434, "name": "Detgorodok", "state": "", "country": "RU", "coord": {"lon": 36.096001, "lat": 56.172401}}, {"id": 7601487, "name": "Kut\u2019ino", "state": "", "country": "RU", "coord": {"lon": 36.246498, "lat": 56.084}}, {"id": 7601506, "name": "Leonovo", "state": "", "country": "RU", "coord": {"lon": 36.676701, "lat": 56.051498}}, {"id": 7601515, "name": "Pristanino", "state": "", "country": "RU", "coord": {"lon": 36.2388, "lat": 56.068001}}, {"id": 7601516, "name": "Zolevo", "state": "", "country": "RU", "coord": {"lon": 36.229099, "lat": 56.0606}}, {"id": 7601517, "name": "Aks\u00ebnovo", "state": "", "country": "RU", "coord": {"lon": 36.226002, "lat": 56.041901}}, {"id": 7601519, "name": "Gusenevo", "state": "", "country": "RU", "coord": {"lon": 36.201599, "lat": 56.0368}}, {"id": 7601529, "name": "Mazilovo", "state": "", "country": "RU", "coord": {"lon": 36.6609, "lat": 56.039001}}, {"id": 7601530, "name": "Kurovo", "state": "", "country": "RU", "coord": {"lon": 36.610199, "lat": 56.0284}}, {"id": 7601531, "name": "Parf\u00ebnki", "state": "", "country": "RU", "coord": {"lon": 36.589298, "lat": 56.029499}}, {"id": 7601532, "name": "Bodrovo", "state": "", "country": "RU", "coord": {"lon": 36.531898, "lat": 56.036098}}, {"id": 7601533, "name": "Rybushki", "state": "", "country": "RU", "coord": {"lon": 36.500599, "lat": 56.007}}, {"id": 7601648, "name": "S\u00edtio do Garcia", "state": "", "country": "BR", "coord": {"lon": -47.392632, "lat": -23.698799}}, {"id": 7601753, "name": "Stoner", "state": "", "country": "CA", "coord": {"lon": -122.662178, "lat": 53.62912}}, {"id": 7601762, "name": "Bairiki Village", "state": "", "country": "KI", "coord": {"lon": 172.97522, "lat": 1.32924}}, {"id": 7601765, "name": "Ambo Village", "state": "", "country": "KI", "coord": {"lon": 173.042587, "lat": 1.35317}}, {"id": 7601768, "name": "Bonriki Village", "state": "", "country": "KI", "coord": {"lon": 173.13887, "lat": 1.38081}}, {"id": 7601770, "name": "Temaiku Village", "state": "", "country": "KI", "coord": {"lon": 173.162262, "lat": 1.36292}}, {"id": 7601771, "name": "Nawerewere Village", "state": "", "country": "KI", "coord": {"lon": 173.139343, "lat": 1.36362}}, {"id": 7601774, "name": "Bikenibeu Village", "state": "", "country": "KI", "coord": {"lon": 173.124146, "lat": 1.3673}}, {"id": 7601776, "name": "Eita Village", "state": "", "country": "KI", "coord": {"lon": 173.081131, "lat": 1.36154}}, {"id": 7601828, "name": "Noginsk-9", "state": "", "country": "RU", "coord": {"lon": 38.50013, "lat": 56.066811}}, {"id": 7601921, "name": "Zhongxing New Village", "state": "", "country": "TW", "coord": {"lon": 120.685158, "lat": 23.95908}}, {"id": 7602003, "name": "Qaasuitsup", "state": "", "country": "GL", "coord": {"lon": -51.103512, "lat": 69.216621}}, {"id": 7602005, "name": "Kujalleq", "state": "", "country": "GL", "coord": {"lon": -46.036831, "lat": 60.719051}}, {"id": 7602006, "name": "Qeqqata", "state": "", "country": "GL", "coord": {"lon": -53.675171, "lat": 66.933052}}, {"id": 7602007, "name": "Sermersooq", "state": "", "country": "GL", "coord": {"lon": -51.718311, "lat": 64.182838}}, {"id": 7602078, "name": "Ladner", "state": "", "country": "CA", "coord": {"lon": -123.082413, "lat": 49.089378}}, {"id": 7602285, "name": "Steveston", "state": "", "country": "CA", "coord": {"lon": -123.181374, "lat": 49.12714}}, {"id": 7602400, "name": "Au", "state": "", "country": "DE", "coord": {"lon": 7.83333, "lat": 47.950001}}, {"id": 7602402, "name": "Pluwig", "state": "", "country": "DE", "coord": {"lon": 6.71239, "lat": 49.689758}}, {"id": 7602403, "name": "\u00dclsby", "state": "", "country": "DE", "coord": {"lon": 9.6, "lat": 54.633331}}, {"id": 7602404, "name": "Gusterath", "state": "", "country": "DE", "coord": {"lon": 6.71667, "lat": 49.700001}}, {"id": 7602405, "name": "Korlingen", "state": "", "country": "DE", "coord": {"lon": 6.72475, "lat": 49.727139}}, {"id": 7602406, "name": "Pellingen", "state": "", "country": "DE", "coord": {"lon": 6.67085, "lat": 49.675522}}, {"id": 7602408, "name": "Goldbeck", "state": "", "country": "DE", "coord": {"lon": 11.8606, "lat": 52.716949}}, {"id": 7602409, "name": "Poggensee", "state": "", "country": "DE", "coord": {"lon": 10.58333, "lat": 53.650002}}, {"id": 7602411, "name": "Schmi\u00dfberg", "state": "", "country": "DE", "coord": {"lon": 7.2, "lat": 49.666672}}, {"id": 7602412, "name": "Langweiler", "state": "", "country": "DE", "coord": {"lon": 7.18333, "lat": 49.783329}}, {"id": 7602415, "name": "Borkwalde", "state": "", "country": "DE", "coord": {"lon": 12.8333, "lat": 52.25}}, {"id": 7602417, "name": "Sietow", "state": "", "country": "DE", "coord": {"lon": 12.58333, "lat": 53.433331}}, {"id": 7602419, "name": "Thermalbad Wiesenbad", "state": "", "country": "DE", "coord": {"lon": 13.05, "lat": 50.616669}}, {"id": 7602426, "name": "Rantzau", "state": "", "country": "DE", "coord": {"lon": 10.51667, "lat": 54.25}}, {"id": 7602427, "name": "P\u00f6schendorf", "state": "", "country": "DE", "coord": {"lon": 9.48845, "lat": 54.037399}}, {"id": 7602428, "name": "Schweringen", "state": "", "country": "DE", "coord": {"lon": 9.18333, "lat": 52.75}}, {"id": 7602434, "name": "Schiersfeld", "state": "", "country": "DE", "coord": {"lon": 7.76667, "lat": 49.700001}}, {"id": 7602435, "name": "Riegsee", "state": "", "country": "DE", "coord": {"lon": 11.23391, "lat": 47.698669}}, {"id": 7602437, "name": "Baierbrunn", "state": "", "country": "DE", "coord": {"lon": 11.48689, "lat": 48.020302}}, {"id": 7602438, "name": "P\u00f6sing", "state": "", "country": "DE", "coord": {"lon": 12.55, "lat": 49.23333}}, {"id": 7602440, "name": "L\u00f6bnitz", "state": "", "country": "DE", "coord": {"lon": 12.71929, "lat": 54.295368}}, {"id": 7602441, "name": "Papenhusen", "state": "", "country": "DE", "coord": {"lon": 11.06667, "lat": 53.866669}}, {"id": 7602442, "name": "Hohenkirchen", "state": "", "country": "DE", "coord": {"lon": 11.31667, "lat": 53.916672}}, {"id": 7602443, "name": "Rossow", "state": "", "country": "DE", "coord": {"lon": 14.1255, "lat": 53.474251}}, {"id": 7602448, "name": "Leubnitz", "state": "", "country": "DE", "coord": {"lon": 12.03333, "lat": 50.51667}}, {"id": 7602451, "name": "D\u00fcrrhennersdorf", "state": "", "country": "DE", "coord": {"lon": 14.61667, "lat": 51.049999}}, {"id": 7602457, "name": "Ponitz", "state": "", "country": "DE", "coord": {"lon": 12.43333, "lat": 50.849998}}, {"id": 7602458, "name": "Pogeez", "state": "", "country": "DE", "coord": {"lon": 10.73333, "lat": 53.75}}, {"id": 7602459, "name": "Hagenburg, Flecken", "state": "", "country": "DE", "coord": {"lon": 9.33333, "lat": 52.433331}}, {"id": 7602463, "name": "Reichenau", "state": "", "country": "DE", "coord": {"lon": 9.06355, "lat": 47.68885}}, {"id": 7602472, "name": "Muldenhammer", "state": "", "country": "DE", "coord": {"lon": 12.48333, "lat": 50.450001}}, {"id": 7602474, "name": "Sollstedt", "state": "", "country": "DE", "coord": {"lon": 10.53333, "lat": 51.416672}}, {"id": 7602475, "name": "Pfaffenhofen an der Ilm", "state": "", "country": "DE", "coord": {"lon": 11.502, "lat": 48.528431}}, {"id": 7602477, "name": "Gro\u00df Rheide", "state": "", "country": "DE", "coord": {"lon": 9.43333, "lat": 54.450001}}, {"id": 7602478, "name": "Wingst", "state": "", "country": "DE", "coord": {"lon": 9.08054, "lat": 53.735722}}, {"id": 7602480, "name": "Georgenberg", "state": "", "country": "DE", "coord": {"lon": 12.42082, "lat": 49.702969}}, {"id": 7602483, "name": "Spremberg", "state": "", "country": "DE", "coord": {"lon": 14.37355, "lat": 51.56971}}, {"id": 7602484, "name": "Wittend\u00f6rp", "state": "", "country": "DE", "coord": {"lon": 11.02461, "lat": 53.562851}}, {"id": 7602488, "name": "Barleben", "state": "", "country": "DE", "coord": {"lon": 11.6177, "lat": 52.201931}}, {"id": 7602492, "name": "Hesseneck", "state": "", "country": "DE", "coord": {"lon": 9.06286, "lat": 49.56987}}, {"id": 7602506, "name": "Alapi Village", "state": "", "country": "TV", "coord": {"lon": 179.196793, "lat": -8.52074}}, {"id": 7602508, "name": "Fakaifou Village", "state": "", "country": "TV", "coord": {"lon": 179.200943, "lat": -8.51758}}, {"id": 7602564, "name": "Dallgow-D\u00f6beritz", "state": "", "country": "DE", "coord": {"lon": 13.05837, "lat": 52.54269}}, {"id": 7602570, "name": "Brunow", "state": "", "country": "DE", "coord": {"lon": 11.8, "lat": 53.26667}}, {"id": 7602571, "name": "Galenbeck", "state": "", "country": "DE", "coord": {"lon": 13.0, "lat": 53.650002}}, {"id": 7602572, "name": "Grambow", "state": "", "country": "DE", "coord": {"lon": 14.3351, "lat": 53.414139}}, {"id": 7602573, "name": "Krackow", "state": "", "country": "DE", "coord": {"lon": 14.26667, "lat": 53.349998}}, {"id": 7602578, "name": "Bertsdorf-H\u00f6rnitz", "state": "", "country": "DE", "coord": {"lon": 14.73146, "lat": 50.88755}}, {"id": 7602581, "name": "Wei\u00dfkei\u00dfel", "state": "", "country": "DE", "coord": {"lon": 14.71667, "lat": 51.48333}}, {"id": 7602612, "name": "Hohe B\u00f6rde", "state": "", "country": "DE", "coord": {"lon": 11.44374, "lat": 52.139599}}, {"id": 7602630, "name": "B\u00f6rdeland", "state": "", "country": "DE", "coord": {"lon": 11.70626, "lat": 51.964588}}, {"id": 7602670, "name": "Zhu Cheng City", "state": "", "country": "CN", "coord": {"lon": 119.402588, "lat": 35.995022}}, {"id": 7602675, "name": "Lu\u010dina", "state": "", "country": "CZ", "coord": {"lon": 18.44776, "lat": 49.720821}}, {"id": 7602688, "name": "Al Bu\u0163n\u0101n", "state": "", "country": "LY", "coord": {"lon": 24.16667, "lat": 30.23333}}, {"id": 7602689, "name": "Jabal al Gharbi District", "state": "", "country": "LY", "coord": {"lon": 13.0, "lat": 30.46666}}, {"id": 7602691, "name": "Al Marqab", "state": "", "country": "LY", "coord": {"lon": 14.0, "lat": 32.5}}, {"id": 7602692, "name": "Al W\u0101\u1e29\u0101t", "state": "", "country": "LY", "coord": {"lon": 21.200001, "lat": 28.933331}}, {"id": 7602693, "name": "W\u0101d\u012b al \u1e28ay\u0101t", "state": "", "country": "LY", "coord": {"lon": 12.85, "lat": 26.549999}}, {"id": 7602866, "name": "Borkou Region", "state": "", "country": "TD", "coord": {"lon": 18.5, "lat": 18.25}}, {"id": 7602868, "name": "Concelho do Porto Novo", "state": "", "country": "CV", "coord": {"lon": -25.200001, "lat": 17.01667}}, {"id": 7602869, "name": "Concelho da Ribeira Brava", "state": "", "country": "CV", "coord": {"lon": -24.200001, "lat": 16.616671}}, {"id": 7602870, "name": "Concelho de Santa Catarina do Fogo", "state": "", "country": "CV", "coord": {"lon": -24.33333, "lat": 14.9}}, {"id": 7602871, "name": "Concelho de S\u00e3o Salvador do Mundo", "state": "", "country": "CV", "coord": {"lon": -23.633329, "lat": 15.08333}}, {"id": 7602872, "name": "Concelho do Tarrafal de S\u00e3o Nicolau", "state": "", "country": "CV", "coord": {"lon": -24.35, "lat": 16.6}}, {"id": 7603116, "name": "Trichy", "state": "", "country": "IN", "coord": {"lon": 78.698753, "lat": 10.80289}}, {"id": 7603191, "name": "Begato", "state": "", "country": "IT", "coord": {"lon": 8.90536, "lat": 44.448448}}, {"id": 7603199, "name": "San Teodoro", "state": "", "country": "IT", "coord": {"lon": 8.91, "lat": 44.414581}}, {"id": 7603202, "name": "Marassi", "state": "", "country": "IT", "coord": {"lon": 8.95444, "lat": 44.417271}}, {"id": 7603207, "name": "San Fruttuoso", "state": "", "country": "IT", "coord": {"lon": 8.96145, "lat": 44.407928}}, {"id": 7603218, "name": "Quezzi", "state": "", "country": "IT", "coord": {"lon": 8.973, "lat": 44.421921}}, {"id": 7603251, "name": "Hadjer-Lamis", "state": "", "country": "TD", "coord": {"lon": 16.167, "lat": 12.68}}, {"id": 7603252, "name": "Mandoul", "state": "", "country": "TD", "coord": {"lon": 17.91567, "lat": 8.32942}}, {"id": 7603253, "name": "Mayo-Kebbi West Region", "state": "", "country": "TD", "coord": {"lon": 14.75, "lat": 9.33}}, {"id": 7603254, "name": "Ville de N'Djam\u00e9na", "state": "", "country": "TD", "coord": {"lon": 15.06666, "lat": 12.11666}}, {"id": 7603255, "name": "Barh el Gazel", "state": "", "country": "TD", "coord": {"lon": 16.91667, "lat": 14.66667}}, {"id": 7603258, "name": "Tibesti Region", "state": "", "country": "TD", "coord": {"lon": 16.66667, "lat": 20.33333}}, {"id": 7603259, "name": "Mu\u1e29\u0101faz\u0327at al Uq\u015fur", "state": "", "country": "EG", "coord": {"lon": 32.650002, "lat": 25.700001}}, {"id": 7603268, "name": "Leigh's Corners", "state": "", "country": "CA", "coord": {"lon": -79.480522, "lat": 44.537071}}, {"id": 7603281, "name": "Concelho de Ribeira Grande de Santiago", "state": "", "country": "CV", "coord": {"lon": -23.65, "lat": 14.98333}}, {"id": 7603495, "name": "Hat Samran", "state": "", "country": "TH", "coord": {"lon": 99.57621, "lat": 7.24034}}, {"id": 7603928, "name": "Kampung Agung Agung", "state": "", "country": "MY", "coord": {"lon": 116.834801, "lat": 6.9342}}, {"id": 7604580, "name": "Sosnovka", "state": "", "country": "RU", "coord": {"lon": 46.2523, "lat": 56.2043}}, {"id": 7604581, "name": "Midyashkino", "state": "", "country": "RU", "coord": {"lon": 46.276699, "lat": 56.2141}}, {"id": 7604588, "name": "Murzanayevo", "state": "", "country": "RU", "coord": {"lon": 46.5341, "lat": 56.201599}}, {"id": 7604627, "name": "Todymvazh", "state": "", "country": "RU", "coord": {"lon": 46.409599, "lat": 56.2402}}, {"id": 7604745, "name": "Ozerki", "state": "", "country": "RU", "coord": {"lon": 46.784, "lat": 56.4095}}, {"id": 7604746, "name": "Paulkino", "state": "", "country": "RU", "coord": {"lon": 46.787102, "lat": 56.416698}}, {"id": 7604747, "name": "Mazikino", "state": "", "country": "RU", "coord": {"lon": 46.739601, "lat": 56.405399}}, {"id": 7604753, "name": "Zavolzhskiy", "state": "", "country": "RU", "coord": {"lon": 46.515999, "lat": 56.389}}, {"id": 7604924, "name": "Verkhniye Shelabolki", "state": "", "country": "RU", "coord": {"lon": 46.5695, "lat": 56.269901}}, {"id": 7605614, "name": "Muhato", "state": "", "country": "RW", "coord": {"lon": 29.247181, "lat": -1.66557}}, {"id": 7605645, "name": "Bonde", "state": "", "country": "RW", "coord": {"lon": 29.2593, "lat": -1.6824}}, {"id": 7608797, "name": "Camino", "state": "", "country": "PH", "coord": {"lon": 120.601532, "lat": 15.34526}}, {"id": 7609102, "name": "Belajen", "state": "", "country": "ID", "coord": {"lon": 119.823601, "lat": -3.3235}}, {"id": 7609316, "name": "Karara", "state": "", "country": "ID", "coord": {"lon": 120.241798, "lat": -9.6493}}, {"id": 7609320, "name": "Umburarameha", "state": "", "country": "ID", "coord": {"lon": 120.2453, "lat": -9.6638}}, {"id": 7609558, "name": "Carohatan", "state": "", "country": "PH", "coord": {"lon": 120.850304, "lat": 15.6059}}, {"id": 7609695, "name": "Sint Maarten", "state": "", "country": "SX", "coord": {"lon": -63.066669, "lat": 18.04167}}, {"id": 7609816, "name": "Bonaire", "state": "", "country": "BQ", "coord": {"lon": -68.25, "lat": 12.2}}, {"id": 7610154, "name": "Apuhambati", "state": "", "country": "ID", "coord": {"lon": 120.222298, "lat": -9.7228}}, {"id": 7610285, "name": "Meurumba", "state": "", "country": "ID", "coord": {"lon": 120.390999, "lat": -9.9378}}, {"id": 7610305, "name": "Lajarik", "state": "", "country": "ID", "coord": {"lon": 120.408302, "lat": -9.9755}}, {"id": 7610337, "name": "Lairoka", "state": "", "country": "ID", "coord": {"lon": 120.487099, "lat": -9.9104}}, {"id": 7610358, "name": "Saba", "state": "", "country": "BQ", "coord": {"lon": -63.23333, "lat": 17.633329}}, {"id": 7610359, "name": "Sint Eustatius", "state": "", "country": "BQ", "coord": {"lon": -62.966671, "lat": 17.5}}, {"id": 7610379, "name": "Kawangu Satu", "state": "", "country": "ID", "coord": {"lon": 120.328102, "lat": -9.6779}}, {"id": 7610425, "name": "Tanabara", "state": "", "country": "ID", "coord": {"lon": 120.291603, "lat": -9.6907}}, {"id": 7610447, "name": "Tanahwurung", "state": "", "country": "ID", "coord": {"lon": 120.276299, "lat": -9.6938}}, {"id": 7610467, "name": "Mangga Dua", "state": "", "country": "ID", "coord": {"lon": 120.292603, "lat": -9.6625}}, {"id": 7610554, "name": "Kamalaputi", "state": "", "country": "ID", "coord": {"lon": 120.263397, "lat": -9.6484}}, {"id": 7610598, "name": "Gurusina", "state": "", "country": "ID", "coord": {"lon": 120.990601, "lat": -8.8963}}, {"id": 7610601, "name": "Pomasule", "state": "", "country": "ID", "coord": {"lon": 120.905296, "lat": -8.9091}}, {"id": 7610616, "name": "Malapedo B", "state": "", "country": "ID", "coord": {"lon": 120.913696, "lat": -8.918}}, {"id": 7610623, "name": "Ruto", "state": "", "country": "ID", "coord": {"lon": 120.9254, "lat": -8.9254}}, {"id": 7610642, "name": "Waebela", "state": "", "country": "ID", "coord": {"lon": 120.973099, "lat": -8.9426}}, {"id": 7610693, "name": "Malapaubhara", "state": "", "country": "ID", "coord": {"lon": 121.124397, "lat": -8.6467}}, {"id": 7610721, "name": "Waepana", "state": "", "country": "ID", "coord": {"lon": 121.037697, "lat": -8.6926}}, {"id": 7610722, "name": "Soa", "state": "", "country": "ID", "coord": {"lon": 121.036102, "lat": -8.6981}}, {"id": 7610746, "name": "Piga", "state": "", "country": "ID", "coord": {"lon": 121.047096, "lat": -8.714}}, {"id": 7610750, "name": "Loa", "state": "", "country": "ID", "coord": {"lon": 121.046402, "lat": -8.7212}}, {"id": 7610753, "name": "Anafolo", "state": "", "country": "ID", "coord": {"lon": 121.043503, "lat": -8.7207}}, {"id": 7610757, "name": "Masu", "state": "", "country": "ID", "coord": {"lon": 121.039703, "lat": -8.7116}}, {"id": 7610814, "name": "Malawona", "state": "", "country": "ID", "coord": {"lon": 121.230904, "lat": -8.6136}}, {"id": 7610844, "name": "Baobe", "state": "", "country": "ID", "coord": {"lon": 121.233704, "lat": -8.5819}}, {"id": 7610855, "name": "Malabai", "state": "", "country": "ID", "coord": {"lon": 121.151398, "lat": -8.5605}}, {"id": 7611471, "name": "Nila Dua", "state": "", "country": "ID", "coord": {"lon": 121.279297, "lat": -8.5106}}, {"id": 7611486, "name": "Wewoloe", "state": "", "country": "ID", "coord": {"lon": 121.260002, "lat": -8.5316}}, {"id": 7612483, "name": "Kampung Pasir Penjih", "state": "", "country": "MY", "coord": {"lon": 101.088799, "lat": 4.5704}}, {"id": 7612636, "name": "Congkar", "state": "", "country": "ID", "coord": {"lon": 120.408997, "lat": -8.2798}}, {"id": 7612637, "name": "Lanos", "state": "", "country": "ID", "coord": {"lon": 120.408699, "lat": -8.2824}}, {"id": 7612649, "name": "Wangkung", "state": "", "country": "ID", "coord": {"lon": 120.448502, "lat": -8.2874}}, {"id": 7612650, "name": "Sengari", "state": "", "country": "ID", "coord": {"lon": 120.455902, "lat": -8.2891}}, {"id": 7612656, "name": "Senggapi", "state": "", "country": "ID", "coord": {"lon": 120.462303, "lat": -8.298}}, {"id": 7612667, "name": "Baru", "state": "", "country": "ID", "coord": {"lon": 120.491096, "lat": -8.3072}}, {"id": 7612669, "name": "Baru Timur", "state": "", "country": "ID", "coord": {"lon": 120.491203, "lat": -8.3083}}, {"id": 7612681, "name": "Tanahputih", "state": "", "country": "ID", "coord": {"lon": 120.483002, "lat": -8.3096}}, {"id": 7612690, "name": "Pering", "state": "", "country": "ID", "coord": {"lon": 120.395699, "lat": -8.323}}, {"id": 7612735, "name": "Ruis", "state": "", "country": "ID", "coord": {"lon": 120.433296, "lat": -8.3651}}, {"id": 7612825, "name": "Punsu", "state": "", "country": "ID", "coord": {"lon": 121.025902, "lat": -8.4191}}, {"id": 7612830, "name": "Golokutu", "state": "", "country": "ID", "coord": {"lon": 121.026398, "lat": -8.4271}}, {"id": 7612869, "name": "Marolidhong", "state": "", "country": "ID", "coord": {"lon": 121.030602, "lat": -8.4791}}, {"id": 7613710, "name": "Nduaria", "state": "", "country": "ID", "coord": {"lon": 121.8283, "lat": -8.7121}}, {"id": 7613719, "name": "Detusoko", "state": "", "country": "ID", "coord": {"lon": 121.760902, "lat": -8.7166}}, {"id": 7613741, "name": "Koanara", "state": "", "country": "ID", "coord": {"lon": 121.852097, "lat": -8.7485}}, {"id": 7614348, "name": "Kemajuan Tanah Batu Enam Puluh Tujuh", "state": "", "country": "MY", "coord": {"lon": 103.235001, "lat": 2.0277}}, {"id": 7614649, "name": "Nggelok", "state": "", "country": "ID", "coord": {"lon": 120.761597, "lat": -8.6489}}, {"id": 7614694, "name": "Lete", "state": "", "country": "ID", "coord": {"lon": 120.770599, "lat": -8.7409}}, {"id": 7614700, "name": "Bairro Jardim Nossa Senhora Aparecida", "state": "", "country": "BR", "coord": {"lon": -46.737099, "lat": -23.25951}}, {"id": 7615572, "name": "Bairro Coreir\u00f3polis", "state": "", "country": "BR", "coord": {"lon": -48.838268, "lat": -24.52397}}, {"id": 7616862, "name": "Nibaliw East", "state": "", "country": "PH", "coord": {"lon": 120.477303, "lat": 15.8122}}, {"id": 7619145, "name": "\u015eehitkamil", "state": "", "country": "TR", "coord": {"lon": 37.356731, "lat": 37.084599}}, {"id": 7619146, "name": "\u015eahinbey", "state": "", "country": "TR", "coord": {"lon": 37.343712, "lat": 37.048359}}, {"id": 7619472, "name": "Loteamento Jardim Ana Maria", "state": "", "country": "BR", "coord": {"lon": -48.118839, "lat": -24.73679}}, {"id": 7619684, "name": "Kampung Kubur", "state": "", "country": "MY", "coord": {"lon": 103.752602, "lat": 1.4651}}, {"id": 7619763, "name": "Kampung Paya Kenangan", "state": "", "country": "MY", "coord": {"lon": 103.751297, "lat": 1.5415}}, {"id": 7621141, "name": "Lurad", "state": "", "country": "PH", "coord": {"lon": 121.192337, "lat": 16.52158}}, {"id": 7621325, "name": "Ban Tha Po", "state": "", "country": "TH", "coord": {"lon": 99.300468, "lat": 13.98872}}, {"id": 7622194, "name": "Perkampungan Kertih Lima", "state": "", "country": "MY", "coord": {"lon": 103.321899, "lat": 4.5777}}, {"id": 7622992, "name": "Mangdang", "state": "", "country": "CN", "coord": {"lon": 118.156227, "lat": 26.68778}}, {"id": 7624782, "name": "\u00c7evrik", "state": "", "country": "TR", "coord": {"lon": 35.92205, "lat": 36.122211}}, {"id": 7625467, "name": "T\u016bs\u0101s\u0101n", "state": "", "country": "IR", "coord": {"lon": 50.661572, "lat": 36.919189}}, {"id": 7626135, "name": "R\u00f8mskog", "state": "", "country": "NO", "coord": {"lon": 11.8112, "lat": 59.749699}}, {"id": 7626136, "name": "Meieribyen", "state": "", "country": "NO", "coord": {"lon": 11.16083, "lat": 59.474529}}, {"id": 7626137, "name": "Kirkebygda", "state": "", "country": "NO", "coord": {"lon": 10.87423, "lat": 59.49099}}, {"id": 7626138, "name": "Elvestad", "state": "", "country": "NO", "coord": {"lon": 10.9508, "lat": 59.624008}}, {"id": 7626220, "name": "Universit\u00e9 de Technologie de Compi\u00e8gne", "state": "", "country": "FR", "coord": {"lon": 2.81683, "lat": 49.414799}}, {"id": 7626251, "name": "Forsand", "state": "", "country": "NO", "coord": {"lon": 6.1048, "lat": 58.903301}}, {"id": 7626289, "name": "ByWard Market", "state": "", "country": "CA", "coord": {"lon": -75.692337, "lat": 45.427101}}, {"id": 7626291, "name": "La Rinconada", "state": "", "country": "PE", "coord": {"lon": -69.446381, "lat": -14.63126}}, {"id": 7626323, "name": "Fjerdingby", "state": "", "country": "NO", "coord": {"lon": 11.06527, "lat": 59.926262}}, {"id": 7626324, "name": "Kirkebygda", "state": "", "country": "NO", "coord": {"lon": 11.14492, "lat": 59.764519}}, {"id": 7626325, "name": "Kjenn", "state": "", "country": "NO", "coord": {"lon": 10.95373, "lat": 59.930981}}, {"id": 7626326, "name": "Teigebyen", "state": "", "country": "NO", "coord": {"lon": 11.01867, "lat": 60.22155}},