[{"id": 8060322, "name": "Kuniran", "state": "", "country": "ID", "coord": {"lon": 111.231903, "lat": -6.7437}}, {"id": 8060323, "name": "Trolu", "state": "", "country": "ID", "coord": {"lon": 111.214897, "lat": -6.7415}}, {"id": 8060324, "name": "Legok", "state": "", "country": "ID", "coord": {"lon": 111.193298, "lat": -6.7457}}, {"id": 8060327, "name": "Tlogomojo", "state": "", "country": "ID", "coord": {"lon": 111.1726, "lat": -6.7425}}, {"id": 8060328, "name": "Beringin", "state": "", "country": "ID", "coord": {"lon": 111.154503, "lat": -6.7437}}, {"id": 8060329, "name": "Sejomulyo", "state": "", "country": "ID", "coord": {"lon": 111.143204, "lat": -6.7429}}, {"id": 8060330, "name": "Druju", "state": "", "country": "ID", "coord": {"lon": 111.129997, "lat": -6.7457}}, {"id": 8060574, "name": "Delok", "state": "", "country": "ID", "coord": {"lon": 111.242867, "lat": -6.70643}}, {"id": 8060698, "name": "Ngelak", "state": "", "country": "ID", "coord": {"lon": 111.2677, "lat": -6.6923}}, {"id": 8060701, "name": "Dresen", "state": "", "country": "ID", "coord": {"lon": 111.283699, "lat": -6.6953}}, {"id": 8060704, "name": "Karangturi", "state": "", "country": "ID", "coord": {"lon": 111.307503, "lat": -6.698}}, {"id": 8060705, "name": "Banyudono", "state": "", "country": "ID", "coord": {"lon": 111.309402, "lat": -6.6999}}, {"id": 8060707, "name": "Tireman Timur", "state": "", "country": "ID", "coord": {"lon": 111.371696, "lat": -6.7058}}, {"id": 8060710, "name": "Kabongan Lor", "state": "", "country": "ID", "coord": {"lon": 111.357002, "lat": -6.7052}}, {"id": 8060712, "name": "Kasingan", "state": "", "country": "ID", "coord": {"lon": 111.351997, "lat": -6.707}}, {"id": 8060713, "name": "Rembang", "state": "", "country": "ID", "coord": {"lon": 111.3498, "lat": -6.707}}, {"id": 8060714, "name": "Pandean", "state": "", "country": "ID", "coord": {"lon": 111.348, "lat": -6.7044}}, {"id": 8060715, "name": "Kutoharjo", "state": "", "country": "ID", "coord": {"lon": 111.345001, "lat": -6.7056}}, {"id": 8060722, "name": "Pabean", "state": "", "country": "ID", "coord": {"lon": 111.334, "lat": -6.7025}}, {"id": 8060724, "name": "Karanggeneng", "state": "", "country": "ID", "coord": {"lon": 111.329597, "lat": -6.7023}}, {"id": 8060728, "name": "Magersari", "state": "", "country": "ID", "coord": {"lon": 111.325203, "lat": -6.7025}}, {"id": 8060738, "name": "Mojo", "state": "", "country": "ID", "coord": {"lon": 111.256401, "lat": -6.7109}}, {"id": 8060741, "name": "Dresi Wetan", "state": "", "country": "ID", "coord": {"lon": 111.276497, "lat": -6.7128}}, {"id": 8060743, "name": "Karangsekar", "state": "", "country": "ID", "coord": {"lon": 111.295799, "lat": -6.7112}}, {"id": 8060751, "name": "Sawahan", "state": "", "country": "ID", "coord": {"lon": 111.339203, "lat": -6.7086}}, {"id": 8060752, "name": "Sumberejo", "state": "", "country": "ID", "coord": {"lon": 111.339897, "lat": -6.7116}}, {"id": 8060754, "name": "Sidowayah Lor", "state": "", "country": "ID", "coord": {"lon": 111.349297, "lat": -6.7108}}, {"id": 8060755, "name": "Kedungdoro", "state": "", "country": "ID", "coord": {"lon": 111.3461, "lat": -6.7174}}, {"id": 8060756, "name": "Kabongan Kidul", "state": "", "country": "ID", "coord": {"lon": 111.358002, "lat": -6.7081}}, {"id": 8060762, "name": "Sidowayah Kidul", "state": "", "country": "ID", "coord": {"lon": 111.347, "lat": -6.7202}}, {"id": 8060769, "name": "Waru Selatan", "state": "", "country": "ID", "coord": {"lon": 111.324799, "lat": -6.718}}, {"id": 8060771, "name": "Babadan", "state": "", "country": "ID", "coord": {"lon": 111.2948, "lat": -6.7219}}, {"id": 8060775, "name": "Sambiyan", "state": "", "country": "ID", "coord": {"lon": 111.269798, "lat": -6.7315}}, {"id": 8060778, "name": "Pengkol", "state": "", "country": "ID", "coord": {"lon": 111.292198, "lat": -6.734}}, {"id": 8060781, "name": "Bangker", "state": "", "country": "ID", "coord": {"lon": 111.328903, "lat": -6.7321}}, {"id": 8060782, "name": "Pulo", "state": "", "country": "ID", "coord": {"lon": 111.3311, "lat": -6.7268}}, {"id": 8060784, "name": "Ketanggi", "state": "", "country": "ID", "coord": {"lon": 111.3395, "lat": -6.7317}}, {"id": 8060787, "name": "Ngotet Kidul", "state": "", "country": "ID", "coord": {"lon": 111.3582, "lat": -6.7309}}, {"id": 8060790, "name": "Weton", "state": "", "country": "ID", "coord": {"lon": 111.369797, "lat": -6.7331}}, {"id": 8060793, "name": "Nrondo", "state": "", "country": "ID", "coord": {"lon": 111.367699, "lat": -6.74}}, {"id": 8060795, "name": "Mondoteko", "state": "", "country": "ID", "coord": {"lon": 111.3451, "lat": -6.7359}}, {"id": 8060798, "name": "Ngadem", "state": "", "country": "ID", "coord": {"lon": 111.337601, "lat": -6.7382}}, {"id": 8060805, "name": "Gingsir", "state": "", "country": "ID", "coord": {"lon": 111.268402, "lat": -6.7417}}, {"id": 8060808, "name": "Banggi", "state": "", "country": "ID", "coord": {"lon": 111.290802, "lat": -6.7468}}, {"id": 8060811, "name": "Kuangsan", "state": "", "country": "ID", "coord": {"lon": 111.299301, "lat": -6.7459}}, {"id": 8060816, "name": "Kebon", "state": "", "country": "ID", "coord": {"lon": 111.351303, "lat": -6.7499}}, {"id": 8060819, "name": "Lojigawaran", "state": "", "country": "ID", "coord": {"lon": 111.358704, "lat": -6.7422}}, {"id": 8060955, "name": "Wiroto", "state": "", "country": "ID", "coord": {"lon": 111.255402, "lat": -6.7576}}, {"id": 8060960, "name": "Tlogotunggal", "state": "", "country": "ID", "coord": {"lon": 111.297096, "lat": -6.757}}, {"id": 8060963, "name": "Pentil", "state": "", "country": "ID", "coord": {"lon": 111.3078, "lat": -6.7501}}, {"id": 8060966, "name": "Trambalan", "state": "", "country": "ID", "coord": {"lon": 111.324501, "lat": -6.7597}}, {"id": 8060968, "name": "Pragu", "state": "", "country": "ID", "coord": {"lon": 111.336098, "lat": -6.7525}}, {"id": 8060971, "name": "Kebonagung", "state": "", "country": "ID", "coord": {"lon": 111.344704, "lat": -6.7523}}, {"id": 8060978, "name": "Majasem", "state": "", "country": "ID", "coord": {"lon": 111.255898, "lat": -6.7624}}, {"id": 8060980, "name": "Mojogajeh", "state": "", "country": "ID", "coord": {"lon": 111.277, "lat": -6.7637}}, {"id": 8060985, "name": "Legok", "state": "", "country": "ID", "coord": {"lon": 111.3134, "lat": -6.7611}}, {"id": 8060990, "name": "Seren Barat", "state": "", "country": "ID", "coord": {"lon": 111.331299, "lat": -6.7591}}, {"id": 8060993, "name": "Pranti", "state": "", "country": "ID", "coord": {"lon": 111.355003, "lat": -6.7611}}, {"id": 8060995, "name": "Bogorame", "state": "", "country": "ID", "coord": {"lon": 111.356796, "lat": -6.766}}, {"id": 8060996, "name": "Krajan Landoh", "state": "", "country": "ID", "coord": {"lon": 111.370903, "lat": -6.7635}}, {"id": 8060998, "name": "Megulung", "state": "", "country": "ID", "coord": {"lon": 111.266098, "lat": -6.7722}}, {"id": 8061001, "name": "Bulak", "state": "", "country": "ID", "coord": {"lon": 111.299797, "lat": -6.7744}}, {"id": 8061008, "name": "Sekararum", "state": "", "country": "ID", "coord": {"lon": 111.257301, "lat": -6.7769}}, {"id": 8061009, "name": "Jadi", "state": "", "country": "ID", "coord": {"lon": 111.271698, "lat": -6.7772}}, {"id": 8061019, "name": "Sudo", "state": "", "country": "ID", "coord": {"lon": 111.324303, "lat": -6.7881}}, {"id": 8061022, "name": "Kaliombo Wetan", "state": "", "country": "ID", "coord": {"lon": 111.362099, "lat": -6.7868}}, {"id": 8061032, "name": "Banyuurip", "state": "", "country": "ID", "coord": {"lon": 111.268501, "lat": -6.8042}}, {"id": 8061038, "name": "Tanjung Utara", "state": "", "country": "ID", "coord": {"lon": 111.370399, "lat": -6.817}}, {"id": 8061040, "name": "Kedungtulup", "state": "", "country": "ID", "coord": {"lon": 111.271004, "lat": -6.8235}}, {"id": 8061043, "name": "Krikilan", "state": "", "country": "ID", "coord": {"lon": 111.274803, "lat": -6.8289}}, {"id": 8061045, "name": "Logung", "state": "", "country": "ID", "coord": {"lon": 111.287697, "lat": -6.8303}}, {"id": 8061046, "name": "Pelemsari", "state": "", "country": "ID", "coord": {"lon": 111.311798, "lat": -6.8317}}, {"id": 8061047, "name": "Lambangan Kulon", "state": "", "country": "ID", "coord": {"lon": 111.358498, "lat": -6.8352}}, {"id": 8061048, "name": "Lambangan Wetan", "state": "", "country": "ID", "coord": {"lon": 111.3666, "lat": -6.8288}}, {"id": 8061050, "name": "Ronggo", "state": "", "country": "ID", "coord": {"lon": 111.256401, "lat": -6.8414}}, {"id": 8061051, "name": "Pandansili", "state": "", "country": "ID", "coord": {"lon": 111.2911, "lat": -6.8369}}, {"id": 8061057, "name": "Pondokrejo Wetan", "state": "", "country": "ID", "coord": {"lon": 111.324303, "lat": -6.8365}}, {"id": 8061058, "name": "Ngrojo", "state": "", "country": "ID", "coord": {"lon": 111.352501, "lat": -6.8348}}, {"id": 8061060, "name": "Cabean", "state": "", "country": "ID", "coord": {"lon": 111.356003, "lat": -6.842}}, {"id": 8061062, "name": "Ngaglik", "state": "", "country": "ID", "coord": {"lon": 111.367104, "lat": -6.84}}, {"id": 8061068, "name": "Goge", "state": "", "country": "ID", "coord": {"lon": 111.271896, "lat": -6.8451}}, {"id": 8061072, "name": "Mlatirejo", "state": "", "country": "ID", "coord": {"lon": 111.304604, "lat": -6.846}}, {"id": 8061074, "name": "Pinggan", "state": "", "country": "ID", "coord": {"lon": 111.344498, "lat": -6.8488}}, {"id": 8061081, "name": "Krajan Tengah Sendangmulyo", "state": "", "country": "ID", "coord": {"lon": 111.322304, "lat": -6.8531}}, {"id": 8061084, "name": "Karangasem", "state": "", "country": "ID", "coord": {"lon": 111.3638, "lat": -6.8512}}, {"id": 8061086, "name": "Kalinanas", "state": "", "country": "ID", "coord": {"lon": 111.260803, "lat": -6.8629}}, {"id": 8061674, "name": "Pos\u00eblok NTGRES", "state": "", "country": "RU", "coord": {"lon": 59.881401, "lat": 58.614899}}, {"id": 8062231, "name": "Ashi", "state": "", "country": "KZ", "coord": {"lon": 69.921982, "lat": 42.205929}}, {"id": 8062598, "name": "Oyama", "state": "", "country": "CA", "coord": {"lon": -119.372292, "lat": 50.113312}}, {"id": 8062858, "name": "Limit", "state": "", "country": "JM", "coord": {"lon": -77.471207, "lat": 18.15287}}, {"id": 8062941, "name": "Hemlockl Heights", "state": "OH", "country": "US", "coord": {"lon": -81.207764, "lat": 41.732189}}, {"id": 8062980, "name": "Lakeshore", "state": "OH", "country": "US", "coord": {"lon": -81.406631, "lat": 41.695412}}, {"id": 8062981, "name": "Woodbridge", "state": "OH", "country": "US", "coord": {"lon": -81.396423, "lat": 41.692009}}, {"id": 8063054, "name": "White Hill", "state": "OH", "country": "US", "coord": {"lon": -81.4813, "lat": 41.57674}}, {"id": 8063076, "name": "Kuruc-domb", "state": "", "country": "HU", "coord": {"lon": 16.602619, "lat": 47.678249}}, {"id": 8063096, "name": "Earlsfield", "state": "", "country": "GB", "coord": {"lon": -0.1854, "lat": 51.443901}}, {"id": 8063144, "name": "Barri de Sanfeliu", "state": "", "country": "ES", "coord": {"lon": 2.09049, "lat": 41.36517}}, {"id": 8063149, "name": "Barri de Santa Eul\u00e0lia", "state": "", "country": "ES", "coord": {"lon": 2.12603, "lat": 41.364632}}, {"id": 8063413, "name": "Arcadia", "state": "", "country": "ZA", "coord": {"lon": 28.221371, "lat": -25.746401}}, {"id": 8063445, "name": "Glenmarais", "state": "", "country": "ZA", "coord": {"lon": 28.270309, "lat": -26.057859}}, {"id": 8063447, "name": "Glen Ashley", "state": "", "country": "ZA", "coord": {"lon": 31.053711, "lat": -29.75946}}, {"id": 8063455, "name": "Malanshof", "state": "", "country": "ZA", "coord": {"lon": 27.976, "lat": -26.0951}}, {"id": 8063460, "name": "Radiokop", "state": "", "country": "ZA", "coord": {"lon": 27.91643, "lat": -26.108589}}, {"id": 8063577, "name": "Greysteel", "state": "", "country": "GB", "coord": {"lon": -7.12018, "lat": 55.03017}}, {"id": 8063665, "name": "Branksome", "state": "", "country": "GB", "coord": {"lon": -1.92344, "lat": 50.732101}}, {"id": 8063768, "name": "Melrose Estate", "state": "", "country": "ZA", "coord": {"lon": 28.052601, "lat": -26.147079}}, {"id": 8063770, "name": "Pueblo de Busot", "state": "", "country": "ES", "coord": {"lon": -0.41748, "lat": 38.483799}}, {"id": 8063849, "name": "Hunzenschwil", "state": "", "country": "CH", "coord": {"lon": 8.12293, "lat": 47.384171}}, {"id": 8064028, "name": "Mramornoe", "state": "", "country": "KG", "coord": {"lon": 74.49736, "lat": 43.0494}}, {"id": 8064044, "name": "Ala-Archa Al\u2019plegri", "state": "", "country": "KG", "coord": {"lon": 74.482483, "lat": 42.562351}}, {"id": 8064082, "name": "Madura", "state": "", "country": "ID", "coord": {"lon": 108.378899, "lat": -7.1478}}, {"id": 8064111, "name": "Emblegan", "state": "", "country": "ID", "coord": {"lon": 108.421204, "lat": -7.1325}}, {"id": 8064112, "name": "Kaom", "state": "", "country": "ID", "coord": {"lon": 108.416397, "lat": -7.1297}}, {"id": 8064117, "name": "Cibeuruy", "state": "", "country": "ID", "coord": {"lon": 108.431503, "lat": -7.1485}}, {"id": 8064126, "name": "Mekarjaya", "state": "", "country": "ID", "coord": {"lon": 108.450203, "lat": -7.1597}}, {"id": 8064140, "name": "Citapenpasir", "state": "", "country": "ID", "coord": {"lon": 108.480301, "lat": -7.1381}}, {"id": 8064142, "name": "Sukaharja", "state": "", "country": "ID", "coord": {"lon": 108.476799, "lat": -7.1522}}, {"id": 8064170, "name": "Tanjungjaya", "state": "", "country": "ID", "coord": {"lon": 108.4524, "lat": -7.177}}, {"id": 8064183, "name": "Cibingbin", "state": "", "country": "ID", "coord": {"lon": 108.434898, "lat": -7.1825}}, {"id": 8064190, "name": "Pabuaran", "state": "", "country": "ID", "coord": {"lon": 108.436699, "lat": -7.1674}}, {"id": 8064200, "name": "Cigoong", "state": "", "country": "ID", "coord": {"lon": 108.431702, "lat": -7.1824}}, {"id": 8064207, "name": "Bayasari Kulon", "state": "", "country": "ID", "coord": {"lon": 108.4226, "lat": -7.1758}}, {"id": 8064210, "name": "Jatinagara Kulon", "state": "", "country": "ID", "coord": {"lon": 108.418999, "lat": -7.1719}}, {"id": 8064225, "name": "Pasiramis", "state": "", "country": "ID", "coord": {"lon": 108.398697, "lat": -7.1658}}, {"id": 8064259, "name": "Kedawung", "state": "", "country": "ID", "coord": {"lon": 108.376801, "lat": -7.2304}}, {"id": 8064284, "name": "Pangrumasan", "state": "", "country": "ID", "coord": {"lon": 108.4077, "lat": -7.2046}}, {"id": 8064298, "name": "Cileueur", "state": "", "country": "ID", "coord": {"lon": 108.427399, "lat": -7.21}}, {"id": 8064327, "name": "Kiarapayung", "state": "", "country": "ID", "coord": {"lon": 108.465599, "lat": -7.2127}}, {"id": 8064339, "name": "Karangpari", "state": "", "country": "ID", "coord": {"lon": 108.4786, "lat": -7.2419}}, {"id": 8064347, "name": "Cileungsir", "state": "", "country": "ID", "coord": {"lon": 108.489502, "lat": -7.2051}}, {"id": 8067221, "name": "Sidomulyo", "state": "", "country": "ID", "coord": {"lon": 108.625702, "lat": -7.6554}}, {"id": 8067233, "name": "Cibuluh Satu", "state": "", "country": "ID", "coord": {"lon": 108.741402, "lat": -7.64}}, {"id": 8067272, "name": "Sukamanah", "state": "", "country": "ID", "coord": {"lon": 108.651398, "lat": -7.659}}, {"id": 8067277, "name": "Bengkekan", "state": "", "country": "ID", "coord": {"lon": 108.666199, "lat": -7.6628}}, {"id": 8067294, "name": "Emplak", "state": "", "country": "ID", "coord": {"lon": 108.730202, "lat": -7.6608}}, {"id": 8067303, "name": "Karangsari", "state": "", "country": "ID", "coord": {"lon": 108.702499, "lat": -7.6701}}, {"id": 8067315, "name": "Wonoharjo", "state": "", "country": "ID", "coord": {"lon": 108.632401, "lat": -7.6764}}, {"id": 8067322, "name": "Kamurang", "state": "", "country": "ID", "coord": {"lon": 108.6763, "lat": -7.6761}}, {"id": 8067333, "name": "Parapat", "state": "", "country": "ID", "coord": {"lon": 108.657204, "lat": -7.6892}}, {"id": 8067334, "name": "Pananjung", "state": "", "country": "ID", "coord": {"lon": 108.650299, "lat": -7.6826}}, {"id": 8067345, "name": "Naidong", "state": "", "country": "CN", "coord": {"lon": 91.76667, "lat": 29.26667}}, {"id": 8067409, "name": "Godong", "state": "", "country": "ID", "coord": {"lon": 108.540901, "lat": -7.0044}}, {"id": 8067412, "name": "Sukaimut", "state": "", "country": "ID", "coord": {"lon": 108.545799, "lat": -7.0051}}, {"id": 8067414, "name": "Cikananga", "state": "", "country": "ID", "coord": {"lon": 108.550102, "lat": -7.0068}}, {"id": 8067417, "name": "Tambakbaya", "state": "", "country": "ID", "coord": {"lon": 108.5578, "lat": -7.0054}}, {"id": 8067420, "name": "Modis", "state": "", "country": "ID", "coord": {"lon": 108.564796, "lat": -7.0066}}, {"id": 8067421, "name": "Karanganyar", "state": "", "country": "ID", "coord": {"lon": 108.614799, "lat": -7.1037}}, {"id": 8067424, "name": "Sindang", "state": "", "country": "ID", "coord": {"lon": 108.581902, "lat": -7.0006}}, {"id": 8067425, "name": "Rahayu", "state": "", "country": "ID", "coord": {"lon": 108.618301, "lat": -7.0167}}, {"id": 8067448, "name": "Dukuh Kaler", "state": "", "country": "ID", "coord": {"lon": 108.577797, "lat": -7.0268}}, {"id": 8067449, "name": "Langseb", "state": "", "country": "ID", "coord": {"lon": 108.579697, "lat": -7.0188}}, {"id": 8067451, "name": "Cineumbeuy", "state": "", "country": "ID", "coord": {"lon": 108.591797, "lat": -7.024}}, {"id": 8067453, "name": "Cipetir", "state": "", "country": "ID", "coord": {"lon": 108.604797, "lat": -7.0248}}, {"id": 8067455, "name": "Margasari", "state": "", "country": "ID", "coord": {"lon": 108.623703, "lat": -7.0189}}, {"id": 8067462, "name": "Cinagara", "state": "", "country": "ID", "coord": {"lon": 108.586998, "lat": -7.0249}}, {"id": 8067463, "name": "Buniaga", "state": "", "country": "ID", "coord": {"lon": 108.580902, "lat": -7.032}}, {"id": 8067464, "name": "Manis Karangtengah", "state": "", "country": "ID", "coord": {"lon": 108.5737, "lat": -7.0299}}, {"id": 8067467, "name": "Cibuah", "state": "", "country": "ID", "coord": {"lon": 108.5662, "lat": -7.0268}}, {"id": 8067469, "name": "Parakan", "state": "", "country": "ID", "coord": {"lon": 108.556602, "lat": -7.0314}}, {"id": 8067470, "name": "Kutamandarakan", "state": "", "country": "ID", "coord": {"lon": 108.557701, "lat": -7.0277}}, {"id": 8067474, "name": "Gewok", "state": "", "country": "ID", "coord": {"lon": 108.5242, "lat": -7.03}}, {"id": 8067475, "name": "Kutamangu", "state": "", "country": "ID", "coord": {"lon": 108.505096, "lat": -7.1203}}, {"id": 8067481, "name": "Cikahuripan", "state": "", "country": "ID", "coord": {"lon": 108.548401, "lat": -7.0354}}, {"id": 8067485, "name": "Kedatuan", "state": "", "country": "ID", "coord": {"lon": 108.587898, "lat": -7.041}}, {"id": 8067486, "name": "Walahar", "state": "", "country": "ID", "coord": {"lon": 108.609299, "lat": -7.0391}}, {"id": 8067490, "name": "Garahaji", "state": "", "country": "ID", "coord": {"lon": 108.611198, "lat": -7.0497}}, {"id": 8067496, "name": "Ciakar", "state": "", "country": "ID", "coord": {"lon": 108.565102, "lat": -7.0431}}, {"id": 8067499, "name": "Pamupukan", "state": "", "country": "ID", "coord": {"lon": 108.530296, "lat": -7.0469}}, {"id": 8067523, "name": "Cipakem", "state": "", "country": "ID", "coord": {"lon": 108.577904, "lat": -7.0755}}, {"id": 8067536, "name": "Gunungmanik", "state": "", "country": "ID", "coord": {"lon": 108.505096, "lat": -7.0869}}, {"id": 8067541, "name": "Giriwaringin", "state": "", "country": "ID", "coord": {"lon": 108.581299, "lat": -7.0875}}, {"id": 8067542, "name": "Girang", "state": "", "country": "ID", "coord": {"lon": 108.598801, "lat": -7.0901}}, {"id": 8067546, "name": "Cilayung", "state": "", "country": "ID", "coord": {"lon": 108.6213, "lat": -7.0842}}, {"id": 8067552, "name": "Cilimus Kulon", "state": "", "country": "ID", "coord": {"lon": 108.587402, "lat": -7.0992}}, {"id": 8067563, "name": "Patala", "state": "", "country": "ID", "coord": {"lon": 108.581299, "lat": -7.1103}}, {"id": 8067580, "name": "Blokdesa Situgede", "state": "", "country": "ID", "coord": {"lon": 108.556999, "lat": -7.1053}}, {"id": 8067601, "name": "Gunungaci", "state": "", "country": "ID", "coord": {"lon": 108.535896, "lat": -7.1032}}, {"id": 8067604, "name": "Manis Mekarwangi", "state": "", "country": "ID", "coord": {"lon": 108.601898, "lat": -7.0108}}, {"id": 8067634, "name": "Kutaraja", "state": "", "country": "ID", "coord": {"lon": 108.561317, "lat": -7.02132}}, {"id": 8067845, "name": "Gaplokan", "state": "", "country": "ID", "coord": {"lon": 111.2724, "lat": -6.8951}}, {"id": 8067846, "name": "Ngiyono", "state": "", "country": "ID", "coord": {"lon": 111.3116, "lat": -6.8992}}, {"id": 8067852, "name": "Sumberejo", "state": "", "country": "ID", "coord": {"lon": 111.3116, "lat": -6.9141}}, {"id": 8067862, "name": "Tlogowungu", "state": "", "country": "ID", "coord": {"lon": 111.278503, "lat": -6.9324}}, {"id": 8067863, "name": "Karangori", "state": "", "country": "ID", "coord": {"lon": 111.2882, "lat": -6.9318}}, {"id": 8067867, "name": "Kalangan", "state": "", "country": "ID", "coord": {"lon": 111.371597, "lat": -6.9421}}, {"id": 8067871, "name": "Bogorejo", "state": "", "country": "ID", "coord": {"lon": 111.327599, "lat": -6.9382}}, {"id": 8067877, "name": "Pulo", "state": "", "country": "ID", "coord": {"lon": 111.259697, "lat": -6.9377}}, {"id": 8067886, "name": "Padaan", "state": "", "country": "ID", "coord": {"lon": 111.2995, "lat": -6.9435}}, {"id": 8067887, "name": "Wotbakah", "state": "", "country": "ID", "coord": {"lon": 111.317497, "lat": -6.9441}}, {"id": 8067890, "name": "Triteh", "state": "", "country": "ID", "coord": {"lon": 111.361702, "lat": -6.9594}}, {"id": 8067895, "name": "Beganjing", "state": "", "country": "ID", "coord": {"lon": 111.297302, "lat": -6.9571}}, {"id": 8067897, "name": "Ngrambitan", "state": "", "country": "ID", "coord": {"lon": 111.306702, "lat": -6.9629}}, {"id": 8067899, "name": "Pengkolrejo", "state": "", "country": "ID", "coord": {"lon": 111.324303, "lat": -6.9604}}, {"id": 8067904, "name": "Sembung", "state": "", "country": "ID", "coord": {"lon": 111.3694, "lat": -6.9699}}, {"id": 8067906, "name": "Tawangsari", "state": "", "country": "ID", "coord": {"lon": 111.343102, "lat": -6.9744}}, {"id": 8067907, "name": "Bocowanti", "state": "", "country": "ID", "coord": {"lon": 111.320297, "lat": -6.9707}}, {"id": 8067908, "name": "Wantil", "state": "", "country": "ID", "coord": {"lon": 111.322502, "lat": -6.9742}}, {"id": 8067909, "name": "Suren", "state": "", "country": "ID", "coord": {"lon": 111.303497, "lat": -6.9732}}, {"id": 8067910, "name": "Krocok", "state": "", "country": "ID", "coord": {"lon": 111.275398, "lat": -6.9735}}, {"id": 8067912, "name": "Pelem", "state": "", "country": "ID", "coord": {"lon": 111.258102, "lat": -6.9817}}, {"id": 8067916, "name": "Sambongrejo", "state": "", "country": "ID", "coord": {"lon": 111.316597, "lat": -6.9787}}, {"id": 8067922, "name": "Kedungringin", "state": "", "country": "ID", "coord": {"lon": 111.356003, "lat": -6.9883}}, {"id": 8067926, "name": "Pudak", "state": "", "country": "ID", "coord": {"lon": 111.325798, "lat": -6.9885}}, {"id": 8067928, "name": "Gotputuk", "state": "", "country": "ID", "coord": {"lon": 111.305702, "lat": -6.989}}, {"id": 8067929, "name": "Plosorejo", "state": "", "country": "ID", "coord": {"lon": 111.2612, "lat": -6.9919}}, {"id": 8067933, "name": "Bradag", "state": "", "country": "ID", "coord": {"lon": 111.295303, "lat": -6.9933}}, {"id": 8067935, "name": "Berbak", "state": "", "country": "ID", "coord": {"lon": 111.3134, "lat": -6.9981}}, {"id": 8067940, "name": "Kembang", "state": "", "country": "ID", "coord": {"lon": 111.351501, "lat": -6.9979}}, {"id": 8067977, "name": "Sendangsari", "state": "", "country": "ID", "coord": {"lon": 111.335403, "lat": -6.9812}}, {"id": 8067980, "name": "Kulonkali", "state": "", "country": "ID", "coord": {"lon": 111.374603, "lat": -6.9904}}, {"id": 8068029, "name": "Trahan Wetan", "state": "", "country": "ID", "coord": {"lon": 111.482201, "lat": -6.6367}}, {"id": 8068034, "name": "Jurangjero", "state": "", "country": "ID", "coord": {"lon": 111.4832, "lat": -6.6455}}, {"id": 8068036, "name": "Dukoh", "state": "", "country": "ID", "coord": {"lon": 111.473503, "lat": -6.6488}}, {"id": 8068046, "name": "Ngenden", "state": "", "country": "ID", "coord": {"lon": 111.458504, "lat": -6.6688}}, {"id": 8068048, "name": "Logading", "state": "", "country": "ID", "coord": {"lon": 111.4739, "lat": -6.6684}}, {"id": 8068057, "name": "Kalilu", "state": "", "country": "ID", "coord": {"lon": 111.487701, "lat": -6.6825}}, {"id": 8068065, "name": "Ngodo", "state": "", "country": "ID", "coord": {"lon": 111.414597, "lat": -6.6915}}, {"id": 8068070, "name": "Gedongmulyo", "state": "", "country": "ID", "coord": {"lon": 111.439102, "lat": -6.692}}, {"id": 8068074, "name": "Karangrejo", "state": "", "country": "ID", "coord": {"lon": 111.452988, "lat": -6.69051}}, {"id": 8068075, "name": "Bendan", "state": "", "country": "ID", "coord": {"lon": 111.460899, "lat": -6.6838}}, {"id": 8068080, "name": "Kajar", "state": "", "country": "ID", "coord": {"lon": 111.476501, "lat": -6.6909}}, {"id": 8068086, "name": "Mentoro Wetan", "state": "", "country": "ID", "coord": {"lon": 111.490402, "lat": -6.6993}}, {"id": 8068090, "name": "Ngargomulyo", "state": "", "country": "ID", "coord": {"lon": 111.488197, "lat": -6.6921}}, {"id": 8068094, "name": "Ngandangan", "state": "", "country": "ID", "coord": {"lon": 111.463997, "lat": -6.695}}, {"id": 8068105, "name": "Belahan", "state": "", "country": "ID", "coord": {"lon": 111.451302, "lat": -6.6929}}, {"id": 8068117, "name": "Sambong", "state": "", "country": "ID", "coord": {"lon": 111.434799, "lat": -6.6952}}, {"id": 8068120, "name": "Tritunggal", "state": "", "country": "ID", "coord": {"lon": 111.396896, "lat": -6.6977}}, {"id": 8068129, "name": "Babagan", "state": "", "country": "ID", "coord": {"lon": 111.440002, "lat": -6.7003}}, {"id": 8068130, "name": "Jolotundo", "state": "", "country": "ID", "coord": {"lon": 111.446503, "lat": -6.7039}}, {"id": 8068132, "name": "Karangturi", "state": "", "country": "ID", "coord": {"lon": 111.445396, "lat": -6.7016}}, {"id": 8068133, "name": "Pandeyan", "state": "", "country": "ID", "coord": {"lon": 111.451302, "lat": -6.7009}}, {"id": 8068142, "name": "Warugunung", "state": "", "country": "ID", "coord": {"lon": 111.457001, "lat": -6.7076}}, {"id": 8068149, "name": "Criwik", "state": "", "country": "ID", "coord": {"lon": 111.495201, "lat": -6.7064}}, {"id": 8068151, "name": "Banyuurip", "state": "", "country": "ID", "coord": {"lon": 111.497597, "lat": -6.7107}}, {"id": 8068163, "name": "Pohlandak", "state": "", "country": "ID", "coord": {"lon": 111.452301, "lat": -6.7139}}, {"id": 8068168, "name": "Karasgede", "state": "", "country": "ID", "coord": {"lon": 111.434196, "lat": -6.71}}, {"id": 8068172, "name": "Gandik", "state": "", "country": "ID", "coord": {"lon": 111.375504, "lat": -6.7205}}, {"id": 8068174, "name": "Padaran", "state": "", "country": "ID", "coord": {"lon": 111.400398, "lat": -6.7218}}, {"id": 8068175, "name": "Garang", "state": "", "country": "ID", "coord": {"lon": 111.403503, "lat": -6.7234}}, {"id": 8068176, "name": "Kasreman", "state": "", "country": "ID", "coord": {"lon": 111.415199, "lat": -6.7201}}, {"id": 8068178, "name": "Karaskepoh", "state": "", "country": "ID", "coord": {"lon": 111.438904, "lat": -6.7216}}, {"id": 8068179, "name": "Karanglo", "state": "", "country": "ID", "coord": {"lon": 111.442902, "lat": -6.7221}}, {"id": 8068184, "name": "Krajan Wuwur", "state": "", "country": "ID", "coord": {"lon": 111.483002, "lat": -6.7212}}, {"id": 8068185, "name": "Ngulangan", "state": "", "country": "ID", "coord": {"lon": 111.487, "lat": -6.718}}, {"id": 8068188, "name": "Kedung", "state": "", "country": "ID", "coord": {"lon": 111.4935, "lat": -6.7294}}, {"id": 8068194, "name": "Punggurharjo", "state": "", "country": "ID", "coord": {"lon": 111.475601, "lat": -6.7257}}, {"id": 8068196, "name": "Langkir", "state": "", "country": "ID", "coord": {"lon": 111.466003, "lat": -6.7303}}, {"id": 8068197, "name": "Gemblengmulyo", "state": "", "country": "ID", "coord": {"lon": 111.467499, "lat": -6.7328}}, {"id": 8068204, "name": "Doropayung", "state": "", "country": "ID", "coord": {"lon": 111.434998, "lat": -6.7251}}, {"id": 8068207, "name": "Ngangpo", "state": "", "country": "ID", "coord": {"lon": 111.388, "lat": -6.7306}}, {"id": 8068208, "name": "Balong Kulon", "state": "", "country": "ID", "coord": {"lon": 111.378197, "lat": -6.735}}, {"id": 8068215, "name": "Jeruk", "state": "", "country": "ID", "coord": {"lon": 111.440598, "lat": -6.7353}}, {"id": 8068221, "name": "Sumberagung", "state": "", "country": "ID", "coord": {"lon": 111.477699, "lat": -6.7368}}, {"id": 8068227, "name": "Sambongmulyo", "state": "", "country": "ID", "coord": {"lon": 111.493103, "lat": -6.7353}}, {"id": 8068230, "name": "Gayam", "state": "", "country": "ID", "coord": {"lon": 111.478104, "lat": -6.747}}, {"id": 8068236, "name": "Tulung", "state": "", "country": "ID", "coord": {"lon": 111.454201, "lat": -6.7445}}, {"id": 8068238, "name": "Japeledok", "state": "", "country": "ID", "coord": {"lon": 111.441101, "lat": -6.7443}}, {"id": 8068241, "name": "Sendangagung", "state": "", "country": "ID", "coord": {"lon": 111.424698, "lat": -6.7448}}, {"id": 8068634, "name": "Langgar", "state": "", "country": "ID", "coord": {"lon": 111.5047, "lat": -6.6491}}, {"id": 8068637, "name": "Nggambel", "state": "", "country": "ID", "coord": {"lon": 111.503403, "lat": -6.6544}}, {"id": 8068641, "name": "Carian", "state": "", "country": "ID", "coord": {"lon": 111.524902, "lat": -6.7221}}, {"id": 8068644, "name": "Bendo", "state": "", "country": "ID", "coord": {"lon": 111.533501, "lat": -6.6588}}, {"id": 8068645, "name": "Pendok", "state": "", "country": "ID", "coord": {"lon": 111.528, "lat": -6.6313}}, {"id": 8068646, "name": "Blimbing", "state": "", "country": "ID", "coord": {"lon": 111.536499, "lat": -6.634}}, {"id": 8068651, "name": "Dadapan", "state": "", "country": "ID", "coord": {"lon": 111.539597, "lat": -6.7094}}, {"id": 8068656, "name": "Karangnongko", "state": "", "country": "ID", "coord": {"lon": 111.537003, "lat": -6.7497}}, {"id": 8068657, "name": "Sambong", "state": "", "country": "ID", "coord": {"lon": 111.547501, "lat": -6.7241}}, {"id": 8068662, "name": "Gerdu", "state": "", "country": "ID", "coord": {"lon": 111.523201, "lat": -6.7264}}, {"id": 8068664, "name": "Ngroto", "state": "", "country": "ID", "coord": {"lon": 111.5196, "lat": -6.7129}}, {"id": 8068668, "name": "Jatisari", "state": "", "country": "ID", "coord": {"lon": 111.508499, "lat": -6.6333}}, {"id": 8068671, "name": "Rakitan", "state": "", "country": "ID", "coord": {"lon": 111.516098, "lat": -6.6667}}, {"id": 8068672, "name": "Trenggulunan", "state": "", "country": "ID", "coord": {"lon": 111.514702, "lat": -6.7202}}, {"id": 8068673, "name": "Sidowayah", "state": "", "country": "ID", "coord": {"lon": 111.502602, "lat": -6.7357}}, {"id": 8068674, "name": "Johogunung", "state": "", "country": "ID", "coord": {"lon": 111.502502, "lat": -6.7175}}, {"id": 8068693, "name": "Dukuan", "state": "", "country": "ID", "coord": {"lon": 111.5439, "lat": -6.6918}}, {"id": 8068698, "name": "Culeng", "state": "", "country": "ID", "coord": {"lon": 111.547302, "lat": -6.6491}}, {"id": 8068703, "name": "Sendangmulyo", "state": "", "country": "ID", "coord": {"lon": 111.552299, "lat": -6.639}}, {"id": 8068711, "name": "Sendang", "state": "", "country": "ID", "coord": {"lon": 111.555298, "lat": -6.6956}}, {"id": 8068713, "name": "Tanjungsari", "state": "", "country": "ID", "coord": {"lon": 111.554001, "lat": -6.7078}}, {"id": 8068721, "name": "Bogorejo", "state": "", "country": "ID", "coord": {"lon": 111.560097, "lat": -6.7283}}, {"id": 8068725, "name": "Juwen", "state": "", "country": "ID", "coord": {"lon": 111.565903, "lat": -6.7099}}, {"id": 8068728, "name": "Terjan", "state": "", "country": "ID", "coord": {"lon": 111.564102, "lat": -6.6945}}, {"id": 8068733, "name": "Krajan Woro", "state": "", "country": "ID", "coord": {"lon": 111.563904, "lat": -6.6701}}, {"id": 8068738, "name": "Krajan Sumurtawang", "state": "", "country": "ID", "coord": {"lon": 111.565498, "lat": -6.6641}}, {"id": 8068739, "name": "Sumbersari", "state": "", "country": "ID", "coord": {"lon": 111.566498, "lat": -6.6462}}, {"id": 8068748, "name": "Sendangwaru", "state": "", "country": "ID", "coord": {"lon": 111.574203, "lat": -6.7071}}, {"id": 8068752, "name": "Krajan Gandrirejo", "state": "", "country": "ID", "coord": {"lon": 111.566299, "lat": -6.7291}}, {"id": 8068753, "name": "Sulo", "state": "", "country": "ID", "coord": {"lon": 111.573196, "lat": -6.7306}}, {"id": 8068758, "name": "Kedungringin", "state": "", "country": "ID", "coord": {"lon": 111.584297, "lat": -6.7387}}, {"id": 8068759, "name": "Jambeyan", "state": "", "country": "ID", "coord": {"lon": 111.580803, "lat": -6.729}}, {"id": 8068761, "name": "Sudan", "state": "", "country": "ID", "coord": {"lon": 111.578903, "lat": -6.6963}}, {"id": 8068762, "name": "Narukan", "state": "", "country": "ID", "coord": {"lon": 111.582603, "lat": -6.6943}}, {"id": 8068763, "name": "Sumurpule", "state": "", "country": "ID", "coord": {"lon": 111.582199, "lat": -6.6874}}, {"id": 8068767, "name": "Pandangan Kulon", "state": "", "country": "ID", "coord": {"lon": 111.588997, "lat": -6.6669}}, {"id": 8068768, "name": "Pandangan Wetan", "state": "", "country": "ID", "coord": {"lon": 111.5896, "lat": -6.6702}}, {"id": 8068770, "name": "Sumbergayam", "state": "", "country": "ID", "coord": {"lon": 111.588402, "lat": -6.6748}}, {"id": 8068773, "name": "Ngasinan", "state": "", "country": "ID", "coord": {"lon": 111.586601, "lat": -6.7144}}, {"id": 8068779, "name": "Menara", "state": "", "country": "ID", "coord": {"lon": 111.591797, "lat": -6.7283}}, {"id": 8068780, "name": "Plawangan", "state": "", "country": "ID", "coord": {"lon": 111.5942, "lat": -6.6741}}, {"id": 8068783, "name": "Balongmulyo", "state": "", "country": "ID", "coord": {"lon": 111.601402, "lat": -6.6806}}, {"id": 8068786, "name": "Kendalagung", "state": "", "country": "ID", "coord": {"lon": 111.603798, "lat": -6.7093}}, {"id": 8068788, "name": "Mojokerto", "state": "", "country": "ID", "coord": {"lon": 111.608902, "lat": -6.7334}}, {"id": 8068798, "name": "Balongteki", "state": "", "country": "ID", "coord": {"lon": 111.617401, "lat": -6.7457}}, {"id": 8069629, "name": "Bulakbanjar", "state": "", "country": "ID", "coord": {"lon": 108.720497, "lat": -7.6237}}, {"id": 8069659, "name": "Pasirgeulis", "state": "", "country": "ID", "coord": {"lon": 108.673599, "lat": -7.51}}, {"id": 8069663, "name": "Ciulu", "state": "", "country": "ID", "coord": {"lon": 108.653702, "lat": -7.513}}, {"id": 8069669, "name": "Cangkring", "state": "", "country": "ID", "coord": {"lon": 108.631897, "lat": -7.5115}}, {"id": 8069677, "name": "Sopla", "state": "", "country": "ID", "coord": {"lon": 108.674698, "lat": -7.5208}}, {"id": 8069687, "name": "Maruyungsari", "state": "", "country": "ID", "coord": {"lon": 108.730698, "lat": -7.5176}}, {"id": 8069717, "name": "Ciilat", "state": "", "country": "ID", "coord": {"lon": 108.7258, "lat": -7.5407}}, {"id": 8069722, "name": "Patingen Dua", "state": "", "country": "ID", "coord": {"lon": 108.697304, "lat": -7.5418}}, {"id": 8069726, "name": "Burujul", "state": "", "country": "ID", "coord": {"lon": 108.6847, "lat": -7.5458}}, {"id": 8069734, "name": "Cinangka", "state": "", "country": "ID", "coord": {"lon": 108.653603, "lat": -7.5566}}, {"id": 8069754, "name": "Nagrak", "state": "", "country": "ID", "coord": {"lon": 108.694603, "lat": -7.5632}}, {"id": 8069765, "name": "Kawarasan", "state": "", "country": "ID", "coord": {"lon": 108.699699, "lat": -7.5699}}, {"id": 8069779, "name": "Babakanjaya", "state": "", "country": "ID", "coord": {"lon": 108.6763, "lat": -7.578}}, {"id": 8069793, "name": "Cihideung", "state": "", "country": "ID", "coord": {"lon": 108.714401, "lat": -7.5857}}, {"id": 8069805, "name": "Ciparakan", "state": "", "country": "ID", "coord": {"lon": 108.6716, "lat": -7.5979}}, {"id": 8069818, "name": "Cintamaju", "state": "", "country": "ID", "coord": {"lon": 108.724602, "lat": -7.6132}}, {"id": 8069832, "name": "Kragan", "state": "", "country": "ID", "coord": {"lon": 111.622292, "lat": -6.69726}}, {"id": 8070097, "name": "Sukanagara", "state": "", "country": "ID", "coord": {"lon": 108.655701, "lat": -7.4039}}, {"id": 8070098, "name": "Kalapagada", "state": "", "country": "ID", "coord": {"lon": 108.6614, "lat": -7.3943}}, {"id": 8070100, "name": "Tambakreja", "state": "", "country": "ID", "coord": {"lon": 108.656502, "lat": -7.3825}}, {"id": 8070108, "name": "Pondokunyur", "state": "", "country": "ID", "coord": {"lon": 108.675903, "lat": -7.3887}}, {"id": 8070113, "name": "Baregbeg", "state": "", "country": "ID", "coord": {"lon": 108.6828, "lat": -7.4011}}, {"id": 8070124, "name": "Cilongkrang", "state": "", "country": "ID", "coord": {"lon": 108.7127, "lat": -7.4084}}, {"id": 8070134, "name": "Sawangan", "state": "", "country": "ID", "coord": {"lon": 108.748199, "lat": -7.4001}}, {"id": 8070138, "name": "Gayamsari", "state": "", "country": "ID", "coord": {"lon": 108.732399, "lat": -7.4375}}, {"id": 8070140, "name": "Candimulya", "state": "", "country": "ID", "coord": {"lon": 108.7491, "lat": -7.4329}}, {"id": 8070150, "name": "Sarimukti Kaler", "state": "", "country": "ID", "coord": {"lon": 108.7146, "lat": -7.4301}}, {"id": 8070153, "name": "Talangbanteng", "state": "", "country": "ID", "coord": {"lon": 108.703499, "lat": -7.4453}}, {"id": 8070155, "name": "Jamban", "state": "", "country": "ID", "coord": {"lon": 108.695099, "lat": -7.4204}}, {"id": 8070165, "name": "Banjarharja", "state": "", "country": "ID", "coord": {"lon": 108.665604, "lat": -7.4187}}, {"id": 8070169, "name": "Karangpaningal", "state": "", "country": "ID", "coord": {"lon": 108.666397, "lat": -7.4365}}, {"id": 8070199, "name": "Ciherang", "state": "", "country": "ID", "coord": {"lon": 108.627701, "lat": -7.4936}}, {"id": 8070207, "name": "Cakungsari", "state": "", "country": "ID", "coord": {"lon": 108.642303, "lat": -7.4536}}, {"id": 8070209, "name": "Pangarengan", "state": "", "country": "ID", "coord": {"lon": 108.645531, "lat": -7.46219}}, {"id": 8070212, "name": "Purwasari", "state": "", "country": "ID", "coord": {"lon": 108.6409, "lat": -7.4769}}, {"id": 8070233, "name": "Jangraga", "state": "", "country": "ID", "coord": {"lon": 108.670799, "lat": -7.4872}}, {"id": 8070250, "name": "Sindangrasa", "state": "", "country": "ID", "coord": {"lon": 108.687202, "lat": -7.4589}}, {"id": 8070269, "name": "Cogekan", "state": "", "country": "ID", "coord": {"lon": 108.717499, "lat": -7.4896}}, {"id": 8070277, "name": "Pasirgaru", "state": "", "country": "ID", "coord": {"lon": 108.731102, "lat": -7.456}}, {"id": 8070287, "name": "Margasari", "state": "", "country": "ID", "coord": {"lon": 108.744904, "lat": -7.4676}}, {"id": 8070734, "name": "Bolaka", "state": "", "country": "CD", "coord": {"lon": 18.275061, "lat": 0.05545}}, {"id": 8070735, "name": "Ipeko", "state": "", "country": "CD", "coord": {"lon": 18.27833, "lat": 0.0201}}, {"id": 8070776, "name": "Kerep Wetan", "state": "", "country": "ID", "coord": {"lon": 111.390404, "lat": -6.7561}}, {"id": 8070785, "name": "Ringin", "state": "", "country": "ID", "coord": {"lon": 111.463997, "lat": -6.7551}}, {"id": 8070789, "name": "Segoro", "state": "", "country": "ID", "coord": {"lon": 111.412697, "lat": -6.7674}}, {"id": 8070790, "name": "Gondang", "state": "", "country": "ID", "coord": {"lon": 111.428101, "lat": -6.7585}}, {"id": 8070793, "name": "Sridadi", "state": "", "country": "ID", "coord": {"lon": 111.487701, "lat": -6.7625}}, {"id": 8070801, "name": "Kepohagung", "state": "", "country": "ID", "coord": {"lon": 111.420502, "lat": -6.7696}}, {"id": 8070803, "name": "Mlawat", "state": "", "country": "ID", "coord": {"lon": 111.417801, "lat": -6.7754}}, {"id": 8070804, "name": "Kembang", "state": "", "country": "ID", "coord": {"lon": 111.431099, "lat": -6.7712}}, {"id": 8070813, "name": "Sidorejo", "state": "", "country": "ID", "coord": {"lon": 111.474098, "lat": -6.7675}}, {"id": 8070814, "name": "Samaran", "state": "", "country": "ID", "coord": {"lon": 111.475899, "lat": -6.7747}}, {"id": 8070821, "name": "Kapasan", "state": "", "country": "ID", "coord": {"lon": 111.378899, "lat": -6.7773}}, {"id": 8070826, "name": "Mlagen", "state": "", "country": "ID", "coord": {"lon": 111.4244, "lat": -6.783}}, {"id": 8070828, "name": "Tempaling", "state": "", "country": "ID", "coord": {"lon": 111.447403, "lat": -6.7755}}, {"id": 8070839, "name": "Korowelang", "state": "", "country": "ID", "coord": {"lon": 111.417603, "lat": -6.7896}}, {"id": 8070844, "name": "Tempel", "state": "", "country": "ID", "coord": {"lon": 111.448402, "lat": -6.7854}}, {"id": 8070845, "name": "Ngemplakrejo Lor", "state": "", "country": "ID", "coord": {"lon": 111.454803, "lat": -6.7888}}, {"id": 8070848, "name": "Pragen Selatan", "state": "", "country": "ID", "coord": {"lon": 111.465103, "lat": -6.7896}}, {"id": 8070851, "name": "Karangori Kidul", "state": "", "country": "ID", "coord": {"lon": 111.399902, "lat": -6.796}}, {"id": 8070853, "name": "Sambong", "state": "", "country": "ID", "coord": {"lon": 111.420197, "lat": -6.7986}}, {"id": 8070854, "name": "Karanganyar", "state": "", "country": "ID", "coord": {"lon": 111.4282, "lat": -6.7946}}, {"id": 8070858, "name": "Gambiran", "state": "", "country": "ID", "coord": {"lon": 111.495102, "lat": -6.7988}}, {"id": 8070864, "name": "Ngemplak Kidul", "state": "", "country": "ID", "coord": {"lon": 111.391403, "lat": -6.8032}}, {"id": 8070866, "name": "Rukem", "state": "", "country": "ID", "coord": {"lon": 111.415001, "lat": -6.8029}}, {"id": 8070869, "name": "Demaan", "state": "", "country": "ID", "coord": {"lon": 111.430298, "lat": -6.8072}}, {"id": 8070870, "name": "Kulutan", "state": "", "country": "ID", "coord": {"lon": 111.4646, "lat": -6.7996}}, {"id": 8070871, "name": "Sidomulyo", "state": "", "country": "ID", "coord": {"lon": 111.460503, "lat": -6.806}}, {"id": 8070875, "name": "Tegalsari", "state": "", "country": "ID", "coord": {"lon": 111.3797, "lat": -6.8101}}, {"id": 8070877, "name": "Kemadu", "state": "", "country": "ID", "coord": {"lon": 111.382202, "lat": -6.8165}}, {"id": 8070879, "name": "Pomahan", "state": "", "country": "ID", "coord": {"lon": 111.412598, "lat": -6.8138}}, {"id": 8070884, "name": "Panohan", "state": "", "country": "ID", "coord": {"lon": 111.436996, "lat": -6.815}}, {"id": 8070887, "name": "Telgawah", "state": "", "country": "ID", "coord": {"lon": 111.454498, "lat": -6.8129}}, {"id": 8070891, "name": "Trembes", "state": "", "country": "ID", "coord": {"lon": 111.490402, "lat": -6.8101}}, {"id": 8070900, "name": "Ponjen", "state": "", "country": "ID", "coord": {"lon": 111.386398, "lat": -6.8373}}, {"id": 8070929, "name": "Jukung", "state": "", "country": "ID", "coord": {"lon": 111.405602, "lat": -6.843}}, {"id": 8070942, "name": "Pesucen", "state": "", "country": "ID", "coord": {"lon": 111.482597, "lat": -6.8541}}, {"id": 8070944, "name": "Pasedan Dua", "state": "", "country": "ID", "coord": {"lon": 111.381798, "lat": -6.8632}}, {"id": 8070951, "name": "Kebon", "state": "", "country": "ID", "coord": {"lon": 111.428802, "lat": -6.8598}}, {"id": 8070952, "name": "Kadiwono", "state": "", "country": "ID", "coord": {"lon": 111.431198, "lat": -6.8601}}, {"id": 8070954, "name": "Timbrangan", "state": "", "country": "ID", "coord": {"lon": 111.487198, "lat": -6.8598}}, {"id": 8070955, "name": "Sendangmulyo", "state": "", "country": "ID", "coord": {"lon": 111.446404, "lat": -6.8141}}, {"id": 8070998, "name": "Kajar", "state": "", "country": "ID", "coord": {"lon": 111.480598, "lat": -6.8821}}, {"id": 8071007, "name": "Ngampel", "state": "", "country": "ID", "coord": {"lon": 111.441704, "lat": -6.8933}}, {"id": 8071010, "name": "Waru", "state": "", "country": "ID", "coord": {"lon": 111.492302, "lat": -6.8894}}, {"id": 8071022, "name": "Kemiren", "state": "", "country": "ID", "coord": {"lon": 111.468498, "lat": -6.8988}}, {"id": 8071026, "name": "Karangasem", "state": "", "country": "ID", "coord": {"lon": 111.487297, "lat": -6.8994}}, {"id": 8071038, "name": "Semanten", "state": "", "country": "ID", "coord": {"lon": 111.382797, "lat": -6.915}}, {"id": 8071042, "name": "Geneng", "state": "", "country": "ID", "coord": {"lon": 111.411499, "lat": -6.9112}}, {"id": 8071047, "name": "Sitirejo", "state": "", "country": "ID", "coord": {"lon": 111.433899, "lat": -6.9113}}, {"id": 8071048, "name": "Medang", "state": "", "country": "ID", "coord": {"lon": 111.439598, "lat": -6.9136}}, {"id": 8071051, "name": "Ngadipurwo", "state": "", "country": "ID", "coord": {"lon": 111.446899, "lat": -6.9141}}, {"id": 8071053, "name": "Tempuran", "state": "", "country": "ID", "coord": {"lon": 111.461197, "lat": -6.9116}}, {"id": 8071065, "name": "Kalirejo", "state": "", "country": "ID", "coord": {"lon": 111.434303, "lat": -6.9231}}, {"id": 8071068, "name": "Karanggeneng", "state": "", "country": "ID", "coord": {"lon": 111.450401, "lat": -6.9246}}, {"id": 8071069, "name": "Jatirejo", "state": "", "country": "ID", "coord": {"lon": 111.471397, "lat": -6.9204}}, {"id": 8071075, "name": "Ngundaan", "state": "", "country": "ID", "coord": {"lon": 111.398003, "lat": -6.9263}}, {"id": 8071081, "name": "Tambaksari Satu", "state": "", "country": "ID", "coord": {"lon": 111.430901, "lat": -6.934}}, {"id": 8071086, "name": "Bacem", "state": "", "country": "ID", "coord": {"lon": 111.469498, "lat": -6.9273}}, {"id": 8071088, "name": "Sarirejo", "state": "", "country": "ID", "coord": {"lon": 111.481003, "lat": -6.9327}}, {"id": 8071089, "name": "Karanganyar", "state": "", "country": "ID", "coord": {"lon": 111.488602, "lat": -6.9284}}, {"id": 8071098, "name": "Puledagel", "state": "", "country": "ID", "coord": {"lon": 111.459099, "lat": -6.9345}}, {"id": 8071101, "name": "Kawengan", "state": "", "country": "ID", "coord": {"lon": 111.472397, "lat": -6.9387}}, {"id": 8071103, "name": "Gombang", "state": "", "country": "ID", "coord": {"lon": 111.485901, "lat": -6.9406}}, {"id": 8071105, "name": "Karang", "state": "", "country": "ID", "coord": {"lon": 111.496803, "lat": -6.9381}}, {"id": 8071109, "name": "Weru", "state": "", "country": "ID", "coord": {"lon": 111.418404, "lat": -6.9475}}, {"id": 8071114, "name": "Patalan", "state": "", "country": "ID", "coord": {"lon": 111.445099, "lat": -6.9442}}, {"id": 8071116, "name": "Gendangdowo", "state": "", "country": "ID", "coord": {"lon": 111.4562, "lat": -6.9483}}, {"id": 8071119, "name": "Jembangan", "state": "", "country": "ID", "coord": {"lon": 111.380203, "lat": -6.954}}, {"id": 8071126, "name": "Karangjati", "state": "", "country": "ID", "coord": {"lon": 111.426201, "lat": -6.956}}, {"id": 8071129, "name": "Wonosari", "state": "", "country": "ID", "coord": {"lon": 111.433502, "lat": -6.9516}}, {"id": 8071134, "name": "Gersi", "state": "", "country": "ID", "coord": {"lon": 111.456596, "lat": -6.9572}}, {"id": 8071138, "name": "Maguwon", "state": "", "country": "ID", "coord": {"lon": 111.3769, "lat": -6.9661}}, {"id": 8071142, "name": "Kunden", "state": "", "country": "ID", "coord": {"lon": 111.411697, "lat": -6.9627}}, {"id": 8071143, "name": "Kauman", "state": "", "country": "ID", "coord": {"lon": 111.408401, "lat": -6.9693}}, {"id": 8071144, "name": "Tempelan", "state": "", "country": "ID", "coord": {"lon": 111.415604, "lat": -6.9656}}, {"id": 8071145, "name": "Tegalgunung", "state": "", "country": "ID", "coord": {"lon": 111.419502, "lat": -6.9609}}, {"id": 8071150, "name": "Nglaroh", "state": "", "country": "ID", "coord": {"lon": 111.451599, "lat": -6.9622}}, {"id": 8071152, "name": "Gondang", "state": "", "country": "ID", "coord": {"lon": 111.463402, "lat": -6.9635}}, {"id": 8071155, "name": "Nglarohgunung", "state": "", "country": "ID", "coord": {"lon": 111.4823, "lat": -6.9635}}, {"id": 8071157, "name": "Tutup", "state": "", "country": "ID", "coord": {"lon": 111.390099, "lat": -6.9705}}, {"id": 8071158, "name": "Kajangansawan", "state": "", "country": "ID", "coord": {"lon": 111.399803, "lat": -6.9696}}, {"id": 8071159, "name": "Potlot", "state": "", "country": "ID", "coord": {"lon": 111.407097, "lat": -6.9746}}, {"id": 8071160, "name": "Mlangsen", "state": "", "country": "ID", "coord": {"lon": 111.415199, "lat": -6.9741}}, {"id": 8071161, "name": "Bangkle", "state": "", "country": "ID", "coord": {"lon": 111.430702, "lat": -6.9706}}, {"id": 8071163, "name": "Jejerukrajan", "state": "", "country": "ID", "coord": {"lon": 111.449203, "lat": -6.9751}}, {"id": 8071165, "name": "Seso", "state": "", "country": "ID", "coord": {"lon": 111.454697, "lat": -6.9683}}, {"id": 8071168, "name": "Cangkringan", "state": "", "country": "ID", "coord": {"lon": 111.458298, "lat": -6.9766}}, {"id": 8071176, "name": "Jeponkrajan", "state": "", "country": "ID", "coord": {"lon": 111.478996, "lat": -6.979}}, {"id": 8071179, "name": "Tempel", "state": "", "country": "ID", "coord": {"lon": 111.496101, "lat": -6.9773}}, {"id": 8071186, "name": "Jetis", "state": "", "country": "ID", "coord": {"lon": 111.410202, "lat": -6.9764}}, {"id": 8071187, "name": "Kedungjenar", "state": "", "country": "ID", "coord": {"lon": 111.420998, "lat": -6.9758}}, {"id": 8071194, "name": "Karangnongko", "state": "", "country": "ID", "coord": {"lon": 111.397003, "lat": -6.9871}}, {"id": 8071198, "name": "Sumurboto", "state": "", "country": "ID", "coord": {"lon": 111.450104, "lat": -6.9822}}, {"id": 8071202, "name": "Turirejo", "state": "", "country": "ID", "coord": {"lon": 111.4646, "lat": -6.9868}}, {"id": 8071205, "name": "Kemiri", "state": "", "country": "ID", "coord": {"lon": 111.487701, "lat": -6.9913}}, {"id": 8071209, "name": "Bangeran", "state": "", "country": "ID", "coord": {"lon": 111.413002, "lat": -6.9949}}, {"id": 8071212, "name": "Pelem", "state": "", "country": "ID", "coord": {"lon": 111.432701, "lat": -6.9976}}, {"id": 8071213, "name": "Dengok", "state": "", "country": "ID", "coord": {"lon": 111.439796, "lat": -6.9943}}, {"id": 8071216, "name": "Semampir", "state": "", "country": "ID", "coord": {"lon": 111.482803, "lat": -6.9883}}, {"id": 8071221, "name": "Prantaan", "state": "", "country": "ID", "coord": {"lon": 111.4981, "lat": -6.9463}}, {"id": 8071846, "name": "Talazhskiy Aviagorodok", "state": "", "country": "RU", "coord": {"lon": 40.701801, "lat": 64.590401}}, {"id": 8072321, "name": "Kubang", "state": "", "country": "ID", "coord": {"lon": 108.638199, "lat": -7.2738}}, {"id": 8072370, "name": "Cibeunying", "state": "", "country": "ID", "coord": {"lon": 108.744102, "lat": -7.2934}}, {"id": 8072382, "name": "Karanggedang", "state": "", "country": "ID", "coord": {"lon": 108.724899, "lat": -7.3015}}, {"id": 8072392, "name": "Limbangan", "state": "", "country": "ID", "coord": {"lon": 108.710197, "lat": -7.3025}}, {"id": 8072407, "name": "Malabar", "state": "", "country": "ID", "coord": {"lon": 108.686203, "lat": -7.3041}}, {"id": 8072429, "name": "Cimalati", "state": "", "country": "ID", "coord": {"lon": 108.647102, "lat": -7.3056}}, {"id": 8072444, "name": "Babakan", "state": "", "country": "ID", "coord": {"lon": 108.640503, "lat": -7.3657}}, {"id": 8072446, "name": "Sinargalih", "state": "", "country": "ID", "coord": {"lon": 108.638199, "lat": -7.3574}}, {"id": 8072448, "name": "Sukahurip", "state": "", "country": "ID", "coord": {"lon": 108.636299, "lat": -7.3521}}, {"id": 8072450, "name": "Karanganyar", "state": "", "country": "ID", "coord": {"lon": 108.644997, "lat": -7.3314}}, {"id": 8072491, "name": "Cintaratu", "state": "", "country": "ID", "coord": {"lon": 108.678902, "lat": -7.3715}}, {"id": 8072494, "name": "Sogati", "state": "", "country": "ID", "coord": {"lon": 108.683296, "lat": -7.3279}}, {"id": 8072496, "name": "Cihandiwung Lor", "state": "", "country": "ID", "coord": {"lon": 108.689827, "lat": -7.33371}}, {"id": 8072503, "name": "Winangun", "state": "", "country": "ID", "coord": {"lon": 108.702599, "lat": -7.3572}}, {"id": 8072868, "name": "Merkaz Shapira", "state": "", "country": "IL", "coord": {"lon": 34.707039, "lat": 31.696421}}, {"id": 8073072, "name": "\u2018Ayn S\u0101rah", "state": "", "country": "PS", "coord": {"lon": 35.09882, "lat": 31.536489}}, {"id": 8073123, "name": "Pacing", "state": "", "country": "ID", "coord": {"lon": 111.533096, "lat": -6.766}}, {"id": 8073125, "name": "Ngulahan", "state": "", "country": "ID", "coord": {"lon": 111.527199, "lat": -6.7614}}, {"id": 8073126, "name": "Bangunrejo", "state": "", "country": "ID", "coord": {"lon": 111.514999, "lat": -6.7751}}, {"id": 8073138, "name": "Bamban", "state": "", "country": "ID", "coord": {"lon": 111.519402, "lat": -6.7936}}, {"id": 8073139, "name": "Ukir", "state": "", "country": "ID", "coord": {"lon": 111.511703, "lat": -6.8042}}, {"id": 8073140, "name": "Rendeng", "state": "", "country": "ID", "coord": {"lon": 111.513702, "lat": -6.8099}}, {"id": 8073151, "name": "Tengger", "state": "", "country": "ID", "coord": {"lon": 111.5438, "lat": -6.8371}}, {"id": 8073162, "name": "Dowan", "state": "", "country": "ID", "coord": {"lon": 111.504303, "lat": -6.8396}}, {"id": 8073164, "name": "Suntri", "state": "", "country": "ID", "coord": {"lon": 111.508102, "lat": -6.8475}}, {"id": 8073167, "name": "Tegaldowo", "state": "", "country": "ID", "coord": {"lon": 111.503197, "lat": -6.8563}}, {"id": 8073168, "name": "Jatirego", "state": "", "country": "ID", "coord": {"lon": 111.520401, "lat": -6.8401}}, {"id": 8073173, "name": "Nglojo", "state": "", "country": "ID", "coord": {"lon": 111.615997, "lat": -6.7501}}, {"id": 8073182, "name": "Gobreh", "state": "", "country": "ID", "coord": {"lon": 111.594498, "lat": -6.7559}}, {"id": 8073187, "name": "Kedungdowo", "state": "", "country": "ID", "coord": {"lon": 111.5765, "lat": -6.7625}}, {"id": 8073197, "name": "Krajankaras", "state": "", "country": "ID", "coord": {"lon": 111.556602, "lat": -6.7782}}, {"id": 8073205, "name": "Mangseng", "state": "", "country": "ID", "coord": {"lon": 111.565903, "lat": -6.7794}}, {"id": 8073212, "name": "Gesikan", "state": "", "country": "ID", "coord": {"lon": 111.571198, "lat": -6.7785}}, {"id": 8073213, "name": "Sambirata", "state": "", "country": "ID", "coord": {"lon": 111.574402, "lat": -6.7859}}, {"id": 8073224, "name": "Krajan Lodan Kulon", "state": "", "country": "ID", "coord": {"lon": 111.606598, "lat": -6.7841}}, {"id": 8073229, "name": "Tanggulangin", "state": "", "country": "ID", "coord": {"lon": 111.613297, "lat": -6.7628}}, {"id": 8073230, "name": "Selo", "state": "", "country": "ID", "coord": {"lon": 111.609596, "lat": -6.7664}}, {"id": 8073238, "name": "Wonokerto", "state": "", "country": "ID", "coord": {"lon": 111.584801, "lat": -6.8526}}, {"id": 8073246, "name": "Kebonharjo", "state": "", "country": "ID", "coord": {"lon": 111.624702, "lat": -6.864}}, {"id": 8073253, "name": "Krajan Sale", "state": "", "country": "ID", "coord": {"lon": 111.606697, "lat": -6.8617}}, {"id": 8073255, "name": "Joho", "state": "", "country": "ID", "coord": {"lon": 111.586098, "lat": -6.8664}}, {"id": 8073281, "name": "Haixi", "state": "", "country": "CN", "coord": {"lon": 97.356216, "lat": 37.368858}}, {"id": 8073497, "name": "Kaduluhur", "state": "", "country": "ID", "coord": {"lon": 108.6334, "lat": -7.1928}}, {"id": 8073521, "name": "Palugon", "state": "", "country": "ID", "coord": {"lon": 108.6735, "lat": -7.2319}}, {"id": 8073566, "name": "Sindangjati", "state": "", "country": "ID", "coord": {"lon": 108.7435, "lat": -7.2435}}, {"id": 8073574, "name": "Gunungjaya", "state": "", "country": "ID", "coord": {"lon": 108.741997, "lat": -7.1834}}, {"id": 8073577, "name": "Salanegara", "state": "", "country": "ID", "coord": {"lon": 108.743301, "lat": -7.1616}}, {"id": 8073614, "name": "Keluke", "state": "", "country": "CN", "coord": {"lon": 97.134567, "lat": 37.321289}}, {"id": 8073621, "name": "Krajanpondong", "state": "", "country": "ID", "coord": {"lon": 111.563881, "lat": -6.75307}}, {"id": 8073623, "name": "Pakis", "state": "", "country": "ID", "coord": {"lon": 111.509331, "lat": -6.82439}}, {"id": 8073766, "name": "Dukuhmaja", "state": "", "country": "ID", "coord": {"lon": 108.648201, "lat": -7.0082}}, {"id": 8073772, "name": "Pakusari", "state": "", "country": "ID", "coord": {"lon": 108.710602, "lat": -7.0041}}, {"id": 8073784, "name": "Luragung Tonggoh", "state": "", "country": "ID", "coord": {"lon": 108.635902, "lat": -7.0208}}, {"id": 8073787, "name": "Sindangsuka", "state": "", "country": "ID", "coord": {"lon": 108.632896, "lat": -7.0103}}, {"id": 8073791, "name": "Cikadu Wetan", "state": "", "country": "ID", "coord": {"lon": 108.665802, "lat": -7.0199}}, {"id": 8073792, "name": "Cileuya", "state": "", "country": "ID", "coord": {"lon": 108.675201, "lat": -7.0257}}, {"id": 8073793, "name": "Cimulya", "state": "", "country": "ID", "coord": {"lon": 108.7257, "lat": -7.0202}}, {"id": 8073801, "name": "Cigedang", "state": "", "country": "ID", "coord": {"lon": 108.635201, "lat": -7.028}}, {"id": 8073802, "name": "Sindangsari", "state": "", "country": "ID", "coord": {"lon": 108.625298, "lat": -7.0309}}, {"id": 8073803, "name": "Wilanagara", "state": "", "country": "ID", "coord": {"lon": 108.626297, "lat": -7.0378}}, {"id": 8073804, "name": "Baok", "state": "", "country": "ID", "coord": {"lon": 108.638702, "lat": -7.0386}}, {"id": 8073805, "name": "Andamui", "state": "", "country": "ID", "coord": {"lon": 108.652397, "lat": -7.0379}}, {"id": 8073812, "name": "Cirangrang", "state": "", "country": "ID", "coord": {"lon": 108.721497, "lat": -7.0376}}, {"id": 8073814, "name": "Cisaat", "state": "", "country": "ID", "coord": {"lon": 108.747902, "lat": -7.0351}}, {"id": 8073816, "name": "Parenca Wetan", "state": "", "country": "ID", "coord": {"lon": 108.729301, "lat": -7.0442}}, {"id": 8073827, "name": "Dukuhpicung", "state": "", "country": "ID", "coord": {"lon": 108.628304, "lat": -7.0437}}, {"id": 8073829, "name": "Karangbaru", "state": "", "country": "ID", "coord": {"lon": 108.637299, "lat": -7.0573}}, {"id": 8073837, "name": "Randusari", "state": "", "country": "ID", "coord": {"lon": 108.708603, "lat": -7.0545}}, {"id": 8073848, "name": "Sukagalih", "state": "", "country": "ID", "coord": {"lon": 108.680199, "lat": -7.0621}}, {"id": 8073856, "name": "Kawungsari", "state": "", "country": "ID", "coord": {"lon": 108.695702, "lat": -7.0678}}, {"id": 8073859, "name": "Gembol", "state": "", "country": "ID", "coord": {"lon": 108.729301, "lat": -7.0739}}, {"id": 8073862, "name": "Ciangir", "state": "", "country": "ID", "coord": {"lon": 108.746399, "lat": -7.0791}}, {"id": 8073873, "name": "Sukarapih", "state": "", "country": "ID", "coord": {"lon": 108.717598, "lat": -7.0841}}, {"id": 8073879, "name": "Karangkancana", "state": "", "country": "ID", "coord": {"lon": 108.657501, "lat": -7.0943}}, {"id": 8073880, "name": "Kaduagung", "state": "", "country": "ID", "coord": {"lon": 108.657204, "lat": -7.0999}}, {"id": 8073887, "name": "Margacina", "state": "", "country": "ID", "coord": {"lon": 108.644897, "lat": -7.1108}}, {"id": 8073888, "name": "Sagara", "state": "", "country": "ID", "coord": {"lon": 108.6399, "lat": -7.1115}}, {"id": 8073894, "name": "Jabranti", "state": "", "country": "ID", "coord": {"lon": 108.678001, "lat": -7.1198}}, {"id": 8073998, "name": "Jurangjero", "state": "", "country": "ID", "coord": {"lon": 111.500397, "lat": -6.9035}}, {"id": 8074007, "name": "Krajan Jamprong", "state": "", "country": "ID", "coord": {"lon": 111.6157, "lat": -6.9604}}, {"id": 8074012, "name": "Jeruk", "state": "", "country": "ID", "coord": {"lon": 111.507004, "lat": -6.9386}}, {"id": 8074026, "name": "Jiworejo", "state": "", "country": "ID", "coord": {"lon": 111.507599, "lat": -6.9815}}, {"id": 8074035, "name": "Singonegoro", "state": "", "country": "ID", "coord": {"lon": 111.5242, "lat": -6.9776}}, {"id": 8074038, "name": "Banyubang", "state": "", "country": "ID", "coord": {"lon": 111.523598, "lat": -6.9505}}, {"id": 8074041, "name": "Gembol", "state": "", "country": "ID", "coord": {"lon": 111.5383, "lat": -6.9468}}, {"id": 8074046, "name": "Gayamdesa", "state": "", "country": "ID", "coord": {"lon": 111.541801, "lat": -6.9257}}, {"id": 8074047, "name": "Wanutengah", "state": "", "country": "ID", "coord": {"lon": 111.5298, "lat": -6.9248}}, {"id": 8074048, "name": "Blimbing", "state": "", "country": "ID", "coord": {"lon": 111.5355, "lat": -6.9116}}, {"id": 8074062, "name": "Gading Barat", "state": "", "country": "ID", "coord": {"lon": 111.559898, "lat": -6.8803}}, {"id": 8074068, "name": "Jinanten", "state": "", "country": "ID", "coord": {"lon": 111.572998, "lat": -6.8756}}, {"id": 8074071, "name": "Tahunan", "state": "", "country": "ID", "coord": {"lon": 111.553001, "lat": -6.885}}, {"id": 8074075, "name": "Sendangrejo", "state": "", "country": "ID", "coord": {"lon": 111.559097, "lat": -6.9191}}, {"id": 8074085, "name": "Ketringan", "state": "", "country": "ID", "coord": {"lon": 111.559998, "lat": -6.9617}}, {"id": 8074096, "name": "Sukogunungkrajan", "state": "", "country": "ID", "coord": {"lon": 111.595001, "lat": -6.9399}}, {"id": 8074097, "name": "Jlodro", "state": "", "country": "ID", "coord": {"lon": 111.5839, "lat": -6.9274}}, {"id": 8074101, "name": "Kaliprak", "state": "", "country": "ID", "coord": {"lon": 111.583, "lat": -6.8864}}, {"id": 8074102, "name": "Bancang", "state": "", "country": "ID", "coord": {"lon": 111.5989, "lat": -6.8852}}, {"id": 8074105, "name": "Tawaran", "state": "", "country": "ID", "coord": {"lon": 111.610901, "lat": -6.9099}}, {"id": 8074164, "name": "Y\u00fckseli\u015f", "state": "", "country": "TR", "coord": {"lon": 30.692301, "lat": 36.91283}}, {"id": 8074297, "name": "Pasanggrahan", "state": "", "country": "ID", "coord": {"lon": 108.871017, "lat": -7.38358}}, {"id": 8074298, "name": "Pangawaren", "state": "", "country": "ID", "coord": {"lon": 108.869499, "lat": -7.3878}}, {"id": 8074326, "name": "Cibatu", "state": "", "country": "ID", "coord": {"lon": 108.759697, "lat": -7.4069}}, {"id": 8074334, "name": "Karangtengah", "state": "", "country": "ID", "coord": {"lon": 108.761398, "lat": -7.4429}}, {"id": 8074338, "name": "Prumpung", "state": "", "country": "ID", "coord": {"lon": 108.763023, "lat": -7.46299}}, {"id": 8074342, "name": "Kedungwringin", "state": "", "country": "ID", "coord": {"lon": 108.767998, "lat": -7.4769}}, {"id": 8074347, "name": "Purwosari", "state": "", "country": "ID", "coord": {"lon": 108.782997, "lat": -7.3863}}, {"id": 8074363, "name": "Dukuhsawah", "state": "", "country": "ID", "coord": {"lon": 108.781799, "lat": -7.4418}}, {"id": 8074376, "name": "Citengah", "state": "", "country": "ID", "coord": {"lon": 108.776604, "lat": -7.4849}}, {"id": 8074385, "name": "Tawangsari", "state": "", "country": "ID", "coord": {"lon": 108.804398, "lat": -7.3961}}, {"id": 8074390, "name": "Gunungwilis", "state": "", "country": "ID", "coord": {"lon": 108.802902, "lat": -7.4201}}, {"id": 8074398, "name": "Cikalong", "state": "", "country": "ID", "coord": {"lon": 108.792099, "lat": -7.481}}, {"id": 8074399, "name": "Kauman", "state": "", "country": "ID", "coord": {"lon": 108.7864, "lat": -7.4801}}, {"id": 8074415, "name": "Cikondang", "state": "", "country": "ID", "coord": {"lon": 108.808899, "lat": -7.4736}}, {"id": 8074419, "name": "Sidamulya", "state": "", "country": "ID", "coord": {"lon": 108.804802, "lat": -7.4884}}, {"id": 8074420, "name": "Gendiwu", "state": "", "country": "ID", "coord": {"lon": 108.811501, "lat": -7.4898}}, {"id": 8074430, "name": "Karangsalam", "state": "", "country": "ID", "coord": {"lon": 108.827499, "lat": -7.4428}}, {"id": 8074437, "name": "Tambangan", "state": "", "country": "ID", "coord": {"lon": 108.821701, "lat": -7.486}}, {"id": 8074444, "name": "Cidadap", "state": "", "country": "ID", "coord": {"lon": 108.852501, "lat": -7.3976}}, {"id": 8074450, "name": "Rungkang", "state": "", "country": "ID", "coord": {"lon": 108.8526, "lat": -7.4363}}, {"id": 8074461, "name": "Ciloning", "state": "", "country": "ID", "coord": {"lon": 108.8517, "lat": -7.4746}}, {"id": 8074478, "name": "Karanggintung", "state": "", "country": "ID", "coord": {"lon": 108.859001, "lat": -7.4579}}, {"id": 8074527, "name": "Karangharjo", "state": "", "country": "ID", "coord": {"lon": 111.625397, "lat": -6.6994}}, {"id": 8074528, "name": "Karanglincak", "state": "", "country": "ID", "coord": {"lon": 111.628197, "lat": -6.7014}}, {"id": 8074529, "name": "Karanganyar", "state": "", "country": "ID", "coord": {"lon": 111.631203, "lat": -6.7041}}, {"id": 8074552, "name": "Kebloran", "state": "", "country": "ID", "coord": {"lon": 111.634598, "lat": -6.7065}}, {"id": 8074553, "name": "Tanjungan", "state": "", "country": "ID", "coord": {"lon": 111.635597, "lat": -6.7082}}, {"id": 8074560, "name": "Bajingmeduro", "state": "", "country": "ID", "coord": {"lon": 111.671898, "lat": -6.7392}}, {"id": 8074561, "name": "Sendangmulyo", "state": "", "country": "ID", "coord": {"lon": 111.667801, "lat": -6.7373}}, {"id": 8074562, "name": "Karangmangu", "state": "", "country": "ID", "coord": {"lon": 111.6744, "lat": -6.7416}}, {"id": 8074563, "name": "Bajingjowo", "state": "", "country": "ID", "coord": {"lon": 111.670898, "lat": -6.7411}}, {"id": 8074564, "name": "Temperak", "state": "", "country": "ID", "coord": {"lon": 111.679398, "lat": -6.7452}}, {"id": 8074567, "name": "Krajandadapmulyo", "state": "", "country": "ID", "coord": {"lon": 111.634201, "lat": -6.7485}}, {"id": 8074569, "name": "Gonggang", "state": "", "country": "ID", "coord": {"lon": 111.630302, "lat": -6.7357}}, {"id": 8074572, "name": "Ngilengan", "state": "", "country": "ID", "coord": {"lon": 111.633003, "lat": -6.7228}}, {"id": 8074600, "name": "Banowan", "state": "", "country": "ID", "coord": {"lon": 111.663597, "lat": -6.7565}}, {"id": 8074601, "name": "Krajanbaturno", "state": "", "country": "ID", "coord": {"lon": 111.6511, "lat": -6.7657}}, {"id": 8074677, "name": "Babak", "state": "", "country": "ID", "coord": {"lon": 111.643097, "lat": -6.7689}}, {"id": 8074682, "name": "Krajanbonjor", "state": "", "country": "ID", "coord": {"lon": 111.639397, "lat": -6.7839}}, {"id": 8074687, "name": "Sampung", "state": "", "country": "ID", "coord": {"lon": 111.652, "lat": -6.7838}}, {"id": 8074689, "name": "Tawangrejo", "state": "", "country": "ID", "coord": {"lon": 111.651604, "lat": -6.7934}}, {"id": 8074695, "name": "Kradenan", "state": "", "country": "ID", "coord": {"lon": 111.709503, "lat": -6.7669}}, {"id": 8074700, "name": "Banjarjo", "state": "", "country": "ID", "coord": {"lon": 111.7257, "lat": -6.7727}}, {"id": 8074703, "name": "Kelabang", "state": "", "country": "ID", "coord": {"lon": 111.727402, "lat": -6.7799}}, {"id": 8074706, "name": "Boncong", "state": "", "country": "ID", "coord": {"lon": 111.736298, "lat": -6.7725}}, {"id": 8074707, "name": "Bulumeduro", "state": "", "country": "ID", "coord": {"lon": 111.730301, "lat": -6.7722}}, {"id": 8074708, "name": "Siding", "state": "", "country": "ID", "coord": {"lon": 111.731003, "lat": -6.799}}, {"id": 8074711, "name": "Jahulu", "state": "", "country": "ID", "coord": {"lon": 111.745903, "lat": -6.8106}}, {"id": 8074715, "name": "Jatisari", "state": "", "country": "ID", "coord": {"lon": 111.739304, "lat": -6.8253}}, {"id": 8074716, "name": "Kayen", "state": "", "country": "ID", "coord": {"lon": 111.741096, "lat": -6.8253}}, {"id": 8074722, "name": "Ngujuran", "state": "", "country": "ID", "coord": {"lon": 111.693001, "lat": -6.8235}}, {"id": 8074726, "name": "Weden", "state": "", "country": "ID", "coord": {"lon": 111.678596, "lat": -6.8295}}, {"id": 8074728, "name": "Tengger", "state": "", "country": "ID", "coord": {"lon": 111.711502, "lat": -6.7954}}, {"id": 8074733, "name": "Latsari", "state": "", "country": "ID", "coord": {"lon": 111.691803, "lat": -6.7785}}, {"id": 8074734, "name": "Tlogoagung", "state": "", "country": "ID", "coord": {"lon": 111.670197, "lat": -6.778}}, {"id": 8074740, "name": "Ketodan", "state": "", "country": "ID", "coord": {"lon": 111.641998, "lat": -6.8497}}, {"id": 8074741, "name": "Wangi", "state": "", "country": "ID", "coord": {"lon": 111.631203, "lat": -6.8558}}, {"id": 8074744, "name": "Besowo", "state": "", "country": "ID", "coord": {"lon": 111.6558, "lat": -6.8508}}, {"id": 8074745, "name": "Bader", "state": "", "country": "ID", "coord": {"lon": 111.655296, "lat": -6.8667}}, {"id": 8074749, "name": "Dukuhdukuhan", "state": "", "country": "ID", "coord": {"lon": 111.715599, "lat": -6.868}}, {"id": 8074780, "name": "Krojo", "state": "", "country": "ID", "coord": {"lon": 111.6866, "lat": -6.8602}}, {"id": 8075122, "name": "Karangtengah", "state": "", "country": "ID", "coord": {"lon": 111.632202, "lat": -6.8791}}, {"id": 8075123, "name": "Paseyan", "state": "", "country": "ID", "coord": {"lon": 111.641296, "lat": -6.8752}}, {"id": 8075125, "name": "Jombok", "state": "", "country": "ID", "coord": {"lon": 111.645798, "lat": -6.8823}}, {"id": 8075129, "name": "Krajan Demit", "state": "", "country": "ID", "coord": {"lon": 111.689903, "lat": -6.8933}}, {"id": 8075132, "name": "Purwosari", "state": "", "country": "ID", "coord": {"lon": 111.661903, "lat": -6.8884}}, {"id": 8075136, "name": "Wotsogo", "state": "", "country": "ID", "coord": {"lon": 111.6539, "lat": -6.8898}}, {"id": 8075146, "name": "Dingil", "state": "", "country": "ID", "coord": {"lon": 111.708702, "lat": -6.9046}}, {"id": 8075153, "name": "Jetis", "state": "", "country": "ID", "coord": {"lon": 111.626297, "lat": -6.9122}}, {"id": 8075157, "name": "Balong", "state": "", "country": "ID", "coord": {"lon": 111.6595, "lat": -6.9119}}, {"id": 8075159, "name": "Muruni", "state": "", "country": "ID", "coord": {"lon": 111.675499, "lat": -6.9126}}, {"id": 8075171, "name": "Ngijo", "state": "", "country": "ID", "coord": {"lon": 111.685898, "lat": -6.919}}, {"id": 8075173, "name": "Ngancar", "state": "", "country": "ID", "coord": {"lon": 111.668098, "lat": -6.9217}}, {"id": 8075183, "name": "Tanggung", "state": "", "country": "ID", "coord": {"lon": 111.692802, "lat": -6.9365}}, {"id": 8075190, "name": "Karanggeneng", "state": "", "country": "ID", "coord": {"lon": 111.672096, "lat": -6.9386}}, {"id": 8075207, "name": "Banjarworo", "state": "", "country": "ID", "coord": {"lon": 111.715797, "lat": -6.9536}}, {"id": 8075208, "name": "Mundri", "state": "", "country": "ID", "coord": {"lon": 111.709999, "lat": -6.9558}}, {"id": 8075212, "name": "Nglateng Barat", "state": "", "country": "ID", "coord": {"lon": 111.643997, "lat": -6.9554}}, {"id": 8075217, "name": "Sumuragung", "state": "", "country": "ID", "coord": {"lon": 111.713203, "lat": -6.9641}}, {"id": 8075218, "name": "Kedungmulyo", "state": "", "country": "ID", "coord": {"lon": 111.719101, "lat": -6.9569}}, {"id": 8075223, "name": "Laju Kidul", "state": "", "country": "ID", "coord": {"lon": 111.747704, "lat": -6.9708}}, {"id": 8075232, "name": "Kejuron", "state": "", "country": "ID", "coord": {"lon": 111.685799, "lat": -6.9707}}, {"id": 8075240, "name": "Klakeh", "state": "", "country": "ID", "coord": {"lon": 111.685204, "lat": -6.9783}}, {"id": 8075245, "name": "Talok", "state": "", "country": "ID", "coord": {"lon": 111.710701, "lat": -6.9775}}, {"id": 8075246, "name": "Kablukan", "state": "", "country": "ID", "coord": {"lon": 111.709602, "lat": -6.9845}}, {"id": 8075247, "name": "Ngrojo", "state": "", "country": "ID", "coord": {"lon": 111.716904, "lat": -6.9817}}, {"id": 8075248, "name": "Kedungharjo", "state": "", "country": "ID", "coord": {"lon": 111.723, "lat": -6.9777}}, {"id": 8075249, "name": "Krajan Weden", "state": "", "country": "ID", "coord": {"lon": 111.722298, "lat": -6.9797}}, {"id": 8075472, "name": "Koshovniki", "state": "", "country": "BY", "coord": {"lon": 23.897301, "lat": 53.6506}}, {"id": 8075864, "name": "Ngembak", "state": "", "country": "ID", "coord": {"lon": 111.7677, "lat": -6.78}}, {"id": 8075865, "name": "Sembungin", "state": "", "country": "ID", "coord": {"lon": 111.753502, "lat": -6.7949}}, {"id": 8075871, "name": "Sedandang", "state": "", "country": "ID", "coord": {"lon": 111.763298, "lat": -6.8169}}, {"id": 8075875, "name": "Pugoh", "state": "", "country": "ID", "coord": {"lon": 111.769997, "lat": -6.8098}}, {"id": 8075879, "name": "Mojoroto", "state": "", "country": "ID", "coord": {"lon": 111.7798, "lat": -6.8117}}, {"id": 8075880, "name": "Simo", "state": "", "country": "ID", "coord": {"lon": 111.775101, "lat": -6.8213}}, {"id": 8075885, "name": "Dikir", "state": "", "country": "ID", "coord": {"lon": 111.778397, "lat": -6.8692}}, {"id": 8075892, "name": "Sriwing", "state": "", "country": "ID", "coord": {"lon": 111.790703, "lat": -6.825}}, {"id": 8075895, "name": "Plajan", "state": "", "country": "ID", "coord": {"lon": 111.784897, "lat": -6.8518}}, {"id": 8075902, "name": "Sruki", "state": "", "country": "ID", "coord": {"lon": 111.810402, "lat": -6.8073}}, {"id": 8075903, "name": "Cingklung", "state": "", "country": "ID", "coord": {"lon": 111.811699, "lat": -6.8114}}, {"id": 8075904, "name": "Pasatan", "state": "", "country": "ID", "coord": {"lon": 111.814598, "lat": -6.8227}}, {"id": 8075906, "name": "Belik", "state": "", "country": "ID", "coord": {"lon": 111.811501, "lat": -6.8297}}, {"id": 8075909, "name": "Gadon", "state": "", "country": "ID", "coord": {"lon": 111.833199, "lat": -6.8016}}, {"id": 8075910, "name": "Tanjang", "state": "", "country": "ID", "coord": {"lon": 111.820602, "lat": -6.8075}}, {"id": 8075913, "name": "Dukoh", "state": "", "country": "ID", "coord": {"lon": 111.823601, "lat": -6.8205}}, {"id": 8075920, "name": "Karangrejo", "state": "", "country": "ID", "coord": {"lon": 111.836304, "lat": -6.802}}, {"id": 8075923, "name": "Tawangrejo", "state": "", "country": "ID", "coord": {"lon": 111.843002, "lat": -6.8024}}, {"id": 8075924, "name": "Kenanti", "state": "", "country": "ID", "coord": {"lon": 111.849197, "lat": -6.8023}}, {"id": 8075925, "name": "Klutuk", "state": "", "country": "ID", "coord": {"lon": 111.838699, "lat": -6.8184}}, {"id": 8075926, "name": "Pesantren", "state": "", "country": "ID", "coord": {"lon": 111.844299, "lat": -6.8148}}, {"id": 8075930, "name": "Mekarsari", "state": "", "country": "ID", "coord": {"lon": 111.840202, "lat": -6.8696}}, {"id": 8075931, "name": "Jamong", "state": "", "country": "ID", "coord": {"lon": 111.855202, "lat": -6.8016}}, {"id": 8075932, "name": "Sobontoro", "state": "", "country": "ID", "coord": {"lon": 111.863503, "lat": -6.8006}}, {"id": 8075937, "name": "Sumberejo", "state": "", "country": "ID", "coord": {"lon": 111.8703, "lat": -6.8109}}, {"id": 8076037, "name": "Ngulahan", "state": "", "country": "ID", "coord": {"lon": 111.783401, "lat": -6.8771}}, {"id": 8076038, "name": "Gemulung", "state": "", "country": "ID", "coord": {"lon": 111.808296, "lat": -6.8788}}, {"id": 8076040, "name": "Sidomulyo", "state": "", "country": "ID", "coord": {"lon": 111.861, "lat": -6.8777}}, {"id": 8076043, "name": "Bawi Kulon", "state": "", "country": "ID", "coord": {"lon": 111.872803, "lat": -6.9322}}, {"id": 8076047, "name": "Tanggungrejo", "state": "", "country": "ID", "coord": {"lon": 111.852203, "lat": -6.9943}}, {"id": 8076049, "name": "Pandayan Dua", "state": "", "country": "ID", "coord": {"lon": 111.786499, "lat": -6.9966}}, {"id": 8076050, "name": "Tawangsari", "state": "", "country": "ID", "coord": {"lon": 111.774803, "lat": -6.9961}}, {"id": 8076055, "name": "Trantang", "state": "", "country": "ID", "coord": {"lon": 111.815804, "lat": -6.8896}}, {"id": 8076066, "name": "Sidonganti", "state": "", "country": "ID", "coord": {"lon": 111.821602, "lat": -6.9215}}, {"id": 8076071, "name": "Tengger", "state": "", "country": "ID", "coord": {"lon": 111.848602, "lat": -6.9183}}, {"id": 8076087, "name": "Guwoterus", "state": "", "country": "ID", "coord": {"lon": 111.827599, "lat": -6.9537}}, {"id": 8076090, "name": "Talangkembar", "state": "", "country": "ID", "coord": {"lon": 111.858704, "lat": -6.9573}}, {"id": 8076097, "name": "Mulyoagung", "state": "", "country": "ID", "coord": {"lon": 111.787804, "lat": -6.9649}}, {"id": 8076102, "name": "Ngablak", "state": "", "country": "ID", "coord": {"lon": 111.794998, "lat": -6.9732}}, {"id": 8076106, "name": "Nguluhan", "state": "", "country": "ID", "coord": {"lon": 111.835602, "lat": -6.9789}}, {"id": 8076108, "name": "Tanggir Timur", "state": "", "country": "ID", "coord": {"lon": 111.758698, "lat": -6.9809}}, {"id": 8076207, "name": "Bantarmangu", "state": "", "country": "ID", "coord": {"lon": 108.866096, "lat": -7.3393}}, {"id": 8076211, "name": "Cigintung", "state": "", "country": "ID", "coord": {"lon": 108.804298, "lat": -7.3743}}, {"id": 8076216, "name": "Mulyadadi", "state": "", "country": "ID", "coord": {"lon": 108.751297, "lat": -7.3205}}, {"id": 8076229, "name": "Cipasang", "state": "", "country": "ID", "coord": {"lon": 108.758499, "lat": -7.2704}}, {"id": 8076245, "name": "Jenang Selatan", "state": "", "country": "ID", "coord": {"lon": 108.759903, "lat": -7.3002}}, {"id": 8076249, "name": "Tanjungsari", "state": "", "country": "ID", "coord": {"lon": 108.767998, "lat": -7.3009}}, {"id": 8076251, "name": "Bojongsari", "state": "", "country": "ID", "coord": {"lon": 108.762604, "lat": -7.3109}}, {"id": 8076269, "name": "Walahir", "state": "", "country": "ID", "coord": {"lon": 108.783699, "lat": -7.2545}}, {"id": 8076288, "name": "Kutasari", "state": "", "country": "ID", "coord": {"lon": 108.782898, "lat": -7.3127}}, {"id": 8076290, "name": "Padangsari", "state": "", "country": "ID", "coord": {"lon": 108.778603, "lat": -7.3342}}, {"id": 8076311, "name": "Kubangwaru", "state": "", "country": "ID", "coord": {"lon": 108.8004, "lat": -7.3249}}, {"id": 8076328, "name": "Cipeusing", "state": "", "country": "ID", "coord": {"lon": 108.8116, "lat": -7.267}}, {"id": 8076353, "name": "Karangtengah Lor", "state": "", "country": "ID", "coord": {"lon": 108.804298, "lat": -7.3547}}, {"id": 8076362, "name": "Pesahangan", "state": "", "country": "ID", "coord": {"lon": 108.827698, "lat": -7.2786}}, {"id": 8076371, "name": "Telagasari", "state": "", "country": "ID", "coord": {"lon": 108.832802, "lat": -7.3065}}, {"id": 8076379, "name": "Cilempuyang", "state": "", "country": "ID", "coord": {"lon": 108.833298, "lat": -7.3421}}, {"id": 8076415, "name": "Cimanggu Wetan", "state": "", "country": "ID", "coord": {"lon": 108.8405, "lat": -7.3508}}, {"id": 8076419, "name": "Sindanghaji", "state": "", "country": "ID", "coord": {"lon": 108.855698, "lat": -7.3608}}, {"id": 8076491, "name": "Ngluwuk", "state": "", "country": "ID", "coord": {"lon": 111.875198, "lat": -6.8775}}, {"id": 8076492, "name": "Sendang", "state": "", "country": "ID", "coord": {"lon": 112.002052, "lat": -6.8767}}, {"id": 8076495, "name": "Margorejo", "state": "", "country": "ID", "coord": {"lon": 111.877296, "lat": -6.892}}, {"id": 8076502, "name": "Sumberarum", "state": "", "country": "ID", "coord": {"lon": 111.892303, "lat": -6.8767}}, {"id": 8076505, "name": "Karangmulyo", "state": "", "country": "ID", "coord": {"lon": 111.9076, "lat": -6.8902}}, {"id": 8076508, "name": "Padasan", "state": "", "country": "ID", "coord": {"lon": 111.903603, "lat": -6.9037}}, {"id": 8076509, "name": "Temayang", "state": "", "country": "ID", "coord": {"lon": 111.889702, "lat": -6.9039}}, {"id": 8076511, "name": "Pucangan", "state": "", "country": "ID", "coord": {"lon": 111.900497, "lat": -6.9442}}, {"id": 8076513, "name": "Pakel", "state": "", "country": "ID", "coord": {"lon": 111.896896, "lat": -6.9567}}, {"id": 8076515, "name": "Bean", "state": "", "country": "ID", "coord": {"lon": 111.901299, "lat": -6.9638}}, {"id": 8076519, "name": "Jetak", "state": "", "country": "ID", "coord": {"lon": 111.906998, "lat": -6.9562}}, {"id": 8076520, "name": "Talun", "state": "", "country": "ID", "coord": {"lon": 111.9179, "lat": -6.9535}}, {"id": 8076538, "name": "Sambonggede", "state": "", "country": "ID", "coord": {"lon": 111.9842, "lat": -6.8752}}, {"id": 8076542, "name": "Kapu", "state": "", "country": "ID", "coord": {"lon": 111.988503, "lat": -6.8888}}, {"id": 8076549, "name": "Jadi", "state": "", "country": "ID", "coord": {"lon": 111.991798, "lat": -6.9603}}, {"id": 8076551, "name": "Pelang", "state": "", "country": "ID", "coord": {"lon": 111.993202, "lat": -6.8956}}, {"id": 8076629, "name": "Minchuki", "state": "", "country": "BY", "coord": {"lon": 23.9538, "lat": 53.122501}}, {"id": 8076797, "name": "Balekambang", "state": "", "country": "ID", "coord": {"lon": 108.766098, "lat": -7.2319}}, {"id": 8076817, "name": "Kandayakan Satu", "state": "", "country": "ID", "coord": {"lon": 108.7827, "lat": -7.137}}, {"id": 8076820, "name": "Cisitu", "state": "", "country": "ID", "coord": {"lon": 108.798981, "lat": -7.14188}}, {"id": 8076841, "name": "Cogreg", "state": "", "country": "ID", "coord": {"lon": 108.801697, "lat": -7.1474}}, {"id": 8076842, "name": "Bentar", "state": "", "country": "ID", "coord": {"lon": 108.809502, "lat": -7.1506}}, {"id": 8076843, "name": "Bentarsari", "state": "", "country": "ID", "coord": {"lon": 108.816101, "lat": -7.1539}}, {"id": 8076848, "name": "Ganggawang", "state": "", "country": "ID", "coord": {"lon": 108.8172, "lat": -7.1637}}, {"id": 8076853, "name": "Salem Kidul", "state": "", "country": "ID", "coord": {"lon": 108.804001, "lat": -7.1855}}, {"id": 8076866, "name": "Ciputih", "state": "", "country": "ID", "coord": {"lon": 108.823097, "lat": -7.1564}}, {"id": 8076873, "name": "Legoknyenang", "state": "", "country": "ID", "coord": {"lon": 108.829498, "lat": -7.174}}, {"id": 8076875, "name": "Gununglarang", "state": "", "country": "ID", "coord": {"lon": 108.830902, "lat": -7.197}}, {"id": 8076877, "name": "Legok", "state": "", "country": "ID", "coord": {"lon": 108.830101, "lat": -7.2174}}, {"id": 8076886, "name": "Gandoang", "state": "", "country": "ID", "coord": {"lon": 108.843597, "lat": -7.1668}}, {"id": 8076897, "name": "Citimbang", "state": "", "country": "ID", "coord": {"lon": 108.856697, "lat": -7.1894}}, {"id": 8076902, "name": "Sukasari", "state": "", "country": "ID", "coord": {"lon": 108.860703, "lat": -7.2346}}, {"id": 8077353, "name": "Soroki", "state": "", "country": "BY", "coord": {"lon": 24.5091, "lat": 53.508701}}, {"id": 8077621, "name": "Kasiman", "state": "", "country": "ID", "coord": {"lon": 111.8862, "lat": -6.8741}}, {"id": 8077623, "name": "Mliwang", "state": "", "country": "ID", "coord": {"lon": 111.890999, "lat": -6.8337}}, {"id": 8077624, "name": "Merkawang", "state": "", "country": "ID", "coord": {"lon": 111.888802, "lat": -6.8075}}, {"id": 8077627, "name": "Wadung", "state": "", "country": "ID", "coord": {"lon": 111.985298, "lat": -6.8144}}, {"id": 8077629, "name": "Karangasem", "state": "", "country": "ID", "coord": {"lon": 111.891602, "lat": -6.8057}}, {"id": 8077633, "name": "Temuji", "state": "", "country": "ID", "coord": {"lon": 111.9161, "lat": -6.7919}}, {"id": 8077637, "name": "Tlogowaru", "state": "", "country": "ID", "coord": {"lon": 111.923698, "lat": -6.8528}}, {"id": 8077639, "name": "Sumber", "state": "", "country": "ID", "coord": {"lon": 111.983101, "lat": -6.8596}}, {"id": 8077642, "name": "Tobo", "state": "", "country": "ID", "coord": {"lon": 111.932999, "lat": -6.8375}}, {"id": 8077644, "name": "Temandangjero", "state": "", "country": "ID", "coord": {"lon": 111.933502, "lat": -6.8626}}, {"id": 8077648, "name": "Pongpongan", "state": "", "country": "ID", "coord": {"lon": 111.945602, "lat": -6.8715}}, {"id": 8077651, "name": "Banaran", "state": "", "country": "ID", "coord": {"lon": 111.956497, "lat": -6.8617}}, {"id": 8077652, "name": "Sugihan", "state": "", "country": "ID", "coord": {"lon": 111.951302, "lat": -6.8406}}, {"id": 8077654, "name": "Suwalan", "state": "", "country": "ID", "coord": {"lon": 111.981003, "lat": -6.8428}}, {"id": 8077656, "name": "Remen", "state": "", "country": "ID", "coord": {"lon": 111.963303, "lat": -6.7739}}, {"id": 8077658, "name": "Sumurgeneng", "state": "", "country": "ID", "coord": {"lon": 111.960899, "lat": -6.8012}}, {"id": 8077661, "name": "Tuwiri Kulon", "state": "", "country": "ID", "coord": {"lon": 111.971703, "lat": -6.8733}}, {"id": 8077663, "name": "Borehbangle", "state": "", "country": "ID", "coord": {"lon": 111.970596, "lat": -6.8665}}, {"id": 8077668, "name": "Mentoso", "state": "", "country": "ID", "coord": {"lon": 111.981102, "lat": -6.7941}}, {"id": 8077669, "name": "Rawasan", "state": "", "country": "ID", "coord": {"lon": 111.977997, "lat": -6.7969}}, {"id": 8077968, "name": "Citenjo", "state": "", "country": "ID", "coord": {"lon": 108.756302, "lat": -7.044}}, {"id": 8077972, "name": "Kliwon Cibingbin", "state": "", "country": "ID", "coord": {"lon": 108.759201, "lat": -7.0583}}, {"id": 8077973, "name": "Sukasari", "state": "", "country": "ID", "coord": {"lon": 108.751099, "lat": -7.0557}}, {"id": 8077974, "name": "Sindangjawa", "state": "", "country": "ID", "coord": {"lon": 108.752296, "lat": -7.0652}}, {"id": 8077985, "name": "Cipanjang", "state": "", "country": "ID", "coord": {"lon": 108.811699, "lat": -7.0645}}, {"id": 8077988, "name": "Bandungsari", "state": "", "country": "ID", "coord": {"lon": 108.820503, "lat": -7.0771}}, {"id": 8078001, "name": "Dukuhkopi", "state": "", "country": "ID", "coord": {"lon": 108.837502, "lat": -7.0142}}, {"id": 8078008, "name": "Kertasari", "state": "", "country": "ID", "coord": {"lon": 108.829002, "lat": -7.0685}}, {"id": 8078012, "name": "Blandongan", "state": "", "country": "ID", "coord": {"lon": 108.837799, "lat": -7.0886}}, {"id": 8078021, "name": "Pamedaran", "state": "", "country": "ID", "coord": {"lon": 108.8647, "lat": -7.068}}, {"id": 8078414, "name": "Kuti", "state": "", "country": "ID", "coord": {"lon": 112.016403, "lat": -6.8791}}, {"id": 8078420, "name": "Krajan Karangsari", "state": "", "country": "ID", "coord": {"lon": 112.038696, "lat": -6.8843}}, {"id": 8078425, "name": "Paloh", "state": "", "country": "ID", "coord": {"lon": 112.054199, "lat": -6.8894}}, {"id": 8078428, "name": "Karangsari", "state": "", "country": "ID", "coord": {"lon": 112.049454, "lat": -6.88543}}, {"id": 8078444, "name": "Latsari", "state": "", "country": "ID", "coord": {"lon": 112.046097, "lat": -6.8928}}, {"id": 8078447, "name": "Kranggan", "state": "", "country": "ID", "coord": {"lon": 112.052803, "lat": -6.8943}}, {"id": 8078454, "name": "Kajongan", "state": "", "country": "ID", "coord": {"lon": 112.060402, "lat": -6.8933}}, {"id": 8078456, "name": "Kutorejo", "state": "", "country": "ID", "coord": {"lon": 112.062897, "lat": -6.8942}}, {"id": 8078462, "name": "Sendangharjo", "state": "", "country": "ID", "coord": {"lon": 112.0681, "lat": -6.8946}}, {"id": 8078465, "name": "Kuncen", "state": "", "country": "ID", "coord": {"lon": 112.070702, "lat": -6.8983}}, {"id": 8078467, "name": "Sukolilo", "state": "", "country": "ID", "coord": {"lon": 112.077202, "lat": -6.896}}, {"id": 8078469, "name": "Panyuran", "state": "", "country": "ID", "coord": {"lon": 112.087502, "lat": -6.898}}, {"id": 8078477, "name": "Krandenan", "state": "", "country": "ID", "coord": {"lon": 112.119202, "lat": -6.9024}}, {"id": 8078478, "name": "Sumurgung", "state": "", "country": "ID", "coord": {"lon": 112.106003, "lat": -6.9082}}, {"id": 8078480, "name": "Prambatan", "state": "", "country": "ID", "coord": {"lon": 112.0942, "lat": -6.8997}}, {"id": 8078488, "name": "Kebonsari", "state": "", "country": "ID", "coord": {"lon": 112.064499, "lat": -6.9044}}, {"id": 8078491, "name": "Sidomukti", "state": "", "country": "ID", "coord": {"lon": 112.058197, "lat": -6.9027}}, {"id": 8078493, "name": "Merik", "state": "", "country": "ID", "coord": {"lon": 112.049301, "lat": -6.9021}}, {"id": 8078495, "name": "Kembangbilo", "state": "", "country": "ID", "coord": {"lon": 112.028397, "lat": -6.9031}}, {"id": 8078497, "name": "Sugiharjo", "state": "", "country": "ID", "coord": {"lon": 112.016296, "lat": -6.9013}}, {"id": 8078499, "name": "Bonggol Satu", "state": "", "country": "ID", "coord": {"lon": 112.010101, "lat": -6.9011}}, {"id": 8078501, "name": "Taraan", "state": "", "country": "ID", "coord": {"lon": 112.003197, "lat": -6.9046}}, {"id": 8078505, "name": "Boto", "state": "", "country": "ID", "coord": {"lon": 112.001701, "lat": -6.9159}}, {"id": 8078507, "name": "Tegalagung", "state": "", "country": "ID", "coord": {"lon": 112.050201, "lat": -6.9137}}, {"id": 8078509, "name": "Karang", "state": "", "country": "ID", "coord": {"lon": 112.055801, "lat": -6.9086}}, {"id": 8078512, "name": "Krajan Bejagung", "state": "", "country": "ID", "coord": {"lon": 112.063698, "lat": -6.916}}, {"id": 8078513, "name": "Gedongombo", "state": "", "country": "ID", "coord": {"lon": 112.064697, "lat": -6.9094}}, {"id": 8078523, "name": "Semanding Barat", "state": "", "country": "ID", "coord": {"lon": 112.064796, "lat": -6.9258}}, {"id": 8078524, "name": "Bejagung Kidul", "state": "", "country": "ID", "coord": {"lon": 112.063599, "lat": -6.9205}}, {"id": 8078527, "name": "Pericik", "state": "", "country": "ID", "coord": {"lon": 112.0522, "lat": -6.9229}}, {"id": 8078533, "name": "Jadikrajan", "state": "", "country": "ID", "coord": {"lon": 112.003601, "lat": -6.9292}}, {"id": 8078538, "name": "Bandaran", "state": "", "country": "ID", "coord": {"lon": 112.056999, "lat": -6.9278}}, {"id": 8078541, "name": "Banjarsari", "state": "", "country": "ID", "coord": {"lon": 112.0989, "lat": -6.9286}}, {"id": 8078542, "name": "Dawung", "state": "", "country": "ID", "coord": {"lon": 112.111702, "lat": -6.9291}}, {"id": 8078546, "name": "Kebondempet", "state": "", "country": "ID", "coord": {"lon": 112.100403, "lat": -6.9405}}, {"id": 8078550, "name": "Penambangan", "state": "", "country": "ID", "coord": {"lon": 112.060898, "lat": -6.9379}}, {"id": 8078552, "name": "Krajan Prunggahan Wetan", "state": "", "country": "ID", "coord": {"lon": 112.0494, "lat": -6.9381}}, {"id": 8078564, "name": "Kowang Utara", "state": "", "country": "ID", "coord": {"lon": 112.086403, "lat": -6.9439}}, {"id": 8078577, "name": "Krajan Genaharjo", "state": "", "country": "ID", "coord": {"lon": 112.070702, "lat": -6.9631}}, {"id": 8078584, "name": "Gesing", "state": "", "country": "ID", "coord": {"lon": 112.1092, "lat": -6.9646}}, {"id": 8078595, "name": "Drudikrajan", "state": "", "country": "ID", "coord": {"lon": 112.062599, "lat": -6.9771}}, {"id": 8078975, "name": "Bakung Utara", "state": "", "country": "ID", "coord": {"lon": 112.070396, "lat": -8.2537}}, {"id": 8078977, "name": "Bakung", "state": "", "country": "ID", "coord": {"lon": 112.072601, "lat": -8.2588}}, {"id": 8078983, "name": "Sumberdadi", "state": "", "country": "ID", "coord": {"lon": 112.064102, "lat": -8.2615}}, {"id": 8078990, "name": "Apakbranjang", "state": "", "country": "ID", "coord": {"lon": 112.018799, "lat": -8.2671}}, {"id": 8078993, "name": "Plandirejo", "state": "", "country": "ID", "coord": {"lon": 112.032402, "lat": -8.2667}}, {"id": 8078994, "name": "Tumpakoyot", "state": "", "country": "ID", "coord": {"lon": 112.040901, "lat": -8.2706}}, {"id": 8078999, "name": "Kalimeneng", "state": "", "country": "ID", "coord": {"lon": 112.090302, "lat": -8.2843}}, {"id": 8079000, "name": "Kedunggajul", "state": "", "country": "ID", "coord": {"lon": 112.076302, "lat": -8.2852}}, {"id": 8079009, "name": "Tumpakkepuh", "state": "", "country": "ID", "coord": {"lon": 112.106903, "lat": -8.2913}}, {"id": 8079108, "name": "Gununggede", "state": "", "country": "ID", "coord": {"lon": 112.170097, "lat": -8.2537}}, {"id": 8079121, "name": "Ngadipuro", "state": "", "country": "ID", "coord": {"lon": 112.230904, "lat": -8.2706}}, {"id": 8079125, "name": "Kaligrenjeng", "state": "", "country": "ID", "coord": {"lon": 112.129204, "lat": -8.2739}}, {"id": 8079140, "name": "Tambakrejo", "state": "", "country": "ID", "coord": {"lon": 112.142899, "lat": -8.3111}}, {"id": 8079196, "name": "Balerejo", "state": "", "country": "ID", "coord": {"lon": 112.300003, "lat": -8.2542}}, {"id": 8079219, "name": "Sumbersih", "state": "", "country": "ID", "coord": {"lon": 112.259697, "lat": -8.3249}}, {"id": 8079245, "name": "Sukorejo", "state": "", "country": "ID", "coord": {"lon": 112.360802, "lat": -8.2754}}, {"id": 8079246, "name": "Ringinrejo", "state": "", "country": "ID", "coord": {"lon": 112.348297, "lat": -8.2765}}, {"id": 8079255, "name": "Kaligambir", "state": "", "country": "ID", "coord": {"lon": 112.276001, "lat": -8.279}}, {"id": 8079264, "name": "Purworejo", "state": "", "country": "ID", "coord": {"lon": 112.322701, "lat": -8.2685}}, {"id": 8079266, "name": "Tulungrejo", "state": "", "country": "ID", "coord": {"lon": 112.3302, "lat": -8.2697}}, {"id": 8079363, "name": "Zuobude", "state": "", "country": "CN", "coord": {"lon": 86.303001, "lat": 28.003}}, {"id": 8079534, "name": "Wates", "state": "", "country": "ID", "coord": {"lon": 112.376297, "lat": -8.2538}}, {"id": 8079569, "name": "Palingi", "state": "", "country": "UG", "coord": {"lon": 31.72566, "lat": 1.75561}}, {"id": 8079863, "name": "Cendoro Utara", "state": "", "country": "ID", "coord": {"lon": 112.134598, "lat": -6.9294}}, {"id": 8079872, "name": "Pucangkrajan", "state": "", "country": "ID", "coord": {"lon": 112.141197, "lat": -6.9222}}, {"id": 8079877, "name": "Bogorejo", "state": "", "country": "ID", "coord": {"lon": 112.148499, "lat": -6.9077}}, {"id": 8079881, "name": "Leran Kulon", "state": "", "country": "ID", "coord": {"lon": 112.150703, "lat": -6.923}}, {"id": 8079883, "name": "Ngimbang", "state": "", "country": "ID", "coord": {"lon": 112.143898, "lat": -6.9635}}, {"id": 8079886, "name": "Leran Wetan", "state": "", "country": "ID", "coord": {"lon": 112.154297, "lat": -6.923}}, {"id": 8079891, "name": "Banjaranyar", "state": "", "country": "ID", "coord": {"lon": 112.153801, "lat": -6.9013}}, {"id": 8079895, "name": "Karangagung Timur", "state": "", "country": "ID", "coord": {"lon": 112.167702, "lat": -6.8997}}, {"id": 8079899, "name": "Wangun", "state": "", "country": "ID", "coord": {"lon": 112.166298, "lat": -6.929}}, {"id": 8079902, "name": "Sumberjo", "state": "", "country": "ID", "coord": {"lon": 112.166801, "lat": -6.9977}}, {"id": 8079905, "name": "Karang Lor", "state": "", "country": "ID", "coord": {"lon": 112.1707, "lat": -6.9203}}, {"id": 8079907, "name": "Pliwetan", "state": "", "country": "ID", "coord": {"lon": 112.1716, "lat": -6.9042}}, {"id": 8079908, "name": "Tambakrejo", "state": "", "country": "ID", "coord": {"lon": 112.175301, "lat": -6.9002}}, {"id": 8079915, "name": "Setro", "state": "", "country": "ID", "coord": {"lon": 112.1875, "lat": -6.9241}}, {"id": 8079919, "name": "Sidomukti", "state": "", "country": "ID", "coord": {"lon": 112.1968, "lat": -6.9081}}, {"id": 8079926, "name": "Labuhan", "state": "", "country": "ID", "coord": {"lon": 112.205101, "lat": -6.8844}}, {"id": 8079928, "name": "Boho", "state": "", "country": "ID", "coord": {"lon": 112.209297, "lat": -6.9075}}, {"id": 8079930, "name": "Brengkok", "state": "", "country": "ID", "coord": {"lon": 112.217796, "lat": -6.8956}}, {"id": 8079932, "name": "Lembor", "state": "", "country": "ID", "coord": {"lon": 112.234703, "lat": -6.9277}}, {"id": 8079933, "name": "Dateng", "state": "", "country": "ID", "coord": {"lon": 112.2314, "lat": -6.9765}}, {"id": 8079935, "name": "Jabung", "state": "", "country": "ID", "coord": {"lon": 112.2295, "lat": -6.9963}}, {"id": 8079936, "name": "Gelap", "state": "", "country": "ID", "coord": {"lon": 112.237801, "lat": -6.9749}}, {"id": 8079939, "name": "Sendangharjo", "state": "", "country": "ID", "coord": {"lon": 112.241096, "lat": -6.9196}}, {"id": 8080003, "name": "Tlogosari", "state": "", "country": "ID", "coord": {"lon": 112.473297, "lat": -8.281}}, {"id": 8080017, "name": "Tugurejo Satu", "state": "", "country": "ID", "coord": {"lon": 112.380302, "lat": -8.289}}, {"id": 8080018, "name": "Kalisangkrah Lor", "state": "", "country": "ID", "coord": {"lon": 112.388496, "lat": -8.2852}}, {"id": 8080019, "name": "Krajan Kulon Purworejo", "state": "", "country": "ID", "coord": {"lon": 112.395203, "lat": -8.287}}, {"id": 8080044, "name": "Mentaraman Satu", "state": "", "country": "ID", "coord": {"lon": 112.424599, "lat": -8.3049}}, {"id": 8080047, "name": "Tempursarikrajan", "state": "", "country": "ID", "coord": {"lon": 112.439796, "lat": -8.3016}}, {"id": 8080055, "name": "Banjarejo", "state": "", "country": "ID", "coord": {"lon": 112.482903, "lat": -8.3161}}, {"id": 8080091, "name": "Tulungrejo", "state": "", "country": "ID", "coord": {"lon": 112.494003, "lat": -8.3317}}, {"id": 8080100, "name": "Krajan Kedungsalam", "state": "", "country": "ID", "coord": {"lon": 112.450104, "lat": -8.3251}}, {"id": 8080334, "name": "Blimbing", "state": "", "country": "ID", "coord": {"lon": 112.296204, "lat": -6.8762}}, {"id": 8080337, "name": "Sedayulawas", "state": "", "country": "ID", "coord": {"lon": 112.272598, "lat": -6.88}}, {"id": 8080345, "name": "Tunggul", "state": "", "country": "ID", "coord": {"lon": 112.373901, "lat": -6.8759}}, {"id": 8080416, "name": "Brangsi", "state": "", "country": "ID", "coord": {"lon": 112.366699, "lat": -6.9726}}, {"id": 8080417, "name": "Sawo", "state": "", "country": "ID", "coord": {"lon": 112.374603, "lat": -6.9693}}, {"id": 8080430, "name": "Sumurgayam", "state": "", "country": "ID", "coord": {"lon": 112.343697, "lat": -6.885}}, {"id": 8080434, "name": "Solokuro", "state": "", "country": "ID", "coord": {"lon": 112.356102, "lat": -6.9334}}, {"id": 8080438, "name": "Karangwungu Lor", "state": "", "country": "ID", "coord": {"lon": 112.365402, "lat": -6.9959}}, {"id": 8080441, "name": "Kaligerman", "state": "", "country": "ID", "coord": {"lon": 112.328903, "lat": -6.9985}}, {"id": 8080443, "name": "Pilang", "state": "", "country": "ID", "coord": {"lon": 112.341698, "lat": -6.9876}}, {"id": 8080445, "name": "Karangrejo", "state": "", "country": "ID", "coord": {"lon": 112.322098, "lat": -6.9927}}, {"id": 8080447, "name": "Turi", "state": "", "country": "ID", "coord": {"lon": 112.304298, "lat": -6.9877}}, {"id": 8080450, "name": "Kanugrahan", "state": "", "country": "ID", "coord": {"lon": 112.298698, "lat": -6.992}}, {"id": 8080451, "name": "Jangkungkusumo", "state": "", "country": "ID", "coord": {"lon": 112.284599, "lat": -6.9873}}, {"id": 8080454, "name": "Pelangwot", "state": "", "country": "ID", "coord": {"lon": 112.279297, "lat": -6.9856}}, {"id": 8080468, "name": "Sumberagung", "state": "", "country": "ID", "coord": {"lon": 112.294899, "lat": -6.894}}, {"id": 8080479, "name": "Sendangduwur", "state": "", "country": "ID", "coord": {"lon": 112.347298, "lat": -6.8963}}, {"id": 8080480, "name": "Sendangagung", "state": "", "country": "ID", "coord": {"lon": 112.3461, "lat": -6.8994}}, {"id": 8080484, "name": "Payaman", "state": "", "country": "ID", "coord": {"lon": 112.352798, "lat": -6.9169}}, {"id": 8080485, "name": "Sugihan", "state": "", "country": "ID", "coord": {"lon": 112.327003, "lat": -6.9157}}, {"id": 8080486, "name": "Dadapan", "state": "", "country": "ID", "coord": {"lon": 112.314499, "lat": -6.9222}}, {"id": 8080492, "name": "Tebluru", "state": "", "country": "ID", "coord": {"lon": 112.320801, "lat": -6.9261}}, {"id": 8080497, "name": "Tenggulun", "state": "", "country": "ID", "coord": {"lon": 112.336098, "lat": -6.9345}}, {"id": 8080502, "name": "Karangtawar", "state": "", "country": "ID", "coord": {"lon": 112.338699, "lat": -6.9645}}, {"id": 8080503, "name": "Godog", "state": "", "country": "ID", "coord": {"lon": 112.348701, "lat": -6.9633}}, {"id": 8080504, "name": "Bulubrangsi", "state": "", "country": "ID", "coord": {"lon": 112.353996, "lat": -6.9632}}, {"id": 8080506, "name": "Prijek", "state": "", "country": "ID", "coord": {"lon": 112.325104, "lat": -6.9723}}, {"id": 8080507, "name": "Blumbang", "state": "", "country": "ID", "coord": {"lon": 112.3088, "lat": -6.9726}}, {"id": 8080508, "name": "Gedangan", "state": "", "country": "ID", "coord": {"lon": 112.2995, "lat": -6.9689}},