[{"id": 1697110, "name": "Ondoy", "state": "", "country": "PH", "coord": {"lon": 122.126106, "lat": 11.81917}}, {"id": 1697155, "name": "Olutanga", "state": "", "country": "PH", "coord": {"lon": 122.84639, "lat": 7.31056}}, {"id": 1697172, "name": "Olongapo City", "state": "", "country": "PH", "coord": {"lon": 120.26667, "lat": 14.83333}}, {"id": 1697175, "name": "Olongapo", "state": "", "country": "PH", "coord": {"lon": 120.282784, "lat": 14.82917}}, {"id": 1697191, "name": "Olingan", "state": "", "country": "PH", "coord": {"lon": 123.319443, "lat": 8.53139}}, {"id": 1697203, "name": "Olea", "state": "", "country": "PH", "coord": {"lon": 120.5, "lat": 15.86667}}, {"id": 1697207, "name": "San Remigio", "state": "", "country": "PH", "coord": {"lon": 122.079399, "lat": 10.8447}}, {"id": 1697245, "name": "Okiot", "state": "", "country": "PH", "coord": {"lon": 123.166672, "lat": 9.56667}}, {"id": 1697260, "name": "Ogtongon", "state": "", "country": "PH", "coord": {"lon": 123.528893, "lat": 10.78139}}, {"id": 1697266, "name": "Ogod", "state": "", "country": "PH", "coord": {"lon": 123.616997, "lat": 12.9009}}, {"id": 1697294, "name": "Odiongan", "state": "", "country": "PH", "coord": {"lon": 121.991943, "lat": 12.40167}}, {"id": 1697299, "name": "Odiongan", "state": "", "country": "PH", "coord": {"lon": 125.166389, "lat": 8.84583}}, {"id": 1697301, "name": "Odiong", "state": "", "country": "PH", "coord": {"lon": 121.503197, "lat": 12.5931}}, {"id": 1697303, "name": "Odiong", "state": "", "country": "PH", "coord": {"lon": 122.466599, "lat": 11.5356}}, {"id": 1697306, "name": "Odiong", "state": "", "country": "PH", "coord": {"lon": 123.052597, "lat": 10.2858}}, {"id": 1697310, "name": "Odicon", "state": "", "country": "PH", "coord": {"lon": 123.0588, "lat": 13.53}}, {"id": 1697320, "name": "Ocoy", "state": "", "country": "PH", "coord": {"lon": 123.7948, "lat": 11.1716}}, {"id": 1697326, "name": "Ochanado", "state": "", "country": "PH", "coord": {"lon": 122.483299, "lat": 11.6139}}, {"id": 1697331, "name": "Oca\u00f1a", "state": "", "country": "PH", "coord": {"lon": 123.624397, "lat": 10.0656}}, {"id": 1697332, "name": "Ocampo", "state": "", "country": "PH", "coord": {"lon": 123.376099, "lat": 13.5594}}, {"id": 1697361, "name": "Obong", "state": "", "country": "PH", "coord": {"lon": 123.509804, "lat": 9.741}}, {"id": 1697376, "name": "Obando", "state": "", "country": "PH", "coord": {"lon": 120.936203, "lat": 14.7098}}, {"id": 1697377, "name": "Obando", "state": "", "country": "PH", "coord": {"lon": 120.933327, "lat": 14.71667}}, {"id": 1697387, "name": "Oaqui", "state": "", "country": "PH", "coord": {"lon": 120.412399, "lat": 16.858299}}, {"id": 1697434, "name": "Numancia", "state": "", "country": "PH", "coord": {"lon": 122.3284, "lat": 11.7059}}, {"id": 1697439, "name": "Noling", "state": "", "country": "PH", "coord": {"lon": 124.099808, "lat": 6.65984}}, {"id": 1697447, "name": "Nugas", "state": "", "country": "PH", "coord": {"lon": 123.441498, "lat": 9.6968}}, {"id": 1697456, "name": "Province of Nueva Vizcaya", "state": "", "country": "PH", "coord": {"lon": 121.333328, "lat": 16.33333}}, {"id": 1697457, "name": "Nueva Vida Sur", "state": "", "country": "PH", "coord": {"lon": 124.1745, "lat": 9.7846}}, {"id": 1697459, "name": "Nueva Valencia", "state": "", "country": "PH", "coord": {"lon": 122.531502, "lat": 10.51077}}, {"id": 1697464, "name": "Nueva Fuerza", "state": "", "country": "PH", "coord": {"lon": 124.167, "lat": 9.8464}}, {"id": 1697471, "name": "Nueva Era", "state": "", "country": "PH", "coord": {"lon": 120.664101, "lat": 17.9163}}, {"id": 1697473, "name": "Province of Nueva Ecija", "state": "", "country": "PH", "coord": {"lon": 121.0, "lat": 15.58333}}, {"id": 1697486, "name": "Noveleta", "state": "", "country": "PH", "coord": {"lon": 120.87989, "lat": 14.42922}}, {"id": 1697487, "name": "Noveleta", "state": "", "country": "PH", "coord": {"lon": 120.883331, "lat": 14.43333}}, {"id": 1697489, "name": "Novallas", "state": "", "country": "PH", "coord": {"lon": 123.119438, "lat": 9.5125}}, {"id": 1697497, "name": "Norzagaray", "state": "", "country": "PH", "coord": {"lon": 121.049301, "lat": 14.9109}}, {"id": 1697549, "name": "Province of Northern Samar", "state": "", "country": "PH", "coord": {"lon": 124.666672, "lat": 12.33333}}, {"id": 1697559, "name": "Province of Cotabato", "state": "", "country": "PH", "coord": {"lon": 125.083328, "lat": 7.01667}}, {"id": 1697577, "name": "Norala", "state": "", "country": "PH", "coord": {"lon": 124.659172, "lat": 6.5225}}, {"id": 1697607, "name": "Nuing", "state": "", "country": "PH", "coord": {"lon": 125.43528, "lat": 5.63278}}, {"id": 1697622, "name": "Niugan", "state": "", "country": "PH", "coord": {"lon": 120.966667, "lat": 14.95}}, {"id": 1697624, "name": "Niugan", "state": "", "country": "PH", "coord": {"lon": 120.955276, "lat": 14.66444}}, {"id": 1697663, "name": "Ninoy", "state": "", "country": "PH", "coord": {"lon": 120.247803, "lat": 15.8596}}, {"id": 1697675, "name": "Nilombot", "state": "", "country": "PH", "coord": {"lon": 120.437202, "lat": 16.0308}}, {"id": 1697696, "name": "Nieves", "state": "", "country": "PH", "coord": {"lon": 120.948502, "lat": 15.3274}}, {"id": 1697707, "name": "Nibaliw Central", "state": "", "country": "PH", "coord": {"lon": 120.402702, "lat": 16.127501}}, {"id": 1697734, "name": "New Washington", "state": "", "country": "PH", "coord": {"lon": 122.432198, "lat": 11.6508}}, {"id": 1697735, "name": "New Washington", "state": "", "country": "PH", "coord": {"lon": 122.48333, "lat": 11.56667}}, {"id": 1697736, "name": "New Visayas", "state": "", "country": "PH", "coord": {"lon": 125.623329, "lat": 7.52333}}, {"id": 1697739, "name": "New Sibonga", "state": "", "country": "PH", "coord": {"lon": 125.929802, "lat": 7.5609}}, {"id": 1697740, "name": "San Remigio", "state": "", "country": "PH", "coord": {"lon": 122.091698, "lat": 10.8326}}, {"id": 1697753, "name": "New Panay", "state": "", "country": "PH", "coord": {"lon": 124.589172, "lat": 6.75861}}, {"id": 1697754, "name": "New Panamao", "state": "", "country": "PH", "coord": {"lon": 121.199997, "lat": 5.95}}, {"id": 1697762, "name": "Lucena", "state": "", "country": "PH", "coord": {"lon": 122.596703, "lat": 10.8794}}, {"id": 1697764, "name": "New Leyte", "state": "", "country": "PH", "coord": {"lon": 125.75, "lat": 7.5}}, {"id": 1697765, "name": "New Lagao", "state": "", "country": "PH", "coord": {"lon": 124.641388, "lat": 6.70278}}, {"id": 1697769, "name": "New Iloilo", "state": "", "country": "PH", "coord": {"lon": 124.789719, "lat": 6.54778}}, {"id": 1697773, "name": "New Corella", "state": "", "country": "PH", "coord": {"lon": 125.8237, "lat": 7.5866}}, {"id": 1697774, "name": "New Corella", "state": "", "country": "PH", "coord": {"lon": 125.866669, "lat": 7.6}}, {"id": 1697775, "name": "New Cebu", "state": "", "country": "PH", "coord": {"lon": 125.033607, "lat": 7.09528}}, {"id": 1697782, "name": "New Bohol", "state": "", "country": "PH", "coord": {"lon": 125.836304, "lat": 7.5233}}, {"id": 1697786, "name": "New Batu Batu", "state": "", "country": "PH", "coord": {"lon": 119.883331, "lat": 5.06667}}, {"id": 1697787, "name": "Bantacan", "state": "", "country": "PH", "coord": {"lon": 126.129799, "lat": 7.604}}, {"id": 1697793, "name": "New Agutaya", "state": "", "country": "PH", "coord": {"lon": 119.307777, "lat": 10.56139}}, {"id": 1697799, "name": "Nenita", "state": "", "country": "PH", "coord": {"lon": 124.804443, "lat": 12.49167}}, {"id": 1697800, "name": "Nena", "state": "", "country": "PH", "coord": {"lon": 125.417778, "lat": 11.76583}}, {"id": 1697806, "name": "Province of Negros Oriental", "state": "", "country": "PH", "coord": {"lon": 123.0, "lat": 9.75}}, {"id": 1697808, "name": "Province of Negros Occidental", "state": "", "country": "PH", "coord": {"lon": 123.0, "lat": 10.41667}}, {"id": 1697846, "name": "Navotas", "state": "", "country": "PH", "coord": {"lon": 120.949997, "lat": 14.66667}}, {"id": 1697847, "name": "Navotas", "state": "", "country": "PH", "coord": {"lon": 120.953331, "lat": 14.65444}}, {"id": 1697848, "name": "Navotas", "state": "", "country": "PH", "coord": {"lon": 121.226799, "lat": 14.4167}}, {"id": 1697863, "name": "Navatat", "state": "", "country": "PH", "coord": {"lon": 120.380402, "lat": 15.8536}}, {"id": 1697879, "name": "Naval", "state": "", "country": "PH", "coord": {"lon": 124.397499, "lat": 11.56056}}, {"id": 1697882, "name": "Naval", "state": "", "country": "PH", "coord": {"lon": 124.449997, "lat": 11.58333}}, {"id": 1697911, "name": "Naujan", "state": "", "country": "PH", "coord": {"lon": 121.302818, "lat": 13.32328}}, {"id": 1697942, "name": "Natalungan", "state": "", "country": "PH", "coord": {"lon": 125.023613, "lat": 7.53167}}, {"id": 1697949, "name": "Natubleng", "state": "", "country": "PH", "coord": {"lon": 120.78054, "lat": 16.69647}}, {"id": 1697958, "name": "Natonin", "state": "", "country": "PH", "coord": {"lon": 121.276138, "lat": 17.10924}}, {"id": 1697962, "name": "Nato", "state": "", "country": "PH", "coord": {"lon": 123.535599, "lat": 13.6105}}, {"id": 1697966, "name": "Nato", "state": "", "country": "PH", "coord": {"lon": 122.860283, "lat": 10.15917}}, {"id": 1697970, "name": "Natividad", "state": "", "country": "PH", "coord": {"lon": 120.798698, "lat": 16.0443}}, {"id": 1697998, "name": "Nattapian", "state": "", "country": "PH", "coord": {"lon": 121.706596, "lat": 17.6745}}, {"id": 1698030, "name": "Nasugbu", "state": "", "country": "PH", "coord": {"lon": 120.633202, "lat": 14.0722}}, {"id": 1698032, "name": "Nasugbu", "state": "", "country": "PH", "coord": {"lon": 120.683327, "lat": 14.1}}, {"id": 1698046, "name": "Masonogan", "state": "", "country": "PH", "coord": {"lon": 122.675301, "lat": 11.3686}}, {"id": 1698063, "name": "Nasipit", "state": "", "country": "PH", "coord": {"lon": 125.294724, "lat": 8.96917}}, {"id": 1698090, "name": "Narvacan", "state": "", "country": "PH", "coord": {"lon": 120.475304, "lat": 17.4175}}, {"id": 1698103, "name": "Narra", "state": "", "country": "PH", "coord": {"lon": 118.404297, "lat": 9.26877}}, {"id": 1698104, "name": "Narra", "state": "", "country": "PH", "coord": {"lon": 118.400002, "lat": 9.31667}}, {"id": 1698108, "name": "Naro", "state": "", "country": "PH", "coord": {"lon": 123.67392, "lat": 11.89697}}, {"id": 1698116, "name": "Marawis", "state": "", "country": "PH", "coord": {"lon": 122.886902, "lat": 10.2453}}, {"id": 1698135, "name": "Napuro", "state": "", "country": "PH", "coord": {"lon": 124.708199, "lat": 12.0273}}, {"id": 1698160, "name": "Napoles", "state": "", "country": "PH", "coord": {"lon": 122.899719, "lat": 10.50417}}, {"id": 1698177, "name": "Napnapan", "state": "", "country": "PH", "coord": {"lon": 122.392998, "lat": 10.70845}}, {"id": 1698208, "name": "Napalitan", "state": "", "country": "PH", "coord": {"lon": 124.802223, "lat": 8.77528}}, {"id": 1698225, "name": "Nanyo", "state": "", "country": "PH", "coord": {"lon": 125.637779, "lat": 7.33306}}, {"id": 1698250, "name": "Nangka", "state": "", "country": "PH", "coord": {"lon": 123.035896, "lat": 10.85564}}, {"id": 1698269, "name": "Nangka", "state": "", "country": "PH", "coord": {"lon": 123.966667, "lat": 10.55}}, {"id": 1698270, "name": "Nangka", "state": "", "country": "PH", "coord": {"lon": 123.719498, "lat": 10.5324}}, {"id": 1698273, "name": "Na\u00f1gka", "state": "", "country": "PH", "coord": {"lon": 124.183327, "lat": 8.16667}}, {"id": 1698281, "name": "Nangka", "state": "", "country": "PH", "coord": {"lon": 122.81694, "lat": 9.40056}}, {"id": 1698289, "name": "Nangan", "state": "", "country": "PH", "coord": {"lon": 126.124382, "lat": 6.47264}}, {"id": 1698296, "name": "Nangalisan", "state": "", "country": "PH", "coord": {"lon": 120.550003, "lat": 16.4}}, {"id": 1698323, "name": "Nancamarinan", "state": "", "country": "PH", "coord": {"lon": 120.5364, "lat": 15.6752}}, {"id": 1698327, "name": "Nancalobasaan", "state": "", "country": "PH", "coord": {"lon": 120.842598, "lat": 15.9342}}, {"id": 1698354, "name": "Namuac", "state": "", "country": "PH", "coord": {"lon": 121.165703, "lat": 18.610901}}, {"id": 1698357, "name": "Nampicuan", "state": "", "country": "PH", "coord": {"lon": 120.625, "lat": 15.7314}}, {"id": 1698384, "name": "Namboongan", "state": "", "country": "PH", "coord": {"lon": 120.375801, "lat": 16.303301}}, {"id": 1698391, "name": "Nambalan", "state": "", "country": "PH", "coord": {"lon": 120.459396, "lat": 15.6008}}, {"id": 1698431, "name": "Nama", "state": "", "country": "PH", "coord": {"lon": 120.542603, "lat": 16.141199}}, {"id": 1698440, "name": "Nalus", "state": "", "country": "PH", "coord": {"lon": 124.585281, "lat": 6.01222}}, {"id": 1698446, "name": "Nalundan", "state": "", "country": "PH", "coord": {"lon": 123.066673, "lat": 9.75}}, {"id": 1698457, "name": "Nalsian Norte", "state": "", "country": "PH", "coord": {"lon": 120.434502, "lat": 15.8462}}, {"id": 1698461, "name": "Brgy. Nalook, kalibo", "state": "", "country": "PH", "coord": {"lon": 122.369164, "lat": 11.68586}}, {"id": 1698532, "name": "Naisud", "state": "", "country": "PH", "coord": {"lon": 122.193901, "lat": 11.8058}}, {"id": 1698538, "name": "Nailong", "state": "", "country": "PH", "coord": {"lon": 124.038498, "lat": 11.0537}}, {"id": 1698542, "name": "Naili", "state": "", "country": "PH", "coord": {"lon": 122.176498, "lat": 11.7666}}, {"id": 1698548, "name": "Naic", "state": "", "country": "PH", "coord": {"lon": 120.76609, "lat": 14.31812}}, {"id": 1698549, "name": "Naic", "state": "", "country": "PH", "coord": {"lon": 120.800003, "lat": 14.3}}, {"id": 1698561, "name": "Nahawan", "state": "", "country": "PH", "coord": {"lon": 124.048401, "lat": 9.9711}}, {"id": 1698595, "name": "Naguilian", "state": "", "country": "PH", "coord": {"lon": 121.837044, "lat": 17.023149}}, {"id": 1698596, "name": "Naguilian", "state": "", "country": "PH", "coord": {"lon": 120.396667, "lat": 16.53389}}, {"id": 1698599, "name": "Naguilayan", "state": "", "country": "PH", "coord": {"lon": 120.290298, "lat": 16.0023}}, {"id": 1698606, "name": "Naguelguel", "state": "", "country": "PH", "coord": {"lon": 120.263496, "lat": 16.005301}}, {"id": 1698621, "name": "Nagtipunan", "state": "", "country": "PH", "coord": {"lon": 121.599998, "lat": 16.216669}}, {"id": 1698658, "name": "Nagsaing", "state": "", "country": "PH", "coord": {"lon": 120.341904, "lat": 15.976}}, {"id": 1698673, "name": "Nagrumbuan", "state": "", "country": "PH", "coord": {"lon": 121.710831, "lat": 16.90222}}, {"id": 1698695, "name": "Nagpandayan", "state": "", "country": "PH", "coord": {"lon": 120.765999, "lat": 15.5997}}, {"id": 1698722, "name": "Nagiba", "state": "", "country": "PH", "coord": {"lon": 121.274323, "lat": 13.33018}}, {"id": 1698728, "name": "Naghalin", "state": "", "country": "PH", "coord": {"lon": 124.567101, "lat": 11.1456}}, {"id": 1698740, "name": "Nagcarlan", "state": "", "country": "PH", "coord": {"lon": 121.416496, "lat": 14.1364}}, {"id": 1698741, "name": "Nagcarlan", "state": "", "country": "PH", "coord": {"lon": 121.416672, "lat": 14.13333}}, {"id": 1698750, "name": "Nagbukel", "state": "", "country": "PH", "coord": {"lon": 120.524696, "lat": 17.4471}}, {"id": 1698777, "name": "Nagbalaye", "state": "", "country": "PH", "coord": {"lon": 122.8759, "lat": 9.2492}}, {"id": 1698783, "name": "Nagbacalan", "state": "", "country": "PH", "coord": {"lon": 120.523499, "lat": 18.1159}}, {"id": 1698802, "name": "Naagas", "state": "", "country": "PH", "coord": {"lon": 123.678101, "lat": 13.4357}}, {"id": 1698822, "name": "Naga City", "state": "", "country": "PH", "coord": {"lon": 123.183327, "lat": 13.61667}}, {"id": 1698829, "name": "Naga", "state": "", "country": "PH", "coord": {"lon": 123.181389, "lat": 13.61917}}, {"id": 1698839, "name": "Naga", "state": "", "country": "PH", "coord": {"lon": 123.758003, "lat": 10.20898}}, {"id": 1698840, "name": "Naga", "state": "", "country": "PH", "coord": {"lon": 122.750832, "lat": 7.77028}}, {"id": 1698842, "name": "City of Naga", "state": "", "country": "PH", "coord": {"lon": 123.716667, "lat": 10.25}}, {"id": 1698887, "name": "Nabunturan", "state": "", "country": "PH", "coord": {"lon": 125.966393, "lat": 7.60778}}, {"id": 1698888, "name": "Nabunturan", "state": "", "country": "PH", "coord": {"lon": 126.01667, "lat": 7.58333}}, {"id": 1698905, "name": "Nabulao", "state": "", "country": "PH", "coord": {"lon": 122.457703, "lat": 9.6616}}, {"id": 1698914, "name": "Nabannagan West", "state": "", "country": "PH", "coord": {"lon": 121.533752, "lat": 18.071489}}, {"id": 1698921, "name": "Nabua", "state": "", "country": "PH", "coord": {"lon": 123.372398, "lat": 13.4075}}, {"id": 1698923, "name": "Nabua", "state": "", "country": "PH", "coord": {"lon": 123.333328, "lat": 13.38333}}, {"id": 1698976, "name": "Nabas", "state": "", "country": "PH", "coord": {"lon": 122.086998, "lat": 11.831}}, {"id": 1698985, "name": "Nabangig", "state": "", "country": "PH", "coord": {"lon": 123.950302, "lat": 12.0989}}, {"id": 1699010, "name": "Naawan", "state": "", "country": "PH", "coord": {"lon": 124.288887, "lat": 8.43444}}, {"id": 1699031, "name": "Muti", "state": "", "country": "PH", "coord": {"lon": 122.279999, "lat": 7.27583}}, {"id": 1699054, "name": "Muricay", "state": "", "country": "PH", "coord": {"lon": 123.478203, "lat": 7.8275}}, {"id": 1699059, "name": "Murcia", "state": "", "country": "PH", "coord": {"lon": 120.609032, "lat": 15.40425}}, {"id": 1699060, "name": "Murcia", "state": "", "country": "PH", "coord": {"lon": 123.041702, "lat": 10.60516}}, {"id": 1699061, "name": "Murcia", "state": "", "country": "PH", "coord": {"lon": 123.099998, "lat": 10.58333}}, {"id": 1699087, "name": "Mu\u00f1oz East", "state": "", "country": "PH", "coord": {"lon": 121.613541, "lat": 17.157539}}, {"id": 1699088, "name": "Mu\u00f1oz", "state": "", "country": "PH", "coord": {"lon": 120.903061, "lat": 15.71611}}, {"id": 1699090, "name": "Science City of Mu\u00f1oz", "state": "", "country": "PH", "coord": {"lon": 120.883331, "lat": 15.73333}}, {"id": 1699096, "name": "Mungo", "state": "", "country": "PH", "coord": {"lon": 121.471252, "lat": 17.721109}}, {"id": 1699100, "name": "Munai", "state": "", "country": "PH", "coord": {"lon": 124.063606, "lat": 7.97583}}, {"id": 1699124, "name": "Mulauin", "state": "", "country": "PH", "coord": {"lon": 121.01667, "lat": 13.86667}}, {"id": 1699134, "name": "Mulanay", "state": "", "country": "PH", "coord": {"lon": 122.404167, "lat": 13.52222}}, {"id": 1699138, "name": "Muladbucad", "state": "", "country": "PH", "coord": {"lon": 123.605698, "lat": 13.2389}}, {"id": 1699167, "name": "Mozzozzin Sur", "state": "", "country": "PH", "coord": {"lon": 121.75, "lat": 17.450001}}, {"id": 1699169, "name": "Mozon", "state": "", "country": "PH", "coord": {"lon": 120.989342, "lat": 13.8526}}, {"id": 1699180, "name": "Motiong", "state": "", "country": "PH", "coord": {"lon": 124.999718, "lat": 11.78}}, {"id": 1699204, "name": "Morong", "state": "", "country": "PH", "coord": {"lon": 120.266113, "lat": 14.67889}}, {"id": 1699205, "name": "Morong", "state": "", "country": "PH", "coord": {"lon": 121.239304, "lat": 14.5115}}, {"id": 1699207, "name": "Morong", "state": "", "country": "PH", "coord": {"lon": 120.333328, "lat": 14.7}}, {"id": 1699208, "name": "Morong", "state": "", "country": "PH", "coord": {"lon": 121.216667, "lat": 14.53333}}, {"id": 1699216, "name": "Morobuan", "state": "", "country": "PH", "coord": {"lon": 122.554703, "lat": 10.62566}}, {"id": 1699222, "name": "Moriones", "state": "", "country": "PH", "coord": {"lon": 120.466431, "lat": 15.46075}}, {"id": 1699240, "name": "Morales", "state": "", "country": "PH", "coord": {"lon": 122.376404, "lat": 11.5456}}, {"id": 1699246, "name": "Moog", "state": "", "country": "PH", "coord": {"lon": 124.465828, "lat": 8.60111}}, {"id": 1699261, "name": "Montilla", "state": "", "country": "PH", "coord": {"lon": 122.926102, "lat": 10.2027}}, {"id": 1699264, "name": "Montevista", "state": "", "country": "PH", "coord": {"lon": 125.988892, "lat": 7.69333}}, {"id": 1699281, "name": "Montecillo", "state": "", "country": "PH", "coord": {"lon": 121.477783, "lat": 13.88944}}, {"id": 1699293, "name": "Montaneza", "state": "", "country": "PH", "coord": {"lon": 123.328903, "lat": 9.6846}}, {"id": 1699296, "name": "Rodriguez", "state": "", "country": "PH", "coord": {"lon": 121.141701, "lat": 14.7314}}, {"id": 1699310, "name": "Monreal", "state": "", "country": "PH", "coord": {"lon": 123.664803, "lat": 12.644}}, {"id": 1699314, "name": "Monpon", "state": "", "country": "PH", "coord": {"lon": 122.637779, "lat": 10.91194}}, {"id": 1699323, "name": "Monkayo", "state": "", "country": "PH", "coord": {"lon": 126.054443, "lat": 7.81528}}, {"id": 1699324, "name": "Monkayo", "state": "", "country": "PH", "coord": {"lon": 126.099998, "lat": 7.86667}}, {"id": 1699342, "name": "Mondragon", "state": "", "country": "PH", "coord": {"lon": 124.752296, "lat": 12.5157}}, {"id": 1699345, "name": "Moncada", "state": "", "country": "PH", "coord": {"lon": 120.573997, "lat": 15.7354}}, {"id": 1699347, "name": "Monbon", "state": "", "country": "PH", "coord": {"lon": 124.018898, "lat": 12.7307}}, {"id": 1699352, "name": "Monamon", "state": "", "country": "PH", "coord": {"lon": 120.883301, "lat": 16.883301}}, {"id": 1699366, "name": "Molugan", "state": "", "country": "PH", "coord": {"lon": 124.562218, "lat": 8.5375}}, {"id": 1699388, "name": "Molave", "state": "", "country": "PH", "coord": {"lon": 123.490997, "lat": 8.0844}}, {"id": 1699418, "name": "Moises Padilla", "state": "", "country": "PH", "coord": {"lon": 123.078056, "lat": 10.27028}}, {"id": 1699428, "name": "Mogpog", "state": "", "country": "PH", "coord": {"lon": 121.861389, "lat": 13.47444}}, {"id": 1699450, "name": "Mobo", "state": "", "country": "PH", "coord": {"lon": 123.657402, "lat": 12.3363}}, {"id": 1699454, "name": "Moalboal", "state": "", "country": "PH", "coord": {"lon": 123.39917, "lat": 9.94333}}, {"id": 1699492, "name": "Province of Misamis Oriental", "state": "", "country": "PH", "coord": {"lon": 125.0, "lat": 8.75}}, {"id": 1699505, "name": "Miranda", "state": "", "country": "PH", "coord": {"lon": 122.8778, "lat": 10.3047}}, {"id": 1699519, "name": "Minuyan", "state": "", "country": "PH", "coord": {"lon": 123.104897, "lat": 10.51366}}, {"id": 1699524, "name": "Minuri", "state": "", "country": "PH", "coord": {"lon": 121.857399, "lat": 16.535}}, {"id": 1699554, "name": "Minolos", "state": "", "country": "PH", "coord": {"lon": 123.472702, "lat": 10.1019}}, {"id": 1699559, "name": "Minlagas", "state": "", "country": "PH", "coord": {"lon": 125.038887, "lat": 8.87833}}, {"id": 1699570, "name": "Minien East", "state": "", "country": "PH", "coord": {"lon": 120.4786, "lat": 15.9703}}, {"id": 1699572, "name": "Minglanilla", "state": "", "country": "PH", "coord": {"lon": 123.796402, "lat": 10.24498}}, {"id": 1699573, "name": "Minglanilla", "state": "", "country": "PH", "coord": {"lon": 123.76667, "lat": 10.26667}}, {"id": 1699582, "name": "Mindupok", "state": "", "country": "PH", "coord": {"lon": 124.423332, "lat": 6.09056}}, {"id": 1699585, "name": "Province of Mindoro Oriental", "state": "", "country": "PH", "coord": {"lon": 121.083328, "lat": 13.0}}, {"id": 1699586, "name": "Province of Mindoro Occidental", "state": "", "country": "PH", "coord": {"lon": 120.916672, "lat": 13.0}}, {"id": 1699617, "name": "Minapasoc", "state": "", "country": "PH", "coord": {"lon": 123.348999, "lat": 10.69885}}, {"id": 1699619, "name": "Minapan", "state": "", "country": "PH", "coord": {"lon": 124.858612, "lat": 6.815}}, {"id": 1699626, "name": "Minante Segundo", "state": "", "country": "PH", "coord": {"lon": 121.762779, "lat": 16.899441}}, {"id": 1699630, "name": "Minanga Norte", "state": "", "country": "PH", "coord": {"lon": 121.787247, "lat": 17.45122}}, {"id": 1699638, "name": "Minanga Norte", "state": "", "country": "PH", "coord": {"lon": 121.727654, "lat": 17.7626}}, {"id": 1699655, "name": "Minallo", "state": "", "country": "PH", "coord": {"lon": 121.853943, "lat": 16.986851}}, {"id": 1699656, "name": "Minalin", "state": "", "country": "PH", "coord": {"lon": 120.6828, "lat": 14.9676}}, {"id": 1699659, "name": "Minalabac", "state": "", "country": "PH", "coord": {"lon": 123.1838, "lat": 13.5687}}, {"id": 1699684, "name": "Mina", "state": "", "country": "PH", "coord": {"lon": 122.574501, "lat": 10.9313}}, {"id": 1699703, "name": "Mileb", "state": "", "country": "PH", "coord": {"lon": 124.583893, "lat": 6.89861}}, {"id": 1699713, "name": "Milaor", "state": "", "country": "PH", "coord": {"lon": 123.1772, "lat": 13.5961}}, {"id": 1699720, "name": "Milagros", "state": "", "country": "PH", "coord": {"lon": 123.509506, "lat": 12.21814}}, {"id": 1699755, "name": "Midsayap", "state": "", "country": "PH", "coord": {"lon": 124.530281, "lat": 7.19083}}, {"id": 1699756, "name": "Midsayap", "state": "", "country": "PH", "coord": {"lon": 124.5, "lat": 7.11667}}, {"id": 1699757, "name": "Midsalip", "state": "", "country": "PH", "coord": {"lon": 123.26667, "lat": 8.0}}, {"id": 1699782, "name": "Miaray", "state": "", "country": "PH", "coord": {"lon": 125.044441, "lat": 7.57472}}, {"id": 1699788, "name": "Mianay", "state": "", "country": "PH", "coord": {"lon": 122.701103, "lat": 11.4716}}, {"id": 1699791, "name": "Miagao", "state": "", "country": "PH", "coord": {"lon": 122.235199, "lat": 10.6442}}, {"id": 1699793, "name": "Miaga", "state": "", "country": "PH", "coord": {"lon": 123.816704, "lat": 12.2376}}, {"id": 1699802, "name": "Meycauayan", "state": "", "country": "PH", "coord": {"lon": 120.960831, "lat": 14.73694}}, {"id": 1699803, "name": "City of Meycauayan", "state": "", "country": "PH", "coord": {"lon": 121.0, "lat": 14.73333}}, {"id": 1699805, "name": "Mexico", "state": "", "country": "PH", "coord": {"lon": 120.719803, "lat": 15.0646}}, {"id": 1699806, "name": "Mexico", "state": "", "country": "PH", "coord": {"lon": 120.683327, "lat": 15.11667}}, {"id": 1699827, "name": "Merida", "state": "", "country": "PH", "coord": {"lon": 124.537598, "lat": 10.9098}}, {"id": 1699833, "name": "Mercedes", "state": "", "country": "PH", "coord": {"lon": 123.010902, "lat": 14.1093}}, {"id": 1699838, "name": "Mercedes", "state": "", "country": "PH", "coord": {"lon": 124.4021, "lat": 10.6686}}, {"id": 1699840, "name": "Mercedes", "state": "", "country": "PH", "coord": {"lon": 122.148331, "lat": 6.95861}}, {"id": 1699841, "name": "Mercedes", "state": "", "country": "PH", "coord": {"lon": 123.01667, "lat": 14.11667}}, {"id": 1699858, "name": "Mendez-Nu\u00f1ez", "state": "", "country": "PH", "coord": {"lon": 120.90583, "lat": 14.12861}}, {"id": 1699859, "name": "Mendez (Mendez-Nu\u00f1ez)", "state": "", "country": "PH", "coord": {"lon": 120.883331, "lat": 14.13333}}, {"id": 1699890, "name": "Medina", "state": "", "country": "PH", "coord": {"lon": 125.024437, "lat": 8.91222}}, {"id": 1699896, "name": "Medellin", "state": "", "country": "PH", "coord": {"lon": 123.962196, "lat": 11.1286}}, {"id": 1699912, "name": "McKinley", "state": "", "country": "PH", "coord": {"lon": 123.259201, "lat": 10.0844}}, {"id": 1699927, "name": "Maytubig", "state": "", "country": "PH", "coord": {"lon": 120.983299, "lat": 14.5667}}, {"id": 1699952, "name": "Maypangdan", "state": "", "country": "PH", "coord": {"lon": 125.450279, "lat": 11.65194}}, {"id": 1699960, "name": "Mayorga", "state": "", "country": "PH", "coord": {"lon": 125.0, "lat": 10.9}}, {"id": 1699979, "name": "Mayo", "state": "", "country": "PH", "coord": {"lon": 126.331978, "lat": 7.0021}}, {"id": 1699981, "name": "Mayngaran", "state": "", "country": "PH", "coord": {"lon": 123.63472, "lat": 12.34139}}, {"id": 1700009, "name": "Maygatasan", "state": "", "country": "PH", "coord": {"lon": 125.71833, "lat": 8.70944}}, {"id": 1700013, "name": "Maydolong", "state": "", "country": "PH", "coord": {"lon": 125.501106, "lat": 11.49917}}, {"id": 1700056, "name": "Mayapusi", "state": "", "country": "PH", "coord": {"lon": 123.01667, "lat": 9.61667}}, {"id": 1700068, "name": "Mayantoc", "state": "", "country": "PH", "coord": {"lon": 120.376999, "lat": 15.6199}}, {"id": 1700084, "name": "Mayana", "state": "", "country": "PH", "coord": {"lon": 124.352219, "lat": 9.75611}}, {"id": 1700092, "name": "Mayabon", "state": "", "country": "PH", "coord": {"lon": 123.173798, "lat": 9.0961}}, {"id": 1700105, "name": "Maya", "state": "", "country": "PH", "coord": {"lon": 124.057899, "lat": 11.2743}}, {"id": 1700107, "name": "Maxingal", "state": "", "country": "PH", "coord": {"lon": 121.668152, "lat": 18.21488}}, {"id": 1700115, "name": "Mawab", "state": "", "country": "PH", "coord": {"lon": 125.98333, "lat": 7.56667}}, {"id": 1700116, "name": "Mawab", "state": "", "country": "PH", "coord": {"lon": 125.916939, "lat": 7.50806}}, {"id": 1700129, "name": "Mauraro", "state": "", "country": "PH", "coord": {"lon": 123.595299, "lat": 13.1494}}, {"id": 1700148, "name": "Maulawin", "state": "", "country": "PH", "coord": {"lon": 121.433327, "lat": 14.26667}}, {"id": 1700156, "name": "Mauhao", "state": "", "country": "PH", "coord": {"lon": 121.300713, "lat": 12.29015}}, {"id": 1700170, "name": "Maugat West", "state": "", "country": "PH", "coord": {"lon": 121.282761, "lat": 13.8613}}, {"id": 1700179, "name": "Mauban", "state": "", "country": "PH", "coord": {"lon": 121.73111, "lat": 14.19111}}, {"id": 1700197, "name": "Maturanoc", "state": "", "country": "PH", "coord": {"lon": 120.792099, "lat": 15.6571}}, {"id": 1700213, "name": "Matungao", "state": "", "country": "PH", "coord": {"lon": 124.164169, "lat": 8.13611}}, {"id": 1700240, "name": "Matti", "state": "", "country": "PH", "coord": {"lon": 125.308609, "lat": 6.77056}}, {"id": 1700268, "name": "Matnog", "state": "", "country": "PH", "coord": {"lon": 122.933327, "lat": 14.06667}}, {"id": 1700269, "name": "Matnog", "state": "", "country": "PH", "coord": {"lon": 124.087502, "lat": 12.5878}}, {"id": 1700276, "name": "Matlang", "state": "", "country": "PH", "coord": {"lon": 124.455399, "lat": 10.8902}}, {"id": 1700282, "name": "Matiompong", "state": "", "country": "PH", "coord": {"lon": 124.566109, "lat": 6.69611}}, {"id": 1700295, "name": "Matingain", "state": "", "country": "PH", "coord": {"lon": 120.880058, "lat": 13.9129}}, {"id": 1700310, "name": "Malinao", "state": "", "country": "PH", "coord": {"lon": 124.688889, "lat": 7.59167}}, {"id": 1700338, "name": "Maticmatic", "state": "", "country": "PH", "coord": {"lon": 120.454399, "lat": 15.987}}, {"id": 1700346, "name": "Matiao", "state": "", "country": "PH", "coord": {"lon": 125.936203, "lat": 7.0828}}, {"id": 1700352, "name": "Mati", "state": "", "country": "PH", "coord": {"lon": 125.470833, "lat": 9.73389}}, {"id": 1700356, "name": "Mat-i", "state": "", "country": "PH", "coord": {"lon": 124.345284, "lat": 8.40194}}, {"id": 1700360, "name": "Mati", "state": "", "country": "PH", "coord": {"lon": 126.216553, "lat": 6.95508}}, {"id": 1700377, "name": "Mataywanac", "state": "", "country": "PH", "coord": {"lon": 120.729599, "lat": 14.0311}}, {"id": 1700379, "name": "Matayumtayum", "state": "", "country": "PH", "coord": {"lon": 120.709801, "lat": 15.5166}}, {"id": 1700420, "name": "Matanog", "state": "", "country": "PH", "coord": {"lon": 124.256393, "lat": 7.51611}}, {"id": 1700433, "name": "Matangad", "state": "", "country": "PH", "coord": {"lon": 124.370003, "lat": 8.57694}}, {"id": 1700447, "name": "Matanao", "state": "", "country": "PH", "coord": {"lon": 125.254997, "lat": 6.67917}}, {"id": 1700476, "name": "Matalom", "state": "", "country": "PH", "coord": {"lon": 124.787781, "lat": 10.28306}}, {"id": 1700490, "name": "Matalam", "state": "", "country": "PH", "coord": {"lon": 124.900558, "lat": 7.08639}}, {"id": 1700494, "name": "Matalaba", "state": "", "country": "PH", "coord": {"lon": 120.23333, "lat": 16.01667}}, {"id": 1700496, "name": "Matala", "state": "", "country": "PH", "coord": {"lon": 121.1549, "lat": 13.8287}}, {"id": 1700519, "name": "Matagbak", "state": "", "country": "PH", "coord": {"lon": 120.834717, "lat": 14.13056}}, {"id": 1700534, "name": "Matacon", "state": "", "country": "PH", "coord": {"lon": 123.4356, "lat": 13.3284}}, {"id": 1700537, "name": "Matabungkay Road Locality", "state": "", "country": "PH", "coord": {"lon": 120.619812, "lat": 13.95226}}, {"id": 1700547, "name": "Matabao", "state": "", "country": "PH", "coord": {"lon": 125.399437, "lat": 8.95722}}, {"id": 1700567, "name": "Mataas Na Kahoy", "state": "", "country": "PH", "coord": {"lon": 121.1138, "lat": 13.9589}}, {"id": 1700582, "name": "Masoli", "state": "", "country": "PH", "coord": {"lon": 123.389801, "lat": 13.3593}}, {"id": 1700618, "name": "Maslog", "state": "", "country": "PH", "coord": {"lon": 123.774437, "lat": 13.1025}}, {"id": 1700619, "name": "Maslog", "state": "", "country": "PH", "coord": {"lon": 125.23333, "lat": 12.15}}, {"id": 1700620, "name": "Maslog", "state": "", "country": "PH", "coord": {"lon": 125.166672, "lat": 12.1}}, {"id": 1700627, "name": "Maslog", "state": "", "country": "PH", "coord": {"lon": 123.295998, "lat": 9.3291}}, {"id": 1700638, "name": "Masiu", "state": "", "country": "PH", "coord": {"lon": 124.317497, "lat": 7.81167}}, {"id": 1700665, "name": "Masinloc", "state": "", "country": "PH", "coord": {"lon": 119.950203, "lat": 15.5363}}, {"id": 1700667, "name": "Masinloc", "state": "", "country": "PH", "coord": {"lon": 120.050003, "lat": 15.53333}}, {"id": 1700686, "name": "Masiga", "state": "", "country": "PH", "coord": {"lon": 121.827797, "lat": 13.3607}}, {"id": 1700711, "name": "Province of Masbate", "state": "", "country": "PH", "coord": {"lon": 123.583328, "lat": 12.16667}}, {"id": 1700712, "name": "Masbate", "state": "", "country": "PH", "coord": {"lon": 123.616669, "lat": 12.36667}}, {"id": 1700715, "name": "City of Masbate", "state": "", "country": "PH", "coord": {"lon": 123.583328, "lat": 12.33333}}, {"id": 1700721, "name": "Masaya Sur", "state": "", "country": "PH", "coord": {"lon": 121.745598, "lat": 16.497}}, {"id": 1700724, "name": "Masaya", "state": "", "country": "PH", "coord": {"lon": 121.2733, "lat": 14.1434}}, {"id": 1700732, "name": "Masarayao", "state": "", "country": "PH", "coord": {"lon": 124.6175, "lat": 11.08972}}, {"id": 1700733, "name": "Masaraway", "state": "", "country": "PH", "coord": {"lon": 123.614799, "lat": 13.2268}}, {"id": 1700746, "name": "Masapang", "state": "", "country": "PH", "coord": {"lon": 121.3423, "lat": 14.1971}}, {"id": 1700753, "name": "Masantol", "state": "", "country": "PH", "coord": {"lon": 120.709198, "lat": 14.896}}, {"id": 1700754, "name": "Masantol", "state": "", "country": "PH", "coord": {"lon": 120.699997, "lat": 14.85}}, {"id": 1700768, "name": "Masalukot Uno", "state": "", "country": "PH", "coord": {"lon": 121.416672, "lat": 13.98333}}, {"id": 1700774, "name": "Masalipit", "state": "", "country": "PH", "coord": {"lon": 121.0373, "lat": 15.1481}}, {"id": 1700775, "name": "Masaling", "state": "", "country": "PH", "coord": {"lon": 122.536903, "lat": 9.9818}}, {"id": 1700786, "name": "Masaguisi", "state": "", "country": "PH", "coord": {"lon": 121.448418, "lat": 12.75452}}, {"id": 1700802, "name": "Masaba", "state": "", "country": "PH", "coord": {"lon": 123.966667, "lat": 10.53333}}, {"id": 1700806, "name": "Marupit", "state": "", "country": "PH", "coord": {"lon": 123.166298, "lat": 13.6269}}, {"id": 1700815, "name": "Marum", "state": "", "country": "PH", "coord": {"lon": 123.464203, "lat": 7.8286}}, {"id": 1700847, "name": "Marogong", "state": "", "country": "PH", "coord": {"lon": 124.150002, "lat": 7.66667}}, {"id": 1700868, "name": "Mariveles", "state": "", "country": "PH", "coord": {"lon": 120.485703, "lat": 14.4361}}, {"id": 1700869, "name": "Mariveles", "state": "", "country": "PH", "coord": {"lon": 120.48333, "lat": 14.48333}}, {"id": 1700876, "name": "Miliroc", "state": "", "country": "PH", "coord": {"lon": 123.694717, "lat": 13.34}}, {"id": 1700887, "name": "Maripipi", "state": "", "country": "PH", "coord": {"lon": 124.349167, "lat": 11.77917}}, {"id": 1700892, "name": "Marintoc", "state": "", "country": "PH", "coord": {"lon": 123.722809, "lat": 12.28554}}, {"id": 1700902, "name": "Province of Marinduque", "state": "", "country": "PH", "coord": {"lon": 121.949997, "lat": 13.41667}}, {"id": 1700917, "name": "Marilao", "state": "", "country": "PH", "coord": {"lon": 120.948334, "lat": 14.75778}}, {"id": 1700919, "name": "Marilao", "state": "", "country": "PH", "coord": {"lon": 120.949997, "lat": 14.76667}}, {"id": 1700926, "name": "City of Marikina", "state": "", "country": "PH", "coord": {"lon": 121.099998, "lat": 14.63333}}, {"id": 1700933, "name": "Marihatag", "state": "", "country": "PH", "coord": {"lon": 126.296944, "lat": 8.79361}}, {"id": 1700952, "name": "Maricalom", "state": "", "country": "PH", "coord": {"lon": 122.416672, "lat": 9.7}}, {"id": 1700962, "name": "Maricaban", "state": "", "country": "PH", "coord": {"lon": 123.767899, "lat": 11.1516}}, {"id": 1700966, "name": "Maribong", "state": "", "country": "PH", "coord": {"lon": 122.533333, "lat": 11.1}}, {"id": 1700968, "name": "Maribojoc", "state": "", "country": "PH", "coord": {"lon": 123.844597, "lat": 9.7417}}, {"id": 1700978, "name": "Mariano Marcos", "state": "", "country": "PH", "coord": {"lon": 124.666672, "lat": 6.73333}}, {"id": 1700980, "name": "Mariano", "state": "", "country": "PH", "coord": {"lon": 125.116669, "lat": 8.83333}}, {"id": 1700988, "name": "Maria Cristina", "state": "", "country": "PH", "coord": {"lon": 124.191673, "lat": 8.16139}}, {"id": 1700994, "name": "Maria Aurora", "state": "", "country": "PH", "coord": {"lon": 121.473701, "lat": 15.7967}}, {"id": 1700999, "name": "Maria", "state": "", "country": "PH", "coord": {"lon": 123.654404, "lat": 9.1983}}, {"id": 1701003, "name": "Margosatubig", "state": "", "country": "PH", "coord": {"lon": 123.165802, "lat": 7.5777}}, {"id": 1701006, "name": "Margen", "state": "", "country": "PH", "coord": {"lon": 124.528328, "lat": 11.01722}}, {"id": 1701023, "name": "Marcos", "state": "", "country": "PH", "coord": {"lon": 120.689796, "lat": 18.052}}, {"id": 1701041, "name": "Marbel", "state": "", "country": "PH", "coord": {"lon": 124.912498, "lat": 7.11583}}, {"id": 1701053, "name": "Marawi City", "state": "", "country": "PH", "coord": {"lon": 124.283333, "lat": 8.0}}, {"id": 1701054, "name": "Marawi", "state": "", "country": "PH", "coord": {"lon": 124.292778, "lat": 7.99861}}, {"id": 1701056, "name": "Marawa", "state": "", "country": "PH", "coord": {"lon": 120.8386, "lat": 15.4174}}, {"id": 1701061, "name": "Maravilla", "state": "", "country": "PH", "coord": {"lon": 123.8918, "lat": 10.9011}}, {"id": 1701083, "name": "Marao", "state": "", "country": "PH", "coord": {"lon": 121.839172, "lat": 13.91417}}, {"id": 1701087, "name": "Marantao", "state": "", "country": "PH", "coord": {"lon": 124.23333, "lat": 7.95}}, {"id": 1701124, "name": "Maramag", "state": "", "country": "PH", "coord": {"lon": 125.00528, "lat": 7.76333}}, {"id": 1701125, "name": "Maramag", "state": "", "country": "PH", "coord": {"lon": 124.949997, "lat": 7.81667}}, {"id": 1701149, "name": "Maragondon", "state": "", "country": "PH", "coord": {"lon": 120.737701, "lat": 14.2733}}, {"id": 1701150, "name": "Maragondon", "state": "", "country": "PH", "coord": {"lon": 120.716667, "lat": 14.23333}}, {"id": 1701186, "name": "Makiwalo", "state": "", "country": "PH", "coord": {"lon": 124.706001, "lat": 12.5101}}, {"id": 1701195, "name": "Maquiling", "state": "", "country": "PH", "coord": {"lon": 123.393799, "lat": 10.78094}}, {"id": 1701200, "name": "Maquiapo", "state": "", "country": "PH", "coord": {"lon": 120.558899, "lat": 14.9852}}, {"id": 1701218, "name": "Maputi", "state": "", "country": "PH", "coord": {"lon": 124.290558, "lat": 8.44972}}, {"id": 1701227, "name": "Mapulot", "state": "", "country": "PH", "coord": {"lon": 122.540833, "lat": 14.03389}}, {"id": 1701229, "name": "Mapulo", "state": "", "country": "PH", "coord": {"lon": 121.184196, "lat": 13.7317}}, {"id": 1701246, "name": "Mapolopolo", "state": "", "country": "PH", "coord": {"lon": 120.366669, "lat": 15.9}}, {"id": 1701257, "name": "Mapili", "state": "", "country": "PH", "coord": {"lon": 122.739304, "lat": 11.1081}}, {"id": 1701281, "name": "Mapaniqui", "state": "", "country": "PH", "coord": {"lon": 120.921997, "lat": 15.1043}}, {"id": 1701290, "name": "Mapandan", "state": "", "country": "PH", "coord": {"lon": 120.454697, "lat": 16.024799}}, {"id": 1701296, "name": "Mapanas", "state": "", "country": "PH", "coord": {"lon": 125.25621, "lat": 12.47502}}, {"id": 1701313, "name": "Mapalad", "state": "", "country": "PH", "coord": {"lon": 121.099998, "lat": 15.43333}}, {"id": 1701314, "name": "Mapalacsiao", "state": "", "country": "PH", "coord": {"lon": 120.649719, "lat": 15.43}}, {"id": 1701342, "name": "Maonon", "state": "", "country": "PH", "coord": {"lon": 123.370743, "lat": 13.03643}}, {"id": 1701383, "name": "Manup", "state": "", "country": "PH", "coord": {"lon": 122.498001, "lat": 11.5315}}, {"id": 1701394, "name": "Manuk Mangkaw", "state": "", "country": "PH", "coord": {"lon": 119.849998, "lat": 4.8}}, {"id": 1701395, "name": "Manukan", "state": "", "country": "PH", "coord": {"lon": 123.099998, "lat": 8.53333}}, {"id": 1701400, "name": "Manuel Roxas", "state": "", "country": "PH", "coord": {"lon": 124.666672, "lat": 6.44528}}, {"id": 1701410, "name": "Manubul", "state": "", "country": "PH", "coord": {"lon": 120.798599, "lat": 5.4732}}, {"id": 1701413, "name": "Manuangan", "state": "", "country": "PH", "coord": {"lon": 124.404442, "lat": 7.27694}}, {"id": 1701431, "name": "Mantiquil", "state": "", "country": "PH", "coord": {"lon": 123.050003, "lat": 9.16667}}, {"id": 1701441, "name": "Manticao", "state": "", "country": "PH", "coord": {"lon": 124.286667, "lat": 8.40417}}, {"id": 1701469, "name": "Mantang", "state": "", "country": "PH", "coord": {"lon": 125.428329, "lat": 11.87}}, {"id": 1701472, "name": "Mantampay", "state": "", "country": "PH", "coord": {"lon": 124.216667, "lat": 8.16667}}, {"id": 1701474, "name": "Mantalongon", "state": "", "country": "PH", "coord": {"lon": 123.580803, "lat": 10.126}}, {"id": 1701475, "name": "Mantalongon", "state": "", "country": "PH", "coord": {"lon": 123.4617, "lat": 9.8106}}, {"id": 1701500, "name": "Mansilingan", "state": "", "country": "PH", "coord": {"lon": 122.978889, "lat": 10.63111}}, {"id": 1701516, "name": "Mansalay", "state": "", "country": "PH", "coord": {"lon": 121.438507, "lat": 12.52044}}, {"id": 1701517, "name": "Mansalay", "state": "", "country": "PH", "coord": {"lon": 121.400002, "lat": 12.51667}}, {"id": 1701537, "name": "Manolo Fortich", "state": "", "country": "PH", "coord": {"lon": 124.864441, "lat": 8.36972}}, {"id": 1701538, "name": "Manolo Fortich", "state": "", "country": "PH", "coord": {"lon": 124.866669, "lat": 8.38333}}, {"id": 1701551, "name": "Manoc-Manoc", "state": "", "country": "PH", "coord": {"lon": 121.94281, "lat": 11.94157}}, {"id": 1701559, "name": "Ma\u00f1o", "state": "", "country": "PH", "coord": {"lon": 123.944717, "lat": 11.04167}}, {"id": 1701579, "name": "Manlucahoc", "state": "", "country": "PH", "coord": {"lon": 122.498611, "lat": 9.74222}}, {"id": 1701582, "name": "Malilinao", "state": "", "country": "PH", "coord": {"lon": 124.501106, "lat": 11.10694}}, {"id": 1701609, "name": "Mankayan", "state": "", "country": "PH", "coord": {"lon": 120.800003, "lat": 16.85}}, {"id": 1701623, "name": "Manito", "state": "", "country": "PH", "coord": {"lon": 123.869301, "lat": 13.1235}}, {"id": 1701643, "name": "Maninihon", "state": "", "country": "PH", "coord": {"lon": 122.839996, "lat": 9.37}}, {"id": 1701667, "name": "City of Manila", "state": "", "country": "PH", "coord": {"lon": 121.0, "lat": 14.58333}}, {"id": 1701668, "name": "Manila", "state": "", "country": "PH", "coord": {"lon": 120.982201, "lat": 14.6042}}, {"id": 1701672, "name": "Manikling", "state": "", "country": "PH", "coord": {"lon": 126.060631, "lat": 6.87907}}, {"id": 1701674, "name": "Manika", "state": "", "country": "PH", "coord": {"lon": 122.279312, "lat": 11.38801}}, {"id": 1701688, "name": "Manicahan", "state": "", "country": "PH", "coord": {"lon": 122.201111, "lat": 7.01944}}, {"id": 1701692, "name": "Manibaug Pasig", "state": "", "country": "PH", "coord": {"lon": 120.560402, "lat": 15.1012}}, {"id": 1701702, "name": "Manjoy", "state": "", "country": "PH", "coord": {"lon": 122.666298, "lat": 11.3534}}, {"id": 1701723, "name": "Manquiring", "state": "", "country": "PH", "coord": {"lon": 123.268997, "lat": 13.7341}}, {"id": 1701750, "name": "Mangoso", "state": "", "country": "PH", "coord": {"lon": 122.638199, "lat": 11.4175}}, {"id": 1701789, "name": "Mangili", "state": "", "country": "PH", "coord": {"lon": 125.683891, "lat": 6.00333}}, {"id": 1701799, "name": "Mangero", "state": "", "country": "PH", "coord": {"lon": 122.677498, "lat": 13.27028}}, {"id": 1701822, "name": "Mangatarem", "state": "", "country": "PH", "coord": {"lon": 120.292099, "lat": 15.7874}}, {"id": 1701830, "name": "Mangas", "state": "", "country": "PH", "coord": {"lon": 120.8666, "lat": 14.11769}}, {"id": 1701840, "name": "Mangarine", "state": "", "country": "PH", "coord": {"lon": 121.098007, "lat": 12.35115}}, {"id": 1701872, "name": "Mangaldan", "state": "", "country": "PH", "coord": {"lon": 120.402496, "lat": 16.07}}, {"id": 1701873, "name": "Mangaldan", "state": "", "country": "PH", "coord": {"lon": 120.400002, "lat": 16.066669}}, {"id": 1701874, "name": "Manaloal", "state": "", "country": "PH", "coord": {"lon": 125.660278, "lat": 7.36611}}, {"id": 1701879, "name": "Manggahan", "state": "", "country": "PH", "coord": {"lon": 120.906868, "lat": 14.2941}}, {"id": 1701891, "name": "Manga", "state": "", "country": "PH", "coord": {"lon": 121.86235, "lat": 17.701111}}, {"id": 1701899, "name": "Mangga", "state": "", "country": "PH", "coord": {"lon": 120.908897, "lat": 15.251}}, {"id": 1701903, "name": "Manga", "state": "", "country": "PH", "coord": {"lon": 123.462303, "lat": 13.2719}}, {"id": 1701911, "name": "Manga", "state": "", "country": "PH", "coord": {"lon": 125.308327, "lat": 6.29083}}, {"id": 1701917, "name": "Mandurriao", "state": "", "country": "PH", "coord": {"lon": 122.535561, "lat": 10.71972}}, {"id": 1701938, "name": "Mandili", "state": "", "country": "PH", "coord": {"lon": 120.917099, "lat": 15.1595}}, {"id": 1701939, "name": "Mandih", "state": "", "country": "PH", "coord": {"lon": 123.014099, "lat": 8.2087}}, {"id": 1701946, "name": "Mandaue City", "state": "", "country": "PH", "coord": {"lon": 123.933327, "lat": 10.33333}}, {"id": 1701947, "name": "Mandaue City", "state": "", "country": "PH", "coord": {"lon": 123.922218, "lat": 10.32361}}, {"id": 1701954, "name": "Mandaon", "state": "", "country": "PH", "coord": {"lon": 123.28421, "lat": 12.22594}}, {"id": 1701962, "name": "Mandangoa", "state": "", "country": "PH", "coord": {"lon": 124.791107, "lat": 8.77278}}, {"id": 1701966, "name": "Mandaluyong City", "state": "", "country": "PH", "coord": {"lon": 121.040901, "lat": 14.5832}}, {"id": 1701968, "name": "City of Mandaluyong", "state": "", "country": "PH", "coord": {"lon": 121.033333, "lat": 14.58333}}, {"id": 1701998, "name": "Mancilang", "state": "", "country": "PH", "coord": {"lon": 123.746201, "lat": 11.2835}}, {"id": 1702002, "name": "Mankayan", "state": "", "country": "PH", "coord": {"lon": 120.782898, "lat": 16.863199}}, {"id": 1702031, "name": "Manay", "state": "", "country": "PH", "coord": {"lon": 125.574997, "lat": 7.34167}}, {"id": 1702032, "name": "Manay", "state": "", "country": "PH", "coord": {"lon": 126.539719, "lat": 7.215}}, {"id": 1702037, "name": "Manaulanan", "state": "", "country": "PH", "coord": {"lon": 124.619438, "lat": 7.04806}}, {"id": 1702041, "name": "Manaul", "state": "", "country": "PH", "coord": {"lon": 121.410698, "lat": 12.453}}, {"id": 1702051, "name": "Manatal", "state": "", "country": "PH", "coord": {"lon": 120.900002, "lat": 14.81667}}, {"id": 1702056, "name": "Manat", "state": "", "country": "PH", "coord": {"lon": 126.018402, "lat": 7.5637}}, {"id": 1702057, "name": "Manat", "state": "", "country": "PH", "coord": {"lon": 126.017303, "lat": 7.5327}}, {"id": 1702066, "name": "Manaring", "state": "", "country": "PH", "coord": {"lon": 121.902542, "lat": 17.172939}}, {"id": 1702077, "name": "Manapla", "state": "", "country": "PH", "coord": {"lon": 123.123001, "lat": 10.95803}}, {"id": 1702078, "name": "Manapla", "state": "", "country": "PH", "coord": {"lon": 123.133331, "lat": 10.91667}}, {"id": 1702083, "name": "Manapa", "state": "", "country": "PH", "coord": {"lon": 125.439438, "lat": 8.97778}}, {"id": 1702096, "name": "Manaoag", "state": "", "country": "PH", "coord": {"lon": 120.486099, "lat": 16.0438}}, {"id": 1702098, "name": "Manaoag", "state": "", "country": "PH", "coord": {"lon": 120.48333, "lat": 16.033331}}, {"id": 1702101, "name": "Mananum", "state": "", "country": "PH", "coord": {"lon": 124.949997, "lat": 8.83333}}, {"id": 1702140, "name": "Manamrag", "state": "", "country": "PH", "coord": {"lon": 124.1064, "lat": 13.7351}}, {"id": 1702145, "name": "Manalongon", "state": "", "country": "PH", "coord": {"lon": 122.886002, "lat": 9.2209}}, {"id": 1702153, "name": "Manalad", "state": "", "country": "PH", "coord": {"lon": 122.776901, "lat": 10.0056}}, {"id": 1702165, "name": "Manogpi", "state": "", "country": "PH", "coord": {"lon": 121.204002, "lat": 13.3108}}, {"id": 1702166, "name": "Managok", "state": "", "country": "PH", "coord": {"lon": 125.188606, "lat": 8.02889}}, {"id": 1702176, "name": "Managa", "state": "", "country": "PH", "coord": {"lon": 125.268059, "lat": 6.74611}}, {"id": 1702183, "name": "Manacsac", "state": "", "country": "PH", "coord": {"lon": 120.7911, "lat": 15.5952}}, {"id": 1702194, "name": "Manabo", "state": "", "country": "PH", "coord": {"lon": 120.705299, "lat": 17.433201}}, {"id": 1702215, "name": "Mamonit", "state": "", "country": "PH", "coord": {"lon": 120.397202, "lat": 15.5859}}, {"id": 1702221, "name": "Mampurog", "state": "", "country": "PH", "coord": {"lon": 122.883598, "lat": 14.0458}}, {"id": 1702257, "name": "Mambusao", "state": "", "country": "PH", "coord": {"lon": 122.5961, "lat": 11.4289}}, {"id": 1702263, "name": "Mamburao", "state": "", "country": "PH", "coord": {"lon": 120.596001, "lat": 13.2233}}, {"id": 1702265, "name": "Mamburao", "state": "", "country": "PH", "coord": {"lon": 120.666672, "lat": 13.25}}, {"id": 1702271, "name": "Mambulo", "state": "", "country": "PH", "coord": {"lon": 123.050003, "lat": 13.71667}}, {"id": 1702298, "name": "Mambog", "state": "", "country": "PH", "coord": {"lon": 120.030403, "lat": 15.3137}}, {"id": 1702318, "name": "Mambayaan", "state": "", "country": "PH", "coord": {"lon": 124.784172, "lat": 8.78278}}, {"id": 1702322, "name": "Mambatangan", "state": "", "country": "PH", "coord": {"lon": 124.833328, "lat": 8.43333}}, {"id": 1702348, "name": "Mambajao", "state": "", "country": "PH", "coord": {"lon": 124.715599, "lat": 9.2504}}, {"id": 1702351, "name": "Mabahin", "state": "", "country": "PH", "coord": {"lon": 126.170563, "lat": 9.18556}}, {"id": 1702354, "name": "Mambago", "state": "", "country": "PH", "coord": {"lon": 125.694443, "lat": 7.10556}}, {"id": 1702359, "name": "Mambagatan", "state": "", "country": "PH", "coord": {"lon": 122.887779, "lat": 10.11056}}, {"id": 1702372, "name": "Mamatid", "state": "", "country": "PH", "coord": {"lon": 121.158058, "lat": 14.23417}}, {"id": 1702396, "name": "Mamali", "state": "", "country": "PH", "coord": {"lon": 124.644997, "lat": 6.77667}}, {"id": 1702402, "name": "Mamala", "state": "", "country": "PH", "coord": {"lon": 121.51667, "lat": 14.01667}}, {"id": 1702413, "name": "Malvar", "state": "", "country": "PH", "coord": {"lon": 121.158607, "lat": 14.04472}}, {"id": 1702415, "name": "Malvar", "state": "", "country": "PH", "coord": {"lon": 121.150002, "lat": 14.03333}}, {"id": 1702425, "name": "Maluso", "state": "", "country": "PH", "coord": {"lon": 121.875298, "lat": 6.543}}, {"id": 1702431, "name": "Malusac", "state": "", "country": "PH", "coord": {"lon": 120.621498, "lat": 14.8587}}, {"id": 1702439, "name": "Maluno Sur", "state": "", "country": "PH", "coord": {"lon": 121.96434, "lat": 16.99885}}, {"id": 1702442, "name": "Malu\u00f1gun", "state": "", "country": "PH", "coord": {"lon": 125.28167, "lat": 6.27917}}, {"id": 1702457, "name": "Maluko", "state": "", "country": "PH", "coord": {"lon": 124.953888, "lat": 8.375}}, {"id": 1702459, "name": "Maluid", "state": "", "country": "PH", "coord": {"lon": 120.652802, "lat": 15.5493}}, {"id": 1702486, "name": "Malway", "state": "", "country": "PH", "coord": {"lon": 123.220299, "lat": 9.1319}}, {"id": 1702487, "name": "Maluanluan", "state": "", "country": "PH", "coord": {"lon": 121.423523, "lat": 13.0967}}, {"id": 1702492, "name": "Maltana", "state": "", "country": "PH", "coord": {"lon": 124.937218, "lat": 6.4225}}, {"id": 1702539, "name": "Maloma", "state": "", "country": "PH", "coord": {"lon": 120.063904, "lat": 15.1135}}, {"id": 1702540, "name": "Malolos", "state": "", "country": "PH", "coord": {"lon": 120.811668, "lat": 14.84194}}, {"id": 1702544, "name": "Maloh", "state": "", "country": "PH", "coord": {"lon": 122.9851, "lat": 9.056}}, {"id": 1702553, "name": "Maloco", "state": "", "country": "PH", "coord": {"lon": 122.152, "lat": 11.7832}}, {"id": 1702554, "name": "Malocloc", "state": "", "country": "PH", "coord": {"lon": 122.678329, "lat": 11.50583}}, {"id": 1702590, "name": "Mallig", "state": "", "country": "PH", "coord": {"lon": 121.610741, "lat": 17.212839}}, {"id": 1702591, "name": "Mallig", "state": "", "country": "PH", "coord": {"lon": 121.68306, "lat": 17.141109}}, {"id": 1702615, "name": "Malitubog", "state": "", "country": "PH", "coord": {"lon": 124.638062, "lat": 7.31556}}, {"id": 1702633, "name": "Malitbog", "state": "", "country": "PH", "coord": {"lon": 121.465919, "lat": 12.75212}}, {"id": 1702635, "name": "Malitbog", "state": "", "country": "PH", "coord": {"lon": 124.999168, "lat": 10.16}}, {"id": 1702637, "name": "Malitbog", "state": "", "country": "PH", "coord": {"lon": 124.883057, "lat": 8.53389}}, {"id": 1702649, "name": "Malita", "state": "", "country": "PH", "coord": {"lon": 125.611671, "lat": 6.415}}, {"id": 1702652, "name": "Malisbeng", "state": "", "country": "PH", "coord": {"lon": 124.354721, "lat": 6.12}}, {"id": 1702678, "name": "Malinta", "state": "", "country": "PH", "coord": {"lon": 123.557503, "lat": 12.30222}}, {"id": 1702693, "name": "Malingin", "state": "", "country": "PH", "coord": {"lon": 123.98333, "lat": 11.05}}, {"id": 1702708, "name": "Malinaw", "state": "", "country": "PH", "coord": {"lon": 125.193062, "lat": 8.825}}, {"id": 1702718, "name": "Malinao Ilaya", "state": "", "country": "PH", "coord": {"lon": 121.833328, "lat": 14.0}}, {"id": 1702733, "name": "Malinao", "state": "", "country": "PH", "coord": {"lon": 123.706902, "lat": 13.3992}}, {"id": 1702737, "name": "Malinao", "state": "", "country": "PH", "coord": {"lon": 122.308296, "lat": 11.6439}}, {"id": 1702744, "name": "Malinao", "state": "", "country": "PH", "coord": {"lon": 125.286667, "lat": 6.65917}}, {"id": 1702756, "name": "Malimono", "state": "", "country": "PH", "coord": {"lon": 125.402222, "lat": 9.61806}}, {"id": 1702763, "name": "Malilipot", "state": "", "country": "PH", "coord": {"lon": 123.738503, "lat": 13.3188}}, {"id": 1702764, "name": "Malilipot", "state": "", "country": "PH", "coord": {"lon": 123.716667, "lat": 13.3}}, {"id": 1702771, "name": "Maliko", "state": "", "country": "PH", "coord": {"lon": 125.473892, "lat": 9.75528}}, {"id": 1702777, "name": "Maliig", "state": "", "country": "PH", "coord": {"lon": 120.150322, "lat": 13.84556}}, {"id": 1702796, "name": "Maligaya", "state": "", "country": "PH", "coord": {"lon": 120.889717, "lat": 15.67417}}, {"id": 1702807, "name": "Malidong", "state": "", "country": "PH", "coord": {"lon": 123.459618, "lat": 13.01333}}, {"id": 1702814, "name": "Malicboy", "state": "", "country": "PH", "coord": {"lon": 121.789169, "lat": 13.97889}}, {"id": 1702824, "name": "Malibong East", "state": "", "country": "PH", "coord": {"lon": 120.326897, "lat": 15.8466}}, {"id": 1702843, "name": "Malibago", "state": "", "country": "PH", "coord": {"lon": 122.022797, "lat": 13.2783}}, {"id": 1702860, "name": "Malhiao", "state": "", "country": "PH", "coord": {"lon": 123.406403, "lat": 9.88487}}, {"id": 1702889, "name": "Malbug", "state": "", "country": "PH", "coord": {"lon": 123.646103, "lat": 12.0563}}, {"id": 1702892, "name": "Malbug", "state": "", "country": "PH", "coord": {"lon": 123.340202, "lat": 9.7327}}, {"id": 1702912, "name": "Malbang", "state": "", "country": "PH", "coord": {"lon": 125.04528, "lat": 5.85556}}, {"id": 1702934, "name": "Malaybalay", "state": "", "country": "PH", "coord": {"lon": 125.083328, "lat": 8.15}}, {"id": 1702944, "name": "Malayal", "state": "", "country": "PH", "coord": {"lon": 121.942039, "lat": 7.20801}}, {"id": 1702949, "name": "Malaya", "state": "", "country": "PH", "coord": {"lon": 121.338501, "lat": 14.3971}}, {"id": 1702953, "name": "Malay", "state": "", "country": "PH", "coord": {"lon": 121.909111, "lat": 11.90027}}, {"id": 1702962, "name": "Malawag", "state": "", "country": "PH", "coord": {"lon": 123.283333, "lat": 13.38333}}, {"id": 1702963, "name": "Malawa", "state": "", "country": "PH", "coord": {"lon": 120.278297, "lat": 15.9584}}, {"id": 1703003, "name": "Malatap", "state": "", "country": "PH", "coord": {"lon": 122.511902, "lat": 14.1871}}, {"id": 1703005, "name": "Malasugui", "state": "", "country": "PH", "coord": {"lon": 122.847099, "lat": 14.1439}}, {"id": 1703010, "name": "Malasiqui", "state": "", "country": "PH", "coord": {"lon": 120.414001, "lat": 15.9201}}, {"id": 1703012, "name": "Malasin", "state": "", "country": "PH", "coord": {"lon": 121.785744, "lat": 16.80286}}, {"id": 1703013, "name": "Malasin", "state": "", "country": "PH", "coord": {"lon": 121.106201, "lat": 16.304501}}, {"id": 1703020, "name": "Malasila", "state": "", "country": "PH", "coord": {"lon": 125.12944, "lat": 6.94389}}, {"id": 1703027, "name": "Malaruhatan", "state": "", "country": "PH", "coord": {"lon": 120.680397, "lat": 14.0306}}, {"id": 1703051, "name": "Malapatan", "state": "", "country": "PH", "coord": {"lon": 125.289436, "lat": 5.96917}}, {"id": 1703062, "name": "Malapag", "state": "", "country": "PH", "coord": {"lon": 124.816673, "lat": 7.13333}}, {"id": 1703101, "name": "Malangas", "state": "", "country": "PH", "coord": {"lon": 123.03167, "lat": 7.63028}}, {"id": 1703108, "name": "Malangabang", "state": "", "country": "PH", "coord": {"lon": 123.2062, "lat": 11.2367}}, {"id": 1703116, "name": "Malanday", "state": "", "country": "PH", "coord": {"lon": 121.1306, "lat": 14.7069}}, {"id": 1703119, "name": "Malanay", "state": "", "country": "PH", "coord": {"lon": 120.408798, "lat": 16.008801}}, {"id": 1703134, "name": "Malamote", "state": "", "country": "PH", "coord": {"lon": 124.940002, "lat": 7.07389}}, {"id": 1703143, "name": "Malamig", "state": "", "country": "PH", "coord": {"lon": 121.366669, "lat": 12.95}}, {"id": 1703187, "name": "Malalag", "state": "", "country": "PH", "coord": {"lon": 125.39917, "lat": 6.59583}}, {"id": 1703211, "name": "Malainen Luma", "state": "", "country": "PH", "coord": {"lon": 120.788399, "lat": 14.2703}}, {"id": 1703220, "name": "Malaiba", "state": "", "country": "PH", "coord": {"lon": 123.316673, "lat": 10.33333}}, {"id": 1703221, "name": "Malajog", "state": "", "country": "PH", "coord": {"lon": 124.479172, "lat": 12.11056}}, {"id": 1703238, "name": "Malayo-an", "state": "", "country": "PH", "coord": {"lon": 123.009102, "lat": 11.0979}}, {"id": 1703243, "name": "Malagos", "state": "", "country": "PH", "coord": {"lon": 125.422218, "lat": 7.185}}, {"id": 1703269, "name": "Malaga", "state": "", "country": "PH", "coord": {"lon": 124.379723, "lat": 12.23833}}, {"id": 1703289, "name": "Malacampa", "state": "", "country": "PH", "coord": {"lon": 120.409302, "lat": 15.6483}}, {"id": 1703298, "name": "Malabuyoc", "state": "", "country": "PH", "coord": {"lon": 123.325203, "lat": 9.6525}}, {"id": 1703306, "name": "Malabugas", "state": "", "country": "PH", "coord": {"lon": 122.767776, "lat": 9.36806}}, {"id": 1703315, "name": "Malabor", "state": "", "country": "PH", "coord": {"lon": 122.046608, "lat": 11.27292}}, {"id": 1703319, "name": "Malabon", "state": "", "country": "PH", "coord": {"lon": 119.937897, "lat": 15.6361}}, {"id": 1703320, "name": "Malabon", "state": "", "country": "PH", "coord": {"lon": 120.93972, "lat": 14.67333}}, {"id": 1703323, "name": "Malabog", "state": "", "country": "PH", "coord": {"lon": 123.686501, "lat": 13.1738}}, {"id": 1703352, "name": "Malabang", "state": "", "country": "PH", "coord": {"lon": 124.070282, "lat": 7.59028}}, {"id": 1703355, "name": "Malabanban Norte", "state": "", "country": "PH", "coord": {"lon": 121.466667, "lat": 13.93333}}, {"id": 1703357, "name": "Malabanan", "state": "", "country": "PH", "coord": {"lon": 121.133331, "lat": 14.0}}, {"id": 1703372, "name": "Malabago", "state": "", "country": "PH", "coord": {"lon": 120.354698, "lat": 15.9743}}, {"id": 1703383, "name": "Malabag", "state": "", "country": "PH", "coord": {"lon": 120.967506, "lat": 14.13938}}, {"id": 1703405, "name": "Makilala", "state": "", "country": "PH", "coord": {"lon": 125.096939, "lat": 6.95167}}, {"id": 1703417, "name": "Makati City", "state": "", "country": "PH", "coord": {"lon": 121.032692, "lat": 14.55027}}, {"id": 1703450, "name": "Majayjay", "state": "", "country": "PH", "coord": {"lon": 121.4729, "lat": 14.1463}}, {"id": 1703471, "name": "Maitum", "state": "", "country": "PH", "coord": {"lon": 124.498611, "lat": 6.03917}}, {"id": 1703502, "name": "Mainit Norte", "state": "", "country": "PH", "coord": {"lon": 121.966667, "lat": 14.16667}}, {"id": 1703518, "name": "Mainit", "state": "", "country": "PH", "coord": {"lon": 125.523064, "lat": 9.535}}, {"id": 1703519, "name": "Mainit", "state": "", "country": "PH", "coord": {"lon": 123.359497, "lat": 9.4335}}, {"id": 1703521, "name": "Mainit", "state": "", "country": "PH", "coord": {"lon": 117.818298, "lat": 8.8436}}, {"id": 1703531, "name": "Maindang", "state": "", "country": "PH", "coord": {"lon": 124.845001, "lat": 6.59556}}, {"id": 1703539, "name": "Maimbung", "state": "", "country": "PH", "coord": {"lon": 121.02935, "lat": 5.9272}}, {"id": 1703544, "name": "Mailag", "state": "", "country": "PH", "coord": {"lon": 125.137497, "lat": 7.97028}}, {"id": 1703554, "name": "Maigo", "state": "", "country": "PH", "coord": {"lon": 123.958298, "lat": 8.1613}}, {"id": 1703560, "name": "Maibu", "state": "", "country": "PH", "coord": {"lon": 124.79361, "lat": 6.57}}, {"id": 1703577, "name": "Mahinog", "state": "", "country": "PH", "coord": {"lon": 124.787498, "lat": 9.15778}}, {"id": 1703597, "name": "Mahayag", "state": "", "country": "PH", "coord": {"lon": 124.316399, "lat": 9.9349}}, {"id": 1703598, "name": "Mahayag", "state": "", "country": "PH", "coord": {"lon": 123.445503, "lat": 8.1183}}, {"id": 1703599, "name": "Mahayag", "state": "", "country": "PH", "coord": {"lon": 125.619438, "lat": 7.21667}}, {"id": 1703603, "name": "Mahatao", "state": "", "country": "PH", "coord": {"lon": 121.947067, "lat": 20.41585}}, {"id": 1703607, "name": "Mahaplag", "state": "", "country": "PH", "coord": {"lon": 124.9646, "lat": 10.6045}}, {"id": 1703608, "name": "Mahaplag", "state": "", "country": "PH", "coord": {"lon": 124.975304, "lat": 10.5788}}, {"id": 1703612, "name": "Mahanob", "state": "", "country": "PH", "coord": {"lon": 126.504173, "lat": 7.57833}}, {"id": 1703626, "name": "Mahala", "state": "", "country": "PH", "coord": {"lon": 121.133331, "lat": 5.91667}}, {"id": 1703644, "name": "Mahabang Parang", "state": "", "country": "PH", "coord": {"lon": 121.083328, "lat": 13.98333}}, {"id": 1703663, "name": "Mahaba", "state": "", "country": "PH", "coord": {"lon": 123.551666, "lat": 13.26861}}, {"id": 1703667, "name": "Maguyam", "state": "", "country": "PH", "coord": {"lon": 121.004997, "lat": 14.26277}}, {"id": 1703685, "name": "Maguling", "state": "", "country": "PH", "coord": {"lon": 124.403328, "lat": 6.095}}, {"id": 1703701, "name": "Province of Maguindanao", "state": "", "country": "PH", "coord": {"lon": 124.300003, "lat": 7.13333}}, {"id": 1703702, "name": "Maguinao", "state": "", "country": "PH", "coord": {"lon": 120.934402, "lat": 15.0239}}, {"id": 1703704, "name": "Maguilling", "state": "", "country": "PH", "coord": {"lon": 121.484901, "lat": 17.7582}}, {"id": 1703733, "name": "Magtangol", "state": "", "country": "PH", "coord": {"lon": 120.933327, "lat": 15.76667}}, {"id": 1703738, "name": "Magtaking", "state": "", "country": "PH", "coord": {"lon": 120.183197, "lat": 15.9854}}, {"id": 1703757, "name": "Magsingal", "state": "", "country": "PH", "coord": {"lon": 120.424438, "lat": 17.684999}}, {"id": 1703767, "name": "Magsaysay", "state": "", "country": "PH", "coord": {"lon": 121.777542, "lat": 17.30813}}, {"id": 1703768, "name": "Magsaysay", "state": "", "country": "PH", "coord": {"lon": 121.150002, "lat": 12.33333}}, {"id": 1703769, "name": "Magsaysay", "state": "", "country": "PH", "coord": {"lon": 121.053062, "lat": 10.87389}}, {"id": 1703770, "name": "Magsaysay", "state": "", "country": "PH", "coord": {"lon": 125.182503, "lat": 9.02083}}, {"id": 1703772, "name": "Magsaysay", "state": "", "country": "PH", "coord": {"lon": 125.635002, "lat": 7.39667}}, {"id": 1703773, "name": "Magsaysay", "state": "", "country": "PH", "coord": {"lon": 125.183327, "lat": 6.76667}}, {"id": 1703779, "name": "Magsaysay", "state": "", "country": "PH", "coord": {"lon": 125.183327, "lat": 6.76667}}, {"id": 1703785, "name": "Magsalangi", "state": "", "country": "PH", "coord": {"lon": 123.566612, "lat": 12.18275}}, {"id": 1703792, "name": "Magpet", "state": "", "country": "PH", "coord": {"lon": 125.113327, "lat": 7.11194}}, {"id": 1703833, "name": "Magnaga", "state": "", "country": "PH", "coord": {"lon": 125.893097, "lat": 7.1694}}, {"id": 1703855, "name": "Maglamin", "state": "", "country": "PH", "coord": {"lon": 125.261673, "lat": 8.05194}}, {"id": 1703892, "name": "Magdug", "state": "", "country": "PH", "coord": {"lon": 126.095078, "lat": 6.54764}}, {"id": 1703893, "name": "Magdua", "state": "", "country": "PH", "coord": {"lon": 122.9823, "lat": 14.133}}, {"id": 1703896, "name": "Magdiwang", "state": "", "country": "PH", "coord": {"lon": 122.513512, "lat": 12.49103}}, {"id": 1703911, "name": "Magdalena", "state": "", "country": "PH", "coord": {"lon": 121.76667, "lat": 16.933331}}, {"id": 1703912, "name": "Magdalena", "state": "", "country": "PH", "coord": {"lon": 121.429001, "lat": 14.1999}}, {"id": 1703915, "name": "Magdalena", "state": "", "country": "PH", "coord": {"lon": 121.975098, "lat": 10.4236}}, {"id": 1703917, "name": "Magdalena", "state": "", "country": "PH", "coord": {"lon": 121.433327, "lat": 14.2}}, {"id": 1703943, "name": "Magbay", "state": "", "country": "PH", "coord": {"lon": 121.089912, "lat": 12.41014}}, {"id": 1703959, "name": "Magay", "state": "", "country": "PH", "coord": {"lon": 124.013199, "lat": 10.4719}}, {"id": 1703964, "name": "Magatos", "state": "", "country": "PH", "coord": {"lon": 125.726669, "lat": 7.55556}}, {"id": 1704002, "name": "Magarao", "state": "", "country": "PH", "coord": {"lon": 123.186897, "lat": 13.6604}}, {"id": 1704003, "name": "Magarao", "state": "", "country": "PH", "coord": {"lon": 123.166672, "lat": 13.65}}, {"id": 1704014, "name": "Magapit, Aguiguican", "state": "", "country": "PH", "coord": {"lon": 121.677048, "lat": 18.10788}}, {"id": 1704021, "name": "Maganoy", "state": "", "country": "PH", "coord": {"lon": 124.441673, "lat": 6.86472}}, {"id": 1704022, "name": "Shariff Aguak (Maganoy)", "state": "", "country": "PH", "coord": {"lon": 124.433327, "lat": 6.91667}}, {"id": 1704043, "name": "Magallon Cadre", "state": "", "country": "PH", "coord": {"lon": 123.092201, "lat": 10.2885}}, {"id": 1704049, "name": "Magallanes", "state": "", "country": "PH", "coord": {"lon": 120.738998, "lat": 16.0196}}, {"id": 1704050, "name": "Magallanes", "state": "", "country": "PH", "coord": {"lon": 120.7575, "lat": 14.18833}}, {"id": 1704052, "name": "Magallanes", "state": "", "country": "PH", "coord": {"lon": 123.836388, "lat": 12.82917}}, {"id": 1704058, "name": "Magallanes", "state": "", "country": "PH", "coord": {"lon": 125.51722, "lat": 9.02}}, {"id": 1704067, "name": "Magalang", "state": "", "country": "PH", "coord": {"lon": 120.659599, "lat": 15.2151}}, {"id": 1704068, "name": "Magalang", "state": "", "country": "PH", "coord": {"lon": 120.683327, "lat": 15.23333}}, {"id": 1704070, "name": "Magalalag", "state": "", "country": "PH", "coord": {"lon": 121.741096, "lat": 17.575399}}, {"id": 1704115, "name": "Madulao", "state": "", "country": "PH", "coord": {"lon": 122.337784, "lat": 13.56222}}, {"id": 1704126, "name": "Madridejos", "state": "", "country": "PH", "coord": {"lon": 123.733902, "lat": 11.298}}, {"id": 1704127, "name": "Madridejos", "state": "", "country": "PH", "coord": {"lon": 123.346199, "lat": 9.79116}}, {"id": 1704129, "name": "Madrid", "state": "", "country": "PH", "coord": {"lon": 125.964371, "lat": 9.26211}}, {"id": 1704154, "name": "Maddela", "state": "", "country": "PH", "coord": {"lon": 121.684898, "lat": 16.3414}}, {"id": 1704156, "name": "Maddarulug Norte", "state": "", "country": "PH", "coord": {"lon": 121.679199, "lat": 17.6047}}, {"id": 1704196, "name": "Madamba", "state": "", "country": "PH", "coord": {"lon": 124.110291, "lat": 7.83889}}, {"id": 1704200, "name": "Madalum", "state": "", "country": "PH", "coord": {"lon": 124.120483, "lat": 7.8542}}, {"id": 1704216, "name": "Madalag", "state": "", "country": "PH", "coord": {"lon": 122.307297, "lat": 11.5272}}, {"id": 1704217, "name": "Madalag", "state": "", "country": "PH", "coord": {"lon": 122.982803, "lat": 10.89944}}, {"id": 1704252, "name": "Macrohon", "state": "", "country": "PH", "coord": {"lon": 124.943062, "lat": 10.07972}}, {"id": 1704271, "name": "Maco", "state": "", "country": "PH", "coord": {"lon": 125.855278, "lat": 7.36194}}, {"id": 1704286, "name": "Macayug", "state": "", "country": "PH", "coord": {"lon": 120.431702, "lat": 16.0924}}, {"id": 1704315, "name": "Makato", "state": "", "country": "PH", "coord": {"lon": 122.292198, "lat": 11.712}}, {"id": 1704321, "name": "Macatbong", "state": "", "country": "PH", "coord": {"lon": 121.080833, "lat": 15.50556}}, {"id": 1704333, "name": "MacArthur", "state": "", "country": "PH", "coord": {"lon": 124.995277, "lat": 10.83472}}, {"id": 1704335, "name": "Macarse", "state": "", "country": "PH", "coord": {"lon": 120.778099, "lat": 15.4243}}, {"id": 1704357, "name": "Macapsing", "state": "", "country": "PH", "coord": {"lon": 121.131897, "lat": 15.6783}}, {"id": 1704364, "name": "San Isidro", "state": "", "country": "PH", "coord": {"lon": 123.950897, "lat": 9.8334}}, {"id": 1704381, "name": "Macalva Norte", "state": "", "country": "PH", "coord": {"lon": 120.386597, "lat": 16.348499}}, {"id": 1704386, "name": "Macalong", "state": "", "country": "PH", "coord": {"lon": 120.6586, "lat": 16.0137}}, {"id": 1704394, "name": "Macalelon", "state": "", "country": "PH", "coord": {"lon": 122.138611, "lat": 13.74694}}, {"id": 1704403, "name": "Macalaya", "state": "", "country": "PH", "coord": {"lon": 123.771111, "lat": 12.88944}}, {"id": 1704413, "name": "Macalamcam A", "state": "", "country": "PH", "coord": {"lon": 121.32814, "lat": 13.8566}}, {"id": 1704434, "name": "Macabugos", "state": "", "country": "PH", "coord": {"lon": 123.305298, "lat": 13.2362}}, {"id": 1704442, "name": "Macabuboni", "state": "", "country": "PH", "coord": {"lon": 119.780197, "lat": 16.190901}}, {"id": 1704449, "name": "Macabebe", "state": "", "country": "PH", "coord": {"lon": 120.7155, "lat": 14.9089}}, {"id": 1704466, "name": "Macaas", "state": "", "country": "PH", "coord": {"lon": 124.008614, "lat": 10.69889}}, {"id": 1704472, "name": "Mabuttal East", "state": "", "country": "PH", "coord": {"lon": 121.514702, "lat": 18.3762}}, {"id": 1704476, "name": "Mabusag", "state": "", "country": "PH", "coord": {"lon": 120.497597, "lat": 17.9261}}, {"id": 1704484, "name": "Mabunga", "state": "", "country": "PH", "coord": {"lon": 122.068329, "lat": 13.8625}}, {"id": 1704503, "name": "Mabuhay", "state": "", "country": "PH", "coord": {"lon": 122.83667, "lat": 7.41778}}, {"id": 1704504, "name": "Mabuhay", "state": "", "country": "PH", "coord": {"lon": 125.547501, "lat": 7.33306}}, {"id": 1704515, "name": "Mabua", "state": "", "country": "PH", "coord": {"lon": 125.442223, "lat": 9.80889}}, {"id": 1704533, "name": "Mabiton", "state": "", "country": "PH", "coord": {"lon": 123.2612, "lat": 12.8334}}, {"id": 1704537, "name": "Mabitac", "state": "", "country": "PH", "coord": {"lon": 121.429001, "lat": 14.4259}}, {"id": 1704544, "name": "Mabini", "state": "", "country": "PH", "coord": {"lon": 121.737244, "lat": 17.096939}}, {"id": 1704545, "name": "Mabini", "state": "", "country": "PH", "coord": {"lon": 119.939102, "lat": 16.069901}}, {"id": 1704552, "name": "Mabini", "state": "", "country": "PH", "coord": {"lon": 120.98333, "lat": 15.6}}, {"id": 1704560, "name": "Mabini", "state": "", "country": "PH", "coord": {"lon": 120.940491, "lat": 13.75324}}, {"id": 1704567, "name": "Mabini", "state": "", "country": "PH", "coord": {"lon": 124.633331, "lat": 12.5}}, {"id": 1704575, "name": "Mabini", "state": "", "country": "PH", "coord": {"lon": 125.166672, "lat": 11.41667}}, {"id": 1704579, "name": "Mabini", "state": "", "country": "PH", "coord": {"lon": 123.485558, "lat": 10.79583}}, {"id": 1704591, "name": "Mabini", "state": "", "country": "PH", "coord": {"lon": 124.5215, "lat": 9.8649}}, {"id": 1704597, "name": "Mabini", "state": "", "country": "PH", "coord": {"lon": 125.852783, "lat": 7.31139}}, {"id": 1704598, "name": "Mabini", "state": "", "country": "PH", "coord": {"lon": 124.900002, "lat": 6.53889}}, {"id": 1704606, "name": "Mabinay", "state": "", "country": "PH", "coord": {"lon": 122.901672, "lat": 9.72722}}, {"id": 1704611, "name": "Mabilog", "state": "", "country": "PH", "coord": {"lon": 120.665733, "lat": 15.39485}}, {"id": 1704615, "name": "Brgy. Mabilo, New Washington", "state": "", "country": "PH", "coord": {"lon": 122.407501, "lat": 11.67778}}, {"id": 1704618, "name": "Mabilbila Sur", "state": "", "country": "PH", "coord": {"lon": 120.433327, "lat": 17.5}}, {"id": 1704620, "name": "Mabilao", "state": "", "country": "PH", "coord": {"lon": 120.424797, "lat": 16.154301}}, {"id": 1704623, "name": "Mabilang", "state": "", "country": "PH", "coord": {"lon": 120.4879, "lat": 15.6752}}, {"id": 1704628, "name": "Mabiga", "state": "", "country": "PH", "coord": {"lon": 120.585098, "lat": 15.1917}}, {"id": 1704638, "name": "Mabayo", "state": "", "country": "PH", "coord": {"lon": 120.278099, "lat": 14.7318}}, {"id": 1704644, "name": "Mabay", "state": "", "country": "PH", "coord": {"lon": 124.466614, "lat": 6.05772}}, {"id": 1704664, "name": "Mabasa", "state": "", "country": "PH", "coord": {"lon": 121.126198, "lat": 16.320999}}, {"id": 1704703, "name": "Mabalacat City", "state": "", "country": "PH", "coord": {"lon": 120.573601, "lat": 15.2216}}, {"id": 1704704, "name": "Mabalacat City", "state": "", "country": "PH", "coord": {"lon": 120.550003, "lat": 15.21667}}, {"id": 1704725, "name": "Mababanaba", "state": "", "country": "PH", "coord": {"lon": 120.460533, "lat": 15.49715}}, {"id": 1704729, "name": "Maayong Tubig", "state": "", "country": "PH", "coord": {"lon": 123.246902, "lat": 9.1672}}, {"id": 1704730, "name": "Maayon", "state": "", "country": "PH", "coord": {"lon": 122.785896, "lat": 11.3867}}, {"id": 1704755, "name": "Maasin", "state": "", "country": "PH", "coord": {"lon": 122.434723, "lat": 10.8925}}, {"id": 1704758, "name": "Maasin", "state": "", "country": "PH", "coord": {"lon": 124.844719, "lat": 10.13361}}, {"id": 1704764, "name": "City of Maasin", "state": "", "country": "PH", "coord": {"lon": 124.849998, "lat": 10.2}}, {"id": 1704770, "name": "Maasim", "state": "", "country": "PH", "coord": {"lon": 121.0289, "lat": 14.9958}}, {"id": 1704772, "name": "Maasim", "state": "", "country": "PH", "coord": {"lon": 125.006111, "lat": 5.8575}}, {"id": 1704781, "name": "Maao", "state": "", "country": "PH", "coord": {"lon": 122.98333, "lat": 10.48333}}, {"id": 1704793, "name": "Maanas", "state": "", "country": "PH", "coord": {"lon": 125.03083, "lat": 8.89389}}, {"id": 1704800, "name": "Maan", "state": "", "country": "PH", "coord": {"lon": 124.735558, "lat": 5.93389}}, {"id": 1704816, "name": "Maagnas", "state": "", "country": "PH", "coord": {"lon": 123.667503, "lat": 13.7192}}, {"id": 1704836, "name": "Lusong", "state": "", "country": "PH", "coord": {"lon": 120.442001, "lat": 16.867001}}, {"id": 1704845, "name": "Luzon", "state": "", "country": "PH", "coord": {"lon": 126.094078, "lat": 6.51904}}, {"id": 1704876, "name": "Luuk Datan", "state": "", "country": "PH", "coord": {"lon": 119.845284, "lat": 4.81194}}, {"id": 1704881, "name": "Lu-uk", "state": "", "country": "PH", "coord": {"lon": 121.312202, "lat": 5.9684}}, {"id": 1704892, "name": "Lut-od", "state": "", "country": "PH", "coord": {"lon": 123.62944, "lat": 10.25722}}, {"id": 1704897, "name": "Lutayan", "state": "", "country": "PH", "coord": {"lon": 124.883057, "lat": 6.62}}, {"id": 1704916, "name": "Kabayan", "state": "", "country": "PH", "coord": {"lon": 120.839943, "lat": 16.62388}}, {"id": 1704959, "name": "Lusacan", "state": "", "country": "PH", "coord": {"lon": 121.346939, "lat": 13.95278}}, {"id": 1704960, "name": "Lurugan", "state": "", "country": "PH", "coord": {"lon": 124.966667, "lat": 8.01667}}, {"id": 1704968, "name": "Lupon", "state": "", "country": "PH", "coord": {"lon": 126.009613, "lat": 6.89814}}, {"id": 1704982, "name": "Lupi Viejo", "state": "", "country": "PH", "coord": {"lon": 122.909798, "lat": 13.7897}}, {"id": 1704984, "name": "Lupi", "state": "", "country": "PH", "coord": {"lon": 123.150002, "lat": 13.53333}}, {"id": 1704990, "name": "Lapase", "state": "", "country": "PH", "coord": {"lon": 123.863197, "lat": 8.1924}}, {"id": 1704994, "name": "Lupao", "state": "", "country": "PH", "coord": {"lon": 120.8983, "lat": 15.8793}}, {"id": 1705019, "name": "Luntal", "state": "", "country": "PH", "coord": {"lon": 120.7174, "lat": 14.0292}}, {"id": 1705028, "name": "Lun Peque\u00f1o", "state": "", "country": "PH", "coord": {"lon": 125.28389, "lat": 6.03778}}, {"id": 1705051, "name": "Lungog", "state": "", "country": "PH", "coord": {"lon": 120.478401, "lat": 17.4645}}, {"id": 1705060, "name": "Lungaog", "state": "", "country": "PH", "coord": {"lon": 125.687782, "lat": 7.52944}}, {"id": 1705066, "name": "Lunen", "state": "", "country": "PH", "coord": {"lon": 124.904716, "lat": 6.35917}}, {"id": 1705067, "name": "Lunec", "state": "", "country": "PH", "coord": {"lon": 120.491203, "lat": 15.9524}}, {"id": 1705084, "name": "Lunas", "state": "", "country": "PH", "coord": {"lon": 123.752502, "lat": 10.6402}}, {"id": 1705089, "name": "Lunao", "state": "", "country": "PH", "coord": {"lon": 125.056389, "lat": 8.85028}}, {"id": 1705093, "name": "Luna", "state": "", "country": "PH", "coord": {"lon": 121.353607, "lat": 18.32583}}, {"id": 1705096, "name": "Luna", "state": "", "country": "PH", "coord": {"lon": 121.72924, "lat": 16.969749}}, {"id": 1705097, "name": "Luna", "state": "", "country": "PH", "coord": {"lon": 120.376099, "lat": 16.8528}}, {"id": 1705105, "name": "Luna", "state": "", "country": "PH", "coord": {"lon": 123.23333, "lat": 10.96667}}, {"id": 1705109, "name": "Luna", "state": "", "country": "PH", "coord": {"lon": 125.501671, "lat": 9.73389}}, {"id": 1705111, "name": "Luna", "state": "", "country": "PH", "coord": {"lon": 125.667221, "lat": 7.57639}}, {"id": 1705117, "name": "Lumuyon", "state": "", "country": "PH", "coord": {"lon": 124.786942, "lat": 5.91583}}, {"id": 1705144, "name": "Lumil", "state": "", "country": "PH", "coord": {"lon": 121.013649, "lat": 14.18168}}, {"id": 1705166, "name": "Lumbia", "state": "", "country": "PH", "coord": {"lon": 124.593887, "lat": 8.39583}}, {"id": 1705169, "name": "Lumbayao", "state": "", "country": "PH", "coord": {"lon": 125.166672, "lat": 8.01667}}, {"id": 1705171, "name": "Lumbayanague", "state": "", "country": "PH", "coord": {"lon": 124.279999, "lat": 7.7825}}, {"id": 1705174, "name": "Lumbayan", "state": "", "country": "PH", "coord": {"lon": 122.141113, "lat": 6.94722}}, {"id": 1705177, "name": "Lumbatan", "state": "", "country": "PH", "coord": {"lon": 124.256393, "lat": 7.785}}, {"id": 1705183, "name": "Lumbangan", "state": "", "country": "PH", "coord": {"lon": 120.666702, "lat": 14.0524}}, {"id": 1705190, "name": "Lumbang", "state": "", "country": "PH", "coord": {"lon": 121.459801, "lat": 14.2973}}, {"id": 1705222, "name": "Lumatil", "state": "", "country": "PH", "coord": {"lon": 124.888329, "lat": 5.87472}}, {"id": 1705225, "name": "Lumazal", "state": "", "country": "PH", "coord": {"lon": 124.849442, "lat": 5.88528}}, {"id": 1705240, "name": "Lumangbayan", "state": "", "country": "PH", "coord": {"lon": 121.034798, "lat": 13.419}}, {"id": 1705243, "name": "Lumangbayan", "state": "", "country": "PH", "coord": {"lon": 121.498718, "lat": 13.0483}}, {"id": 1705245, "name": "Lumangan", "state": "", "country": "PH", "coord": {"lon": 122.26667, "lat": 10.71667}}, {"id": 1705271, "name": "Luksuhin", "state": "", "country": "PH", "coord": {"lon": 120.880829, "lat": 14.09667}}, {"id": 1705276, "name": "Luklukan", "state": "", "country": "PH", "coord": {"lon": 122.712402, "lat": 14.3254}}, {"id": 1705289, "name": "Luisiana", "state": "", "country": "PH", "coord": {"lon": 121.510902, "lat": 14.185}}, {"id": 1705300, "name": "Lugus", "state": "", "country": "PH", "coord": {"lon": 120.820282, "lat": 5.70361}}, {"id": 1705303, "name": "Lugui", "state": "", "country": "PH", "coord": {"lon": 122.793503, "lat": 14.1131}}, {"id": 1705312, "name": "Lugo", "state": "", "country": "PH", "coord": {"lon": 123.988892, "lat": 10.81639}}, {"id": 1705330, "name": "Lugait", "state": "", "country": "PH", "coord": {"lon": 124.259171, "lat": 8.34111}}, {"id": 1705344, "name": "Lucsuhin", "state": "", "country": "PH", "coord": {"lon": 120.641312, "lat": 13.88186}}, {"id": 1705349, "name": "Locmayan", "state": "", "country": "PH", "coord": {"lon": 122.518997, "lat": 10.4726}}, {"id": 1705353, "name": "Lucero", "state": "", "country": "PH", "coord": {"lon": 119.912399, "lat": 16.4051}}, {"id": 1705354, "name": "Lucero", "state": "", "country": "PH", "coord": {"lon": 122.46431, "lat": 11.4542}}, {"id": 1705355, "name": "Lucena City", "state": "", "country": "PH", "coord": {"lon": 121.616669, "lat": 13.93333}}, {"id": 1705357, "name": "Lucena", "state": "", "country": "PH", "coord": {"lon": 121.617218, "lat": 13.93139}}, {"id": 1705367, "name": "Lucban", "state": "", "country": "PH", "coord": {"lon": 121.556938, "lat": 14.11333}}, {"id": 1705372, "name": "Lukatan", "state": "", "country": "PH", "coord": {"lon": 126.421181, "lat": 7.0096}}, {"id": 1705376, "name": "Lucapon", "state": "", "country": "PH", "coord": {"lon": 119.931999, "lat": 15.6998}}, {"id": 1705378, "name": "Lucap", "state": "", "country": "PH", "coord": {"lon": 120.0, "lat": 16.183331}}, {"id": 1705391, "name": "Lubuagan", "state": "", "country": "PH", "coord": {"lon": 121.174698, "lat": 17.354799}}, {"id": 1705424, "name": "Lubigan", "state": "", "country": "PH", "coord": {"lon": 122.937302, "lat": 13.742}}, {"id": 1705435, "name": "Lucban", "state": "", "country": "PH", "coord": {"lon": 121.433327, "lat": 18.33333}}, {"id": 1705440, "name": "Lubao", "state": "", "country": "PH", "coord": {"lon": 120.601097, "lat": 14.9405}}, {"id": 1705441, "name": "Lubao", "state": "", "country": "PH", "coord": {"lon": 120.550003, "lat": 14.91667}}, {"id": 1705448, "name": "Lubang", "state": "", "country": "PH", "coord": {"lon": 120.124023, "lat": 13.85836}}, {"id": 1705460, "name": "Luba", "state": "", "country": "PH", "coord": {"lon": 120.694504, "lat": 17.318001}}, {"id": 1705489, "name": "Loyola", "state": "", "country": "PH", "coord": {"lon": 126.334717, "lat": 8.335}}, {"id": 1705503, "name": "Lourdes", "state": "", "country": "PH", "coord": {"lon": 120.851097, "lat": 15.0193}}, {"id": 1705505, "name": "Lourdes", "state": "", "country": "PH", "coord": {"lon": 120.683327, "lat": 14.96667}}, {"id": 1705509, "name": "Lourdes", "state": "", "country": "PH", "coord": {"lon": 123.373497, "lat": 13.3899}}, {"id": 1705516, "name": "Lourdes", "state": "", "country": "PH", "coord": {"lon": 124.43222, "lat": 8.525}}, {"id": 1705536, "name": "Los Ba\u00f1os", "state": "", "country": "PH", "coord": {"lon": 121.223396, "lat": 14.1798}}, {"id": 1705539, "name": "Los Ba\u00f1os", "state": "", "country": "PH", "coord": {"lon": 121.183327, "lat": 14.16667}}, {"id": 1705540, "name": "Los Arcos", "state": "", "country": "PH", "coord": {"lon": 125.985558, "lat": 8.63278}}, {"id": 1705545, "name": "Los Angeles", "state": "", "country": "PH", "coord": {"lon": 125.608063, "lat": 9.0125}}, {"id": 1705550, "name": "Loreto", "state": "", "country": "PH", "coord": {"lon": 125.573059, "lat": 10.36361}}, {"id": 1705552, "name": "Loreto", "state": "", "country": "PH", "coord": {"lon": 125.853058, "lat": 8.18694}}, {"id": 1705563, "name": "Lupo", "state": "", "country": "PH", "coord": {"lon": 122.479103, "lat": 11.5076}}, {"id": 1705567, "name": "Lopez Jaena", "state": "", "country": "PH", "coord": {"lon": 123.42778, "lat": 10.84917}}, {"id": 1705568, "name": "Lopez Jaena", "state": "", "country": "PH", "coord": {"lon": 123.761497, "lat": 8.5528}}, {"id": 1705572, "name": "Lopez", "state": "", "country": "PH", "coord": {"lon": 122.264168, "lat": 13.88444}}, {"id": 1705575, "name": "Lope de Vega", "state": "", "country": "PH", "coord": {"lon": 124.623802, "lat": 12.2983}}, {"id": 1705581, "name": "Loon", "state": "", "country": "PH", "coord": {"lon": 123.7929, "lat": 9.7998}}, {"id": 1705597, "name": "Lookan", "state": "", "country": "PH", "coord": {"lon": 120.102699, "lat": 5.037}}, {"id": 1705609, "name": "Looc", "state": "", "country": "PH", "coord": {"lon": 124.791672, "lat": 8.84333}}, {"id": 1705639, "name": "Looc", "state": "", "country": "PH", "coord": {"lon": 120.629303, "lat": 14.1648}}, {"id": 1705641, "name": "Looc", "state": "", "country": "PH", "coord": {"lon": 120.249817, "lat": 13.72036}}, {"id": 1705645, "name": "Looc", "state": "", "country": "PH", "coord": {"lon": 121.992599, "lat": 12.2605}}, {"id": 1705650, "name": "Looc", "state": "", "country": "PH", "coord": {"lon": 124.554199, "lat": 11.4788}}, {"id": 1705679, "name": "Lono", "state": "", "country": "PH", "coord": {"lon": 122.729721, "lat": 11.51361}}, {"id": 1705680, "name": "Lonoy", "state": "", "country": "PH", "coord": {"lon": 122.553329, "lat": 11.51222}}, {"id": 1705702, "name": "Longos", "state": "", "country": "PH", "coord": {"lon": 120.395401, "lat": 16.1066}}, {"id": 1705750, "name": "Lomboy", "state": "", "country": "PH", "coord": {"lon": 120.717232, "lat": 15.49255}}, {"id": 1705759, "name": "Lombog", "state": "", "country": "PH", "coord": {"lon": 124.417397, "lat": 9.7788}}, {"id": 1705760, "name": "Lombocan", "state": "", "country": "PH", "coord": {"lon": 125.506111, "lat": 9.00944}}, {"id": 1705771, "name": "Loma de Gato", "state": "", "country": "PH", "coord": {"lon": 121.0, "lat": 14.78333}}, {"id": 1705788, "name": "Loqueb Este", "state": "", "country": "PH", "coord": {"lon": 120.4478, "lat": 15.9419}}, {"id": 1705804, "name": "Logon", "state": "", "country": "PH", "coord": {"lon": 124.114601, "lat": 11.3303}}, {"id": 1705858, "name": "Lobong", "state": "", "country": "PH", "coord": {"lon": 120.470398, "lat": 16.081499}}, {"id": 1705871, "name": "Loboc", "state": "", "country": "PH", "coord": {"lon": 124.034821, "lat": 9.63834}}, {"id": 1705881, "name": "Lobo", "state": "", "country": "PH", "coord": {"lon": 121.211197, "lat": 13.6481}}, {"id": 1705884, "name": "Lobo", "state": "", "country": "PH", "coord": {"lon": 121.25, "lat": 13.66667}}, {"id": 1705897, "name": "Loay", "state": "", "country": "PH", "coord": {"lon": 124.014198, "lat": 9.6006}}, {"id": 1705905, "name": "Loacan", "state": "", "country": "PH", "coord": {"lon": 120.666672, "lat": 16.549999}}, {"id": 1705906, "name": "Loakan", "state": "", "country": "PH", "coord": {"lon": 120.61306, "lat": 16.37389}}, {"id": 1705910, "name": "Llorente", "state": "", "country": "PH", "coord": {"lon": 125.54583, "lat": 11.41194}}, {"id": 1705922, "name": "Llanera", "state": "", "country": "PH", "coord": {"lon": 121.018204, "lat": 15.6635}}, {"id": 1705975, "name": "Little Baguio", "state": "", "country": "PH", "coord": {"lon": 125.27639, "lat": 7.89389}}, {"id": 1705985, "name": "Litayan", "state": "", "country": "PH", "coord": {"lon": 124.034721, "lat": 7.33583}}, {"id": 1706034, "name": "Lipayran", "state": "", "country": "PH", "coord": {"lon": 123.634201, "lat": 11.0593}}, {"id": 1706044, "name": "Lipay", "state": "", "country": "PH", "coord": {"lon": 119.920799, "lat": 15.4561}}, {"id": 1706084, "name": "Lipahan", "state": "", "country": "PH", "coord": {"lon": 121.40889, "lat": 13.83722}}, {"id": 1706087, "name": "Lipa City", "state": "", "country": "PH", "coord": {"lon": 121.166672, "lat": 13.95}}, {"id": 1706090, "name": "Lipa City", "state": "", "country": "PH", "coord": {"lon": 121.173889, "lat": 13.93944}}, {"id": 1706093, "name": "Liozon", "state": "", "country": "PH", "coord": {"lon": 119.932999, "lat": 15.3993}}, {"id": 1706127, "name": "Lintangan", "state": "", "country": "PH", "coord": {"lon": 121.952003, "lat": 7.21554}}, {"id": 1706148, "name": "Linoan", "state": "", "country": "PH", "coord": {"lon": 125.974098, "lat": 7.626}}, {"id": 1706152, "name": "Linmansangan", "state": "", "country": "PH", "coord": {"lon": 120.2836, "lat": 15.8349}}, {"id": 1706173, "name": "Lingion", "state": "", "country": "PH", "coord": {"lon": 124.609718, "lat": 8.18806}}, {"id": 1706176, "name": "Lingig", "state": "", "country": "PH", "coord": {"lon": 126.412498, "lat": 8.03889}}, {"id": 1706188, "name": "Lingayen", "state": "", "country": "PH", "coord": {"lon": 120.231941, "lat": 16.02182}}, {"id": 1706191, "name": "Lingayen", "state": "", "country": "PH", "coord": {"lon": 120.23333, "lat": 16.01667}}, {"id": 1706199, "name": "Lingating", "state": "", "country": "PH", "coord": {"lon": 124.628891, "lat": 8.33167}}, {"id": 1706201, "name": "Lingasan", "state": "", "country": "PH", "coord": {"lon": 123.399696, "lat": 8.4966}}, {"id": 1706229, "name": "Linay", "state": "", "country": "PH", "coord": {"lon": 123.133331, "lat": 8.51667}}, {"id": 1706242, "name": "San Miguel", "state": "", "country": "PH", "coord": {"lon": 119.8703, "lat": 11.4924}}, {"id": 1706250, "name": "Linaon", "state": "", "country": "PH", "coord": {"lon": 122.448303, "lat": 9.9499}}, {"id": 1706272, "name": "Linao", "state": "", "country": "PH", "coord": {"lon": 124.967499, "lat": 7.16778}}, {"id": 1706273, "name": "Linao", "state": "", "country": "PH", "coord": {"lon": 125.991997, "lat": 7.0172}}, {"id": 1706282, "name": "Linan", "state": "", "country": "PH", "coord": {"lon": 124.975563, "lat": 6.43}}, {"id": 1706287, "name": "Linamon", "state": "", "country": "PH", "coord": {"lon": 124.162758, "lat": 8.18603}}, {"id": 1706298, "name": "Linabuan Sur", "state": "", "country": "PH", "coord": {"lon": 122.345001, "lat": 11.65111}}, {"id": 1706299, "name": "Linabuan", "state": "", "country": "PH", "coord": {"lon": 122.357498, "lat": 11.651}}, {"id": 1706303, "name": "Linabo", "state": "", "country": "PH", "coord": {"lon": 125.154999, "lat": 8.05417}}, {"id": 1706313, "name": "Limulan", "state": "", "country": "PH", "coord": {"lon": 124.06189, "lat": 6.58528}}, {"id": 1706317, "name": "Limpapa", "state": "", "country": "PH", "coord": {"lon": 121.910561, "lat": 7.11972}}, {"id": 1706319, "name": "Limot", "state": "", "country": "PH", "coord": {"lon": 126.272682, "lat": 7.0405}}, {"id": 1706325, "name": "Limon", "state": "", "country": "PH", "coord": {"lon": 122.01667, "lat": 12.3}}, {"id": 1706326, "name": "Limon", "state": "", "country": "PH", "coord": {"lon": 124.567101, "lat": 11.2889}}, {"id": 1706332, "name": "Limanancong", "state": "", "country": "PH", "coord": {"lon": 119.359299, "lat": 10.9893}}, {"id": 1706349, "name": "Limbo", "state": "", "country": "PH", "coord": {"lon": 124.243889, "lat": 7.25167}}, {"id": 1706354, "name": "Limbalod", "state": "", "country": "PH", "coord": {"lon": 124.798889, "lat": 7.13278}}, {"id": 1706356, "name": "Limbaan", "state": "", "country": "PH", "coord": {"lon": 125.833328, "lat": 7.63333}}, {"id": 1706361, "name": "Limay", "state": "", "country": "PH", "coord": {"lon": 120.598328, "lat": 14.56194}}, {"id": 1706362, "name": "Limay", "state": "", "country": "PH", "coord": {"lon": 120.550003, "lat": 14.53333}}, {"id": 1706374, "name": "Limaong", "state": "", "country": "PH", "coord": {"lon": 122.366386, "lat": 7.36056}}, {"id": 1706377, "name": "Limao", "state": "", "country": "PH", "coord": {"lon": 125.673607, "lat": 7.07917}}, {"id": 1706383, "name": "Liloy", "state": "", "country": "PH", "coord": {"lon": 122.659439, "lat": 8.11444}}, {"id": 1706392, "name": "Liloan", "state": "", "country": "PH", "coord": {"lon": 124.55056, "lat": 11.04417}}, {"id": 1706393, "name": "Liloan", "state": "", "country": "PH", "coord": {"lon": 123.999199, "lat": 10.3991}}, {"id": 1706394, "name": "Liloan", "state": "", "country": "PH", "coord": {"lon": 125.13028, "lat": 10.16139}}, {"id": 1706400, "name": "Liloan", "state": "", "country": "PH", "coord": {"lon": 123.966667, "lat": 10.41667}}, {"id": 1706402, "name": "Lilio", "state": "", "country": "PH", "coord": {"lon": 121.436203, "lat": 14.1313}}, {"id": 1706410, "name": "Liliongan", "state": "", "country": "PH", "coord": {"lon": 124.792778, "lat": 7.36278}}, {"id": 1706422, "name": "Lila", "state": "", "country": "PH", "coord": {"lon": 124.095802, "lat": 9.5918}}, {"id": 1706466, "name": "Ligayan", "state": "", "country": "PH", "coord": {"lon": 119.470558, "lat": 4.65333}}, {"id": 1706467, "name": "Ligaya", "state": "", "country": "PH", "coord": {"lon": 121.287201, "lat": 15.5091}}, {"id": 1706468, "name": "Ligaya", "state": "", "country": "PH", "coord": {"lon": 120.892319, "lat": 12.65993}}, {"id": 1706474, "name": "Ligao", "state": "", "country": "PH", "coord": {"lon": 123.532501, "lat": 13.24028}}, {"id": 1706487, "name": "Lidlidda", "state": "", "country": "PH", "coord": {"lon": 120.521301, "lat": 17.2693}}, {"id": 1706499, "name": "Licuan", "state": "", "country": "PH", "coord": {"lon": 120.905899, "lat": 17.6089}}, {"id": 1706526, "name": "Liciada", "state": "", "country": "PH", "coord": {"lon": 120.932777, "lat": 14.89806}}, {"id": 1706532, "name": "Licab", "state": "", "country": "PH", "coord": {"lon": 120.763397, "lat": 15.5439}}, {"id": 1706550, "name": "Libungan", "state": "", "country": "PH", "coord": {"lon": 124.519997, "lat": 7.24083}}, {"id": 1706557, "name": "Libuganon", "state": "", "country": "PH", "coord": {"lon": 125.778328, "lat": 7.35083}}, {"id": 1706598, "name": "Liboro", "state": "", "country": "PH", "coord": {"lon": 122.7295, "lat": 13.8245}}, {"id": 1706599, "name": "Liboran", "state": "", "country": "PH", "coord": {"lon": 124.648888, "lat": 8.35472}}, {"id": 1706607, "name": "Libona", "state": "", "country": "PH", "coord": {"lon": 124.735283, "lat": 8.33889}}, {"id": 1706609, "name": "Libon", "state": "", "country": "PH", "coord": {"lon": 123.438599, "lat": 13.2997}}, {"id": 1706612, "name": "Libon", "state": "", "country": "PH", "coord": {"lon": 123.383331, "lat": 13.26667}}, {"id": 1706614, "name": "Libog", "state": "", "country": "PH", "coord": {"lon": 123.777802, "lat": 13.2349}}, {"id": 1706629, "name": "Libmanan", "state": "", "country": "PH", "coord": {"lon": 123.059601, "lat": 13.6928}}, {"id": 1706646, "name": "Libjo", "state": "", "country": "PH", "coord": {"lon": 125.535278, "lat": 10.19778}}, {"id": 1706658, "name": "Liberty", "state": "", "country": "PH", "coord": {"lon": 125.002502, "lat": 10.87417}}, {"id": 1706659, "name": "Liberty", "state": "", "country": "PH", "coord": {"lon": 124.628891, "lat": 6.54111}}, {"id": 1706660, "name": "Liberty", "state": "", "country": "PH", "coord": {"lon": 124.981941, "lat": 6.45528}}, {"id": 1706667, "name": "Libertad", "state": "", "country": "PH", "coord": {"lon": 122.00972, "lat": 12.45556}}, {"id": 1706669, "name": "Libertad", "state": "", "country": "PH", "coord": {"lon": 121.918999, "lat": 11.7694}}, {"id": 1706673, "name": "Libertad", "state": "", "country": "PH", "coord": {"lon": 124.568329, "lat": 11.03639}}, {"id": 1706674, "name": "Libertad", "state": "", "country": "PH", "coord": {"lon": 122.76944, "lat": 11.03528}}, {"id": 1706675, "name": "Libertad", "state": "", "country": "PH", "coord": {"lon": 124.0215, "lat": 11.0304}}, {"id": 1706677, "name": "Libertad", "state": "", "country": "PH", "coord": {"lon": 124.449997, "lat": 10.91667}}, {"id": 1706678, "name": "Libertad", "state": "", "country": "PH", "coord": {"lon": 123.566673, "lat": 10.83333}}, {"id": 1706684, "name": "Libertad", "state": "", "country": "PH", "coord": {"lon": 125.501938, "lat": 8.94417}}, {"id": 1706685, "name": "Libertad", "state": "", "country": "PH", "coord": {"lon": 124.351387, "lat": 8.56111}}, {"id": 1706687, "name": "Libertad", "state": "", "country": "PH", "coord": {"lon": 123.838203, "lat": 8.2755}}, {"id": 1706688, "name": "Libertad", "state": "", "country": "PH", "coord": {"lon": 124.23333, "lat": 8.25}}, {"id": 1706689, "name": "Libertad", "state": "", "country": "PH", "coord": {"lon": 126.02639, "lat": 8.1075}}, {"id": 1706702, "name": "Libato", "state": "", "country": "PH", "coord": {"lon": 121.334633, "lat": 13.81514}}, {"id": 1706716, "name": "Libas", "state": "", "country": "PH", "coord": {"lon": 120.300003, "lat": 15.86667}}, {"id": 1706717, "name": "Libas", "state": "", "country": "PH", "coord": {"lon": 121.955551, "lat": 13.24167}}, {"id": 1706726, "name": "Libas", "state": "", "country": "PH", "coord": {"lon": 124.544998, "lat": 10.9388}}, {"id": 1706732, "name": "Libas", "state": "", "country": "PH", "coord": {"lon": 125.98333, "lat": 9.88333}}, {"id": 1706736, "name": "Libas", "state": "", "country": "PH", "coord": {"lon": 124.778893, "lat": 6.53556}}, {"id": 1706750, "name": "Libagon", "state": "", "country": "PH", "coord": {"lon": 125.055832, "lat": 10.30083}}, {"id": 1706757, "name": "Libacao", "state": "", "country": "PH", "coord": {"lon": 122.304207, "lat": 11.4802}}, {"id": 1706758, "name": "Libacao", "state": "", "country": "PH", "coord": {"lon": 122.915833, "lat": 10.1825}}, {"id": 1706781, "name": "Lianga", "state": "", "country": "PH", "coord": {"lon": 126.094719, "lat": 8.63361}}, {"id": 1706787, "name": "Lian", "state": "", "country": "PH", "coord": {"lon": 120.650902, "lat": 14.0381}}, {"id": 1706800, "name": "Province of Leyte", "state": "", "country": "PH", "coord": {"lon": 124.666672, "lat": 10.91667}}, {"id": 1706801, "name": "Leyte", "state": "", "country": "PH", "coord": {"lon": 124.487297, "lat": 11.3697}}, {"id": 1706810, "name": "Leuteboro", "state": "", "country": "PH", "coord": {"lon": 121.374718, "lat": 13.061}}, {"id": 1706834, "name": "Lepanto", "state": "", "country": "PH", "coord": {"lon": 123.402603, "lat": 9.6845}}, {"id": 1706836, "name": "Lepa", "state": "", "country": "PH", "coord": {"lon": 120.449303, "lat": 15.8826}}, {"id": 1706839, "name": "Leones East", "state": "", "country": "PH", "coord": {"lon": 120.391899, "lat": 16.3633}}, {"id": 1706843, "name": "Leon", "state": "", "country": "PH", "coord": {"lon": 122.389397, "lat": 10.78085}}, {"id": 1706844, "name": "Leon", "state": "", "country": "PH", "coord": {"lon": 122.333328, "lat": 10.83333}}, {"id": 1706852, "name": "Lennec", "state": "", "country": "PH", "coord": {"lon": 120.733803, "lat": 15.6835}}, {"id": 1706863, "name": "Lemery", "state": "", "country": "PH", "coord": {"lon": 120.913887, "lat": 13.8809}},