[{"id": 2182867, "name": "Sefton", "state": "", "country": "NZ", "coord": {"lon": 172.666672, "lat": -43.25}}, {"id": 2182968, "name": "Sanson", "state": "", "country": "NZ", "coord": {"lon": 175.416672, "lat": -40.216671}}, {"id": 2183113, "name": "Ruawai", "state": "", "country": "NZ", "coord": {"lon": 174.033325, "lat": -36.133331}}, {"id": 2183116, "name": "Ruatoki North", "state": "", "country": "NZ", "coord": {"lon": 177.050003, "lat": -38.133331}}, {"id": 2183125, "name": "Ruatahuna", "state": "", "country": "NZ", "coord": {"lon": 176.949997, "lat": -38.549999}}, {"id": 2183257, "name": "Rotokawa", "state": "", "country": "NZ", "coord": {"lon": 176.333328, "lat": -38.116669}}, {"id": 2183299, "name": "Rongotea", "state": "", "country": "NZ", "coord": {"lon": 175.416672, "lat": -40.299999}}, {"id": 2183310, "name": "Rolleston", "state": "", "country": "NZ", "coord": {"lon": 172.383331, "lat": -43.583328}}, {"id": 2183406, "name": "Riwaka", "state": "", "country": "NZ", "coord": {"lon": 173.0, "lat": -41.083328}}, {"id": 2183411, "name": "Riversdale", "state": "", "country": "NZ", "coord": {"lon": 168.75, "lat": -45.900002}}, {"id": 2183472, "name": "Richmond", "state": "", "country": "NZ", "coord": {"lon": 173.183334, "lat": -41.333328}}, {"id": 2183524, "name": "Reporoa", "state": "", "country": "NZ", "coord": {"lon": 176.350006, "lat": -38.433331}}, {"id": 2183526, "name": "Renwick", "state": "", "country": "NZ", "coord": {"lon": 173.833328, "lat": -41.5}}, {"id": 2183619, "name": "Raumati South", "state": "", "country": "NZ", "coord": {"lon": 174.983337, "lat": -40.950001}}, {"id": 2183620, "name": "Raumati Beach", "state": "", "country": "NZ", "coord": {"lon": 174.983337, "lat": -40.916672}}, {"id": 2183774, "name": "Ranfurly", "state": "", "country": "NZ", "coord": {"lon": 170.100006, "lat": -45.133331}}, {"id": 2183824, "name": "Rakaia", "state": "", "country": "NZ", "coord": {"lon": 172.016663, "lat": -43.75}}, {"id": 2183854, "name": "Raglan", "state": "", "country": "NZ", "coord": {"lon": 174.883331, "lat": -37.799999}}, {"id": 2184084, "name": "Pukerua Bay", "state": "", "country": "NZ", "coord": {"lon": 174.899994, "lat": -41.033329}}, {"id": 2184155, "name": "Pukekohe East", "state": "", "country": "NZ", "coord": {"lon": 174.949997, "lat": -37.200001}}, {"id": 2184211, "name": "Pukeatua", "state": "", "country": "NZ", "coord": {"lon": 175.550003, "lat": -38.066669}}, {"id": 2184361, "name": "Motueka", "state": "", "country": "NZ", "coord": {"lon": 173.016663, "lat": -41.133331}}, {"id": 2184388, "name": "Poroporo", "state": "", "country": "NZ", "coord": {"lon": 176.966675, "lat": -37.98333}}, {"id": 2184397, "name": "Porirua", "state": "", "country": "NZ", "coord": {"lon": 174.850006, "lat": -41.133331}}, {"id": 2184426, "name": "Ponsonby", "state": "", "country": "NZ", "coord": {"lon": 174.733337, "lat": -36.849998}}, {"id": 2184429, "name": "Pongaroa", "state": "", "country": "NZ", "coord": {"lon": 176.183334, "lat": -40.549999}}, {"id": 2184432, "name": "Pongakawa", "state": "", "country": "NZ", "coord": {"lon": 176.483337, "lat": -37.816669}}, {"id": 2184443, "name": "Pollok", "state": "", "country": "NZ", "coord": {"lon": 174.616669, "lat": -37.133331}}, {"id": 2184459, "name": "Pokeno", "state": "", "country": "NZ", "coord": {"lon": 175.016663, "lat": -37.23333}}, {"id": 2184504, "name": "Plimmerton", "state": "", "country": "NZ", "coord": {"lon": 174.866669, "lat": -41.083328}}, {"id": 2184512, "name": "Pleasant Point", "state": "", "country": "NZ", "coord": {"lon": 171.133331, "lat": -44.26667}}, {"id": 2184539, "name": "Pirongia", "state": "", "country": "NZ", "coord": {"lon": 175.199997, "lat": -38.0}}, {"id": 2184564, "name": "Piopio", "state": "", "country": "NZ", "coord": {"lon": 175.016663, "lat": -38.466671}}, {"id": 2184692, "name": "Penrose", "state": "", "country": "NZ", "coord": {"lon": 174.816666, "lat": -36.916672}}, {"id": 2184707, "name": "Wanaka", "state": "", "country": "NZ", "coord": {"lon": 169.149994, "lat": -44.700001}}, {"id": 2184772, "name": "Patutahi", "state": "", "country": "NZ", "coord": {"lon": 177.899994, "lat": -38.616669}}, {"id": 2184889, "name": "Paremata", "state": "", "country": "NZ", "coord": {"lon": 174.866669, "lat": -41.116669}}, {"id": 2184903, "name": "Paraparaumu Beach", "state": "", "country": "NZ", "coord": {"lon": 174.983337, "lat": -40.900002}}, {"id": 2184904, "name": "Paraparaumu", "state": "", "country": "NZ", "coord": {"lon": 175.016663, "lat": -40.916672}}, {"id": 2184927, "name": "Parakai", "state": "", "country": "NZ", "coord": {"lon": 174.433334, "lat": -36.650002}}, {"id": 2184975, "name": "Papamoa", "state": "", "country": "NZ", "coord": {"lon": 176.300003, "lat": -37.73333}}, {"id": 2185018, "name": "Palmerston North", "state": "", "country": "NZ", "coord": {"lon": 175.616669, "lat": -40.349998}}, {"id": 2185081, "name": "Paihia", "state": "", "country": "NZ", "coord": {"lon": 174.091156, "lat": -35.2822}}, {"id": 2185128, "name": "Paengaroa", "state": "", "country": "NZ", "coord": {"lon": 176.416672, "lat": -37.816669}}, {"id": 2185148, "name": "Oxford", "state": "", "country": "NZ", "coord": {"lon": 172.183334, "lat": -43.299999}}, {"id": 2185172, "name": "Owaka", "state": "", "country": "NZ", "coord": {"lon": 169.666672, "lat": -46.450001}}, {"id": 2185244, "name": "Otorohanga District", "state": "", "country": "NZ", "coord": {"lon": 175.333328, "lat": -38.25}}, {"id": 2185245, "name": "Otorohanga", "state": "", "country": "NZ", "coord": {"lon": 175.199997, "lat": -38.183331}}, {"id": 2185296, "name": "Otautau", "state": "", "country": "NZ", "coord": {"lon": 168.0, "lat": -46.150002}}, {"id": 2185312, "name": "Otara", "state": "", "country": "NZ", "coord": {"lon": 168.883331, "lat": -46.633331}}, {"id": 2185329, "name": "Otane", "state": "", "country": "NZ", "coord": {"lon": 176.633331, "lat": -39.883331}}, {"id": 2185493, "name": "Opua", "state": "", "country": "NZ", "coord": {"lon": 174.116669, "lat": -35.316669}}, {"id": 2185506, "name": "Opotiki District", "state": "", "country": "NZ", "coord": {"lon": 177.283325, "lat": -38.0}}, {"id": 2185537, "name": "Oparau", "state": "", "country": "NZ", "coord": {"lon": 174.916672, "lat": -38.049999}}, {"id": 2185548, "name": "Opaheke", "state": "", "country": "NZ", "coord": {"lon": 174.966675, "lat": -37.083328}}, {"id": 2185587, "name": "Onekawa", "state": "", "country": "NZ", "coord": {"lon": 176.916672, "lat": -39.48333}}, {"id": 2185665, "name": "Omakau", "state": "", "country": "NZ", "coord": {"lon": 169.600006, "lat": -45.083328}}, {"id": 2185763, "name": "Okato", "state": "", "country": "NZ", "coord": {"lon": 173.883331, "lat": -39.200001}}, {"id": 2185786, "name": "Okaihau", "state": "", "country": "NZ", "coord": {"lon": 173.783325, "lat": -35.316669}}, {"id": 2185857, "name": "Ohaupo", "state": "", "country": "NZ", "coord": {"lon": 175.316666, "lat": -37.916672}}, {"id": 2185877, "name": "Ohakea", "state": "", "country": "NZ", "coord": {"lon": 175.399994, "lat": -40.200001}}, {"id": 2185922, "name": "Oakura", "state": "", "country": "NZ", "coord": {"lon": 173.949997, "lat": -39.116669}}, {"id": 2185939, "name": "Nuhaka", "state": "", "country": "NZ", "coord": {"lon": 177.75, "lat": -39.049999}}, {"id": 2185964, "name": "North Shore", "state": "", "country": "NZ", "coord": {"lon": 174.75, "lat": -36.799999}}, {"id": 2185978, "name": "Northland", "state": "", "country": "NZ", "coord": {"lon": 174.0, "lat": -35.5}}, {"id": 2186111, "name": "Ngunguru", "state": "", "country": "NZ", "coord": {"lon": 174.5, "lat": -35.616669}}, {"id": 2186131, "name": "Ngauranga", "state": "", "country": "NZ", "coord": {"lon": 174.816666, "lat": -41.25}}, {"id": 2186152, "name": "Ngatea", "state": "", "country": "NZ", "coord": {"lon": 175.5, "lat": -37.283329}}, {"id": 2186216, "name": "Ngaio", "state": "", "country": "NZ", "coord": {"lon": 174.783325, "lat": -41.25}}, {"id": 2186218, "name": "Ngahere", "state": "", "country": "NZ", "coord": {"lon": 171.449997, "lat": -42.400002}}, {"id": 2186224, "name": "New Zealand", "state": "", "country": "NZ", "coord": {"lon": 174.0, "lat": -42.0}}, {"id": 2186239, "name": "New Plymouth", "state": "", "country": "NZ", "coord": {"lon": 174.083328, "lat": -39.066669}}, {"id": 2186240, "name": "New Plymouth District", "state": "", "country": "NZ", "coord": {"lon": 175.066666, "lat": -39.066669}}, {"id": 2186280, "name": "Nelson", "state": "", "country": "NZ", "coord": {"lon": 173.283325, "lat": -41.283329}}, {"id": 2186302, "name": "National Park", "state": "", "country": "NZ", "coord": {"lon": 175.399994, "lat": -39.183331}}, {"id": 2186313, "name": "Napier", "state": "", "country": "NZ", "coord": {"lon": 176.916672, "lat": -39.48333}}, {"id": 2186338, "name": "Murupara", "state": "", "country": "NZ", "coord": {"lon": 176.699997, "lat": -38.466671}}, {"id": 2186363, "name": "Muriwai Beach", "state": "", "country": "NZ", "coord": {"lon": 174.449997, "lat": -36.816669}}, {"id": 2186377, "name": "Murchison", "state": "", "country": "NZ", "coord": {"lon": 172.333328, "lat": -41.799999}}, {"id": 2186656, "name": "Momona", "state": "", "country": "NZ", "coord": {"lon": 170.216675, "lat": -45.916672}}, {"id": 2186697, "name": "Mokau", "state": "", "country": "NZ", "coord": {"lon": 174.616669, "lat": -38.683331}}, {"id": 2186722, "name": "Moerewa", "state": "", "country": "NZ", "coord": {"lon": 174.033325, "lat": -35.383331}}, {"id": 2186731, "name": "Moeraki", "state": "", "country": "NZ", "coord": {"lon": 170.850006, "lat": -45.366669}}, {"id": 2186832, "name": "Millers Flat", "state": "", "country": "NZ", "coord": {"lon": 169.411697, "lat": -45.663109}}, {"id": 2186895, "name": "Methven", "state": "", "country": "NZ", "coord": {"lon": 171.649994, "lat": -43.633331}}, {"id": 2187060, "name": "Maungaturoto", "state": "", "country": "NZ", "coord": {"lon": 174.366669, "lat": -36.099998}}, {"id": 2187074, "name": "Maungatapere", "state": "", "country": "NZ", "coord": {"lon": 174.199997, "lat": -35.75}}, {"id": 2187156, "name": "Matawhero", "state": "", "country": "NZ", "coord": {"lon": 177.966675, "lat": -38.666672}}, {"id": 2187175, "name": "Matata", "state": "", "country": "NZ", "coord": {"lon": 176.75, "lat": -37.883331}}, {"id": 2187238, "name": "Masterton District", "state": "", "country": "NZ", "coord": {"lon": 175.666672, "lat": -40.950001}}, {"id": 2187273, "name": "Marshland", "state": "", "country": "NZ", "coord": {"lon": 172.649994, "lat": -43.48333}}, {"id": 2187304, "name": "Marlborough", "state": "", "country": "NZ", "coord": {"lon": 173.5, "lat": -41.666672}}, {"id": 2187365, "name": "Mapua", "state": "", "country": "NZ", "coord": {"lon": 173.100006, "lat": -41.25}}, {"id": 2187393, "name": "Manutuke", "state": "", "country": "NZ", "coord": {"lon": 177.916672, "lat": -38.683331}}, {"id": 2187404, "name": "Manukau City", "state": "", "country": "NZ", "coord": {"lon": 174.879868, "lat": -36.992821}}, {"id": 2187454, "name": "Mangere", "state": "", "country": "NZ", "coord": {"lon": 174.798752, "lat": -36.968071}}, {"id": 2187477, "name": "Mangaweka", "state": "", "country": "NZ", "coord": {"lon": 175.783325, "lat": -39.799999}}, {"id": 2187552, "name": "Mangatainoka", "state": "", "country": "NZ", "coord": {"lon": 175.866669, "lat": -40.433331}}, {"id": 2187569, "name": "Mangaroa", "state": "", "country": "NZ", "coord": {"lon": 175.116669, "lat": -41.116669}}, {"id": 2187821, "name": "Manakau", "state": "", "country": "NZ", "coord": {"lon": 175.216675, "lat": -40.716671}}, {"id": 2187826, "name": "Manaia", "state": "", "country": "NZ", "coord": {"lon": 174.133331, "lat": -39.549999}}, {"id": 2187834, "name": "Mamaku", "state": "", "country": "NZ", "coord": {"lon": 176.083328, "lat": -38.099998}}, {"id": 2187908, "name": "Maketu", "state": "", "country": "NZ", "coord": {"lon": 176.449997, "lat": -37.76667}}, {"id": 2187942, "name": "Makarau", "state": "", "country": "NZ", "coord": {"lon": 174.5, "lat": -36.549999}}, {"id": 2188128, "name": "Lumsden", "state": "", "country": "NZ", "coord": {"lon": 168.449997, "lat": -45.73333}}, {"id": 2188158, "name": "Lower Shotover", "state": "", "country": "NZ", "coord": {"lon": 168.766663, "lat": -44.98333}}, {"id": 2188164, "name": "Lower Hutt", "state": "", "country": "NZ", "coord": {"lon": 174.916672, "lat": -41.216671}}, {"id": 2188277, "name": "Loburn", "state": "", "country": "NZ", "coord": {"lon": 172.533325, "lat": -43.25}}, {"id": 2188295, "name": "Little River", "state": "", "country": "NZ", "coord": {"lon": 172.783325, "lat": -43.76667}}, {"id": 2188371, "name": "Lincoln", "state": "", "country": "NZ", "coord": {"lon": 172.483337, "lat": -43.650002}}, {"id": 2188444, "name": "Leeston", "state": "", "country": "NZ", "coord": {"lon": 172.300003, "lat": -43.76667}}, {"id": 2188466, "name": "Leamington", "state": "", "country": "NZ", "coord": {"lon": 175.466675, "lat": -37.883331}}, {"id": 2188540, "name": "Lake Coleridge", "state": "", "country": "NZ", "coord": {"lon": 171.533325, "lat": -43.366669}}, {"id": 2188591, "name": "Kumeu", "state": "", "country": "NZ", "coord": {"lon": 174.566666, "lat": -36.76667}}, {"id": 2188796, "name": "Kirwee", "state": "", "country": "NZ", "coord": {"lon": 172.216675, "lat": -43.5}}, {"id": 2188847, "name": "Kilbirnie", "state": "", "country": "NZ", "coord": {"lon": 174.795059, "lat": -41.318241}}, {"id": 2188853, "name": "Kihikihi", "state": "", "country": "NZ", "coord": {"lon": 175.350006, "lat": -38.033329}}, {"id": 2188874, "name": "Kerikeri", "state": "", "country": "NZ", "coord": {"lon": 173.947388, "lat": -35.226761}}, {"id": 2188882, "name": "Kerepehi", "state": "", "country": "NZ", "coord": {"lon": 175.533325, "lat": -37.299999}}, {"id": 2188922, "name": "Kelburn", "state": "", "country": "NZ", "coord": {"lon": 174.766663, "lat": -41.283329}}, {"id": 2188942, "name": "Kawerau", "state": "", "country": "NZ", "coord": {"lon": 176.699997, "lat": -38.099998}}, {"id": 2188943, "name": "Kawerau District", "state": "", "country": "NZ", "coord": {"lon": 176.716675, "lat": -38.099998}}, {"id": 2188966, "name": "Kawakawa", "state": "", "country": "NZ", "coord": {"lon": 174.066666, "lat": -35.383331}}, {"id": 2188993, "name": "Kaukapakapa", "state": "", "country": "NZ", "coord": {"lon": 174.5, "lat": -36.616669}}, {"id": 2189016, "name": "Katikati", "state": "", "country": "NZ", "coord": {"lon": 175.916672, "lat": -37.549999}}, {"id": 2189028, "name": "Karori", "state": "", "country": "NZ", "coord": {"lon": 174.733337, "lat": -41.283329}}, {"id": 2189081, "name": "Kaponga", "state": "", "country": "NZ", "coord": {"lon": 174.149994, "lat": -39.433331}}, {"id": 2189146, "name": "Kakanui", "state": "", "country": "NZ", "coord": {"lon": 170.899994, "lat": -45.183331}}, {"id": 2189162, "name": "Kaiwharawhara", "state": "", "country": "NZ", "coord": {"lon": 174.783325, "lat": -41.26667}}, {"id": 2189167, "name": "Kaiwaka", "state": "", "country": "NZ", "coord": {"lon": 174.449997, "lat": -36.166672}}, {"id": 2189272, "name": "Kaikoura", "state": "", "country": "NZ", "coord": {"lon": 173.683334, "lat": -42.416672}}, {"id": 2189343, "name": "Kaeo", "state": "", "country": "NZ", "coord": {"lon": 173.783325, "lat": -35.099998}}, {"id": 2189364, "name": "Judgeford", "state": "", "country": "NZ", "coord": {"lon": 174.933334, "lat": -41.116669}}, {"id": 2189506, "name": "Island Bay", "state": "", "country": "NZ", "coord": {"lon": 174.783325, "lat": -41.333328}}, {"id": 2189529, "name": "Invercargill", "state": "", "country": "NZ", "coord": {"lon": 168.350006, "lat": -46.400002}}, {"id": 2189623, "name": "Hunua", "state": "", "country": "NZ", "coord": {"lon": 175.066666, "lat": -37.083328}}, {"id": 2189630, "name": "Hunterville", "state": "", "country": "NZ", "coord": {"lon": 175.566666, "lat": -39.933331}}, {"id": 2189715, "name": "Howick", "state": "", "country": "NZ", "coord": {"lon": 174.933334, "lat": -36.883331}}, {"id": 2189947, "name": "Himatangi", "state": "", "country": "NZ", "coord": {"lon": 175.316666, "lat": -40.400002}}, {"id": 2189951, "name": "Hillsborough", "state": "", "country": "NZ", "coord": {"lon": 174.149994, "lat": -39.099998}}, {"id": 2189958, "name": "Hilderthorpe", "state": "", "country": "NZ", "coord": {"lon": 171.066666, "lat": -44.98333}}, {"id": 2190034, "name": "Heretaunga", "state": "", "country": "NZ", "coord": {"lon": 175.033325, "lat": -41.150002}}, {"id": 2190142, "name": "Hawkins", "state": "", "country": "NZ", "coord": {"lon": 172.033325, "lat": -43.48333}}, {"id": 2190146, "name": "Hawke's Bay", "state": "", "country": "NZ", "coord": {"lon": 176.5, "lat": -39.666672}}, {"id": 2190169, "name": "Havelock North", "state": "", "country": "NZ", "coord": {"lon": 176.883331, "lat": -39.666672}}, {"id": 2190172, "name": "Havelock", "state": "", "country": "NZ", "coord": {"lon": 173.766663, "lat": -41.283329}}, {"id": 2190223, "name": "Hastings District", "state": "", "country": "NZ", "coord": {"lon": 176.850006, "lat": -39.633331}}, {"id": 2190224, "name": "Hastings", "state": "", "country": "NZ", "coord": {"lon": 176.849182, "lat": -39.6381}}, {"id": 2190262, "name": "Harewood", "state": "", "country": "NZ", "coord": {"lon": 172.583328, "lat": -43.48333}}, {"id": 2190299, "name": "Hanmer Springs", "state": "", "country": "NZ", "coord": {"lon": 172.816666, "lat": -42.51667}}, {"id": 2190324, "name": "Hamilton", "state": "", "country": "NZ", "coord": {"lon": 175.283325, "lat": -37.783329}}, {"id": 2190329, "name": "Halswell", "state": "", "country": "NZ", "coord": {"lon": 172.566666, "lat": -43.583328}}, {"id": 2190358, "name": "Halcombe", "state": "", "country": "NZ", "coord": {"lon": 175.5, "lat": -40.150002}}, {"id": 2190613, "name": "Gordonton", "state": "", "country": "NZ", "coord": {"lon": 175.300003, "lat": -37.666672}}, {"id": 2190727, "name": "Glen Eden", "state": "", "country": "NZ", "coord": {"lon": 174.649994, "lat": -36.916672}}, {"id": 2190743, "name": "Glenavy", "state": "", "country": "NZ", "coord": {"lon": 171.100006, "lat": -44.916672}}, {"id": 2190766, "name": "Gisborne District", "state": "", "country": "NZ", "coord": {"lon": 178.016663, "lat": -38.666672}}, {"id": 2190767, "name": "Gisborne", "state": "", "country": "NZ", "coord": {"lon": 178.0, "lat": -38.650002}}, {"id": 2190917, "name": "Frasertown", "state": "", "country": "NZ", "coord": {"lon": 177.400558, "lat": -38.968609}}, {"id": 2191167, "name": "Fendalton", "state": "", "country": "NZ", "coord": {"lon": 172.600006, "lat": -43.51667}}, {"id": 2191332, "name": "Endeavour Inlet", "state": "", "country": "NZ", "coord": {"lon": 174.183334, "lat": -41.083328}}, {"id": 2191418, "name": "Egmont Village", "state": "", "country": "NZ", "coord": {"lon": 174.149994, "lat": -39.150002}}, {"id": 2191451, "name": "Edgecumbe", "state": "", "country": "NZ", "coord": {"lon": 176.833328, "lat": -37.98333}}, {"id": 2191468, "name": "East Tamaki", "state": "", "country": "NZ", "coord": {"lon": 174.899994, "lat": -36.950001}}, {"id": 2191553, "name": "Dunsandel", "state": "", "country": "NZ", "coord": {"lon": 172.183334, "lat": -43.666672}}, {"id": 2191562, "name": "Dunedin", "state": "", "country": "NZ", "coord": {"lon": 170.503616, "lat": -45.874161}}, {"id": 2191717, "name": "Dobson", "state": "", "country": "NZ", "coord": {"lon": 171.300003, "lat": -42.450001}}, {"id": 2191862, "name": "Deborah", "state": "", "country": "NZ", "coord": {"lon": 170.933334, "lat": -45.116669}}, {"id": 2191911, "name": "Dargaville", "state": "", "country": "NZ", "coord": {"lon": 173.883331, "lat": -35.933331}}, {"id": 2191913, "name": "Darfield", "state": "", "country": "NZ", "coord": {"lon": 172.116669, "lat": -43.48333}}, {"id": 2191945, "name": "Dairy Flat", "state": "", "country": "NZ", "coord": {"lon": 174.649994, "lat": -36.666672}}, {"id": 2191972, "name": "Culverden", "state": "", "country": "NZ", "coord": {"lon": 172.850006, "lat": -42.76667}}, {"id": 2192025, "name": "Creighton", "state": "", "country": "NZ", "coord": {"lon": 168.433334, "lat": -45.0}}, {"id": 2192093, "name": "Coromandel", "state": "", "country": "NZ", "coord": {"lon": 175.5, "lat": -36.76667}}, {"id": 2192264, "name": "Clyde", "state": "", "country": "NZ", "coord": {"lon": 169.316666, "lat": -45.183331}}, {"id": 2192282, "name": "Clive", "state": "", "country": "NZ", "coord": {"lon": 176.916672, "lat": -39.583328}}, {"id": 2192362, "name": "Christchurch", "state": "", "country": "NZ", "coord": {"lon": 172.633331, "lat": -43.533329}}, {"id": 2192380, "name": "Cheviot", "state": "", "country": "NZ", "coord": {"lon": 173.266663, "lat": -42.816669}}, {"id": 2192521, "name": "Castlepoint", "state": "", "country": "NZ", "coord": {"lon": 176.216675, "lat": -40.900002}}, {"id": 2192573, "name": "Carters Beach", "state": "", "country": "NZ", "coord": {"lon": 171.566666, "lat": -41.75}}, {"id": 2192628, "name": "Canterbury", "state": "", "country": "NZ", "coord": {"lon": 171.5, "lat": -43.5}}, {"id": 2192676, "name": "Campbells Bay", "state": "", "country": "NZ", "coord": {"lon": 174.766663, "lat": -36.75}}, {"id": 2192779, "name": "Burwood", "state": "", "country": "NZ", "coord": {"lon": 172.699997, "lat": -43.5}}, {"id": 2192797, "name": "Burnham", "state": "", "country": "NZ", "coord": {"lon": 172.316666, "lat": -43.616669}}, {"id": 2192828, "name": "Bulls", "state": "", "country": "NZ", "coord": {"lon": 175.383331, "lat": -40.166672}}, {"id": 2192941, "name": "Brooklyn", "state": "", "country": "NZ", "coord": {"lon": 174.75, "lat": -41.316669}}, {"id": 2192964, "name": "Brightwater", "state": "", "country": "NZ", "coord": {"lon": 173.116669, "lat": -41.383331}}, {"id": 2193111, "name": "Bombay", "state": "", "country": "NZ", "coord": {"lon": 174.983337, "lat": -37.166672}}, {"id": 2193383, "name": "Berhampore", "state": "", "country": "NZ", "coord": {"lon": 174.783325, "lat": -41.316669}}, {"id": 2193395, "name": "Bennetts", "state": "", "country": "NZ", "coord": {"lon": 172.300003, "lat": -43.299999}}, {"id": 2193436, "name": "Belmont", "state": "", "country": "NZ", "coord": {"lon": 174.933334, "lat": -41.183331}}, {"id": 2193449, "name": "Bell Block", "state": "", "country": "NZ", "coord": {"lon": 174.149994, "lat": -39.033329}}, {"id": 2193580, "name": "Bankside", "state": "", "country": "NZ", "coord": {"lon": 172.083328, "lat": -43.700001}}, {"id": 2193678, "name": "Awanui", "state": "", "country": "NZ", "coord": {"lon": 173.25, "lat": -35.049999}}, {"id": 2193703, "name": "Avondale", "state": "", "country": "NZ", "coord": {"lon": 174.699997, "lat": -36.883331}}, {"id": 2193732, "name": "Auckland", "state": "", "country": "NZ", "coord": {"lon": 174.743042, "lat": -36.85582}}, {"id": 2193733, "name": "Auckland", "state": "", "country": "NZ", "coord": {"lon": 174.766663, "lat": -36.866669}}, {"id": 2193734, "name": "Auckland", "state": "", "country": "NZ", "coord": {"lon": 174.783325, "lat": -36.849998}}, {"id": 2193747, "name": "Athenree", "state": "", "country": "NZ", "coord": {"lon": 175.916672, "lat": -37.466671}}, {"id": 2193767, "name": "Ashhurst", "state": "", "country": "NZ", "coord": {"lon": 175.75, "lat": -40.299999}}, {"id": 2193772, "name": "Ashburton District", "state": "", "country": "NZ", "coord": {"lon": 171.75, "lat": -43.900002}}, {"id": 2193843, "name": "Ararimu", "state": "", "country": "NZ", "coord": {"lon": 175.033325, "lat": -37.150002}}, {"id": 2193849, "name": "Arapuni", "state": "", "country": "NZ", "coord": {"lon": 175.645981, "lat": -38.07093}}, {"id": 2193863, "name": "Aramoho", "state": "", "country": "NZ", "coord": {"lon": 175.050003, "lat": -39.916672}}, {"id": 2193902, "name": "Aongatete", "state": "", "country": "NZ", "coord": {"lon": 175.949997, "lat": -37.616669}}, {"id": 2193968, "name": "Amberley", "state": "", "country": "NZ", "coord": {"lon": 172.733337, "lat": -43.166672}}, {"id": 2194098, "name": "Ahipara", "state": "", "country": "NZ", "coord": {"lon": 173.166672, "lat": -35.166672}}, {"id": 2194371, "name": "Western Division", "state": "", "country": "FJ", "coord": {"lon": 177.5, "lat": -18.0}}, {"id": 2198148, "name": "Suva", "state": "", "country": "FJ", "coord": {"lon": 178.441483, "lat": -18.141609}}, {"id": 2199295, "name": "Northern Division", "state": "", "country": "FJ", "coord": {"lon": 179.5, "lat": -16.5}}, {"id": 2201079, "name": "Nacekoro", "state": "", "country": "FJ", "coord": {"lon": 179.333328, "lat": -16.799999}}, {"id": 2201316, "name": "Nasirotu", "state": "", "country": "FJ", "coord": {"lon": 178.25, "lat": -18.033331}}, {"id": 2201391, "name": "Naselai", "state": "", "country": "FJ", "coord": {"lon": 178.566666, "lat": -18.049999}}, {"id": 2202064, "name": "Nadi", "state": "", "country": "FJ", "coord": {"lon": 177.416672, "lat": -17.799999}}, {"id": 2202179, "name": "Navoci Namotomoto", "state": "", "country": "FJ", "coord": {"lon": 177.416672, "lat": -17.799999}}, {"id": 2202999, "name": "Nakama", "state": "", "country": "FJ", "coord": {"lon": 179.350006, "lat": -16.48333}}, {"id": 2204113, "name": "Malsa\u2019a", "state": "", "country": "FJ", "coord": {"lon": 177.066666, "lat": -12.48333}}, {"id": 2204506, "name": "Lautoka", "state": "", "country": "FJ", "coord": {"lon": 177.466675, "lat": -17.616671}}, {"id": 2204582, "name": "Labasa", "state": "", "country": "FJ", "coord": {"lon": 179.383331, "lat": -16.41667}}, {"id": 2205218, "name": "Republic of Fiji", "state": "", "country": "FJ", "coord": {"lon": 178.0, "lat": -18.0}}, {"id": 2205272, "name": "Central Division", "state": "", "country": "FJ", "coord": {"lon": 178.333328, "lat": -18.0}}, {"id": 2205622, "name": "Morpeth", "state": "", "country": "AU", "coord": {"lon": 151.633331, "lat": -32.73333}}, {"id": 2205625, "name": "Holmesville", "state": "", "country": "AU", "coord": {"lon": 151.591675, "lat": -32.900002}}, {"id": 2205628, "name": "Lambton", "state": "", "country": "AU", "coord": {"lon": 151.699997, "lat": -32.916672}}, {"id": 2205629, "name": "New Lambton", "state": "", "country": "AU", "coord": {"lon": 151.683334, "lat": -32.950001}}, {"id": 2205631, "name": "Raymond Terrace", "state": "", "country": "AU", "coord": {"lon": 151.75, "lat": -32.75}}, {"id": 2205745, "name": "Kayena", "state": "", "country": "AU", "coord": {"lon": 146.898331, "lat": -41.19722}}, {"id": 2205820, "name": "Blackwall", "state": "", "country": "AU", "coord": {"lon": 146.966675, "lat": -41.311111}}, {"id": 2205838, "name": "Mayfield", "state": "", "country": "AU", "coord": {"lon": 147.133331, "lat": -41.387218}}, {"id": 2205847, "name": "Invermay", "state": "", "country": "AU", "coord": {"lon": 147.130554, "lat": -41.39167}}, {"id": 2205969, "name": "Gymea", "state": "", "country": "AU", "coord": {"lon": 151.083328, "lat": -34.033329}}, {"id": 2205970, "name": "Kirrawee", "state": "", "country": "AU", "coord": {"lon": 151.066666, "lat": -34.033329}}, {"id": 2205971, "name": "Loftus", "state": "", "country": "AU", "coord": {"lon": 151.050003, "lat": -34.049999}}, {"id": 2205973, "name": "Dolans Bay", "state": "", "country": "AU", "coord": {"lon": 151.116669, "lat": -34.049999}}, {"id": 2205974, "name": "Lilli Pilli", "state": "", "country": "AU", "coord": {"lon": 151.116669, "lat": -34.066669}}, {"id": 2205977, "name": "Bundeena", "state": "", "country": "AU", "coord": {"lon": 151.149994, "lat": -34.083328}}, {"id": 2205978, "name": "Yowie Bay", "state": "", "country": "AU", "coord": {"lon": 151.100006, "lat": -34.049999}}, {"id": 2205979, "name": "Gymea Bay", "state": "", "country": "AU", "coord": {"lon": 151.083328, "lat": -34.049999}}, {"id": 2205980, "name": "Yarrawarrah", "state": "", "country": "AU", "coord": {"lon": 151.033325, "lat": -34.049999}}, {"id": 2205982, "name": "Bangor", "state": "", "country": "AU", "coord": {"lon": 151.033325, "lat": -34.01667}}, {"id": 2205983, "name": "Kareela", "state": "", "country": "AU", "coord": {"lon": 151.083328, "lat": -34.01667}}, {"id": 2205984, "name": "Sylvania", "state": "", "country": "AU", "coord": {"lon": 151.100006, "lat": -34.01667}}, {"id": 2205987, "name": "Bonnet Bay", "state": "", "country": "AU", "coord": {"lon": 151.050003, "lat": -34.0}}, {"id": 2205988, "name": "Oyster Bay", "state": "", "country": "AU", "coord": {"lon": 151.066666, "lat": -34.0}}, {"id": 2205989, "name": "Grays Point", "state": "", "country": "AU", "coord": {"lon": 151.083328, "lat": -34.049999}}, {"id": 2205993, "name": "Banksmeadow", "state": "", "country": "AU", "coord": {"lon": 151.216675, "lat": -33.950001}}, {"id": 2205994, "name": "Port Botany", "state": "", "country": "AU", "coord": {"lon": 151.216675, "lat": -33.966671}}, {"id": 2205995, "name": "Phillip Bay", "state": "", "country": "AU", "coord": {"lon": 151.233337, "lat": -33.98333}}, {"id": 2205999, "name": "Brighton-Le-Sands", "state": "", "country": "AU", "coord": {"lon": 151.149994, "lat": -33.950001}}, {"id": 2206000, "name": "Monterey", "state": "", "country": "AU", "coord": {"lon": 151.149994, "lat": -33.966671}}, {"id": 2206001, "name": "Ramsgate", "state": "", "country": "AU", "coord": {"lon": 151.149994, "lat": -33.98333}}, {"id": 2206002, "name": "Sans Souci", "state": "", "country": "AU", "coord": {"lon": 151.133331, "lat": -33.98333}}, {"id": 2206003, "name": "Blakehurst", "state": "", "country": "AU", "coord": {"lon": 151.100006, "lat": -33.98333}}, {"id": 2206004, "name": "Connells Point", "state": "", "country": "AU", "coord": {"lon": 151.083328, "lat": -33.98333}}, {"id": 2206005, "name": "Illawong", "state": "", "country": "AU", "coord": {"lon": 151.033325, "lat": -34.0}}, {"id": 2206006, "name": "Lugarno", "state": "", "country": "AU", "coord": {"lon": 151.033325, "lat": -33.98333}}, {"id": 2206007, "name": "Peakhurst", "state": "", "country": "AU", "coord": {"lon": 151.050003, "lat": -33.966671}}, {"id": 2206008, "name": "Padstow", "state": "", "country": "AU", "coord": {"lon": 151.033325, "lat": -33.950001}}, {"id": 2206009, "name": "Riverwood", "state": "", "country": "AU", "coord": {"lon": 151.050003, "lat": -33.950001}}, {"id": 2206048, "name": "Goodwood", "state": "", "country": "AU", "coord": {"lon": 147.294434, "lat": -42.825001}}, {"id": 2206066, "name": "Lutana", "state": "", "country": "AU", "coord": {"lon": 147.311111, "lat": -42.836109}}, {"id": 2206068, "name": "New Town", "state": "", "country": "AU", "coord": {"lon": 147.308334, "lat": -42.860001}}, {"id": 2206082, "name": "Lake Heights", "state": "", "country": "AU", "coord": {"lon": 150.875, "lat": -34.486671}}, {"id": 2206084, "name": "Warrawong", "state": "", "country": "AU", "coord": {"lon": 150.888336, "lat": -34.485001}}, {"id": 2206089, "name": "Sandy Bay", "state": "", "country": "AU", "coord": {"lon": 147.35318, "lat": -42.912998}}, {"id": 2206103, "name": "Tarrawanna", "state": "", "country": "AU", "coord": {"lon": 150.887497, "lat": -34.378059}}, {"id": 2206107, "name": "Towradgi", "state": "", "country": "AU", "coord": {"lon": 150.902786, "lat": -34.386669}}, {"id": 2206108, "name": "Fairy Meadow", "state": "", "country": "AU", "coord": {"lon": 150.895828, "lat": -34.396671}}, {"id": 2206110, "name": "Mount Ousley", "state": "", "country": "AU", "coord": {"lon": 150.875, "lat": -34.400002}}, {"id": 2206111, "name": "Mount Keira", "state": "", "country": "AU", "coord": {"lon": 150.854172, "lat": -34.418892}}, {"id": 2206112, "name": "Gwynneville", "state": "", "country": "AU", "coord": {"lon": 150.887497, "lat": -34.416672}}, {"id": 2206115, "name": "Figtree", "state": "", "country": "AU", "coord": {"lon": 150.858337, "lat": -34.435558}}, {"id": 2206116, "name": "Mangerton", "state": "", "country": "AU", "coord": {"lon": 150.871674, "lat": -34.436668}}, {"id": 2206117, "name": "Mount Saint Thomas", "state": "", "country": "AU", "coord": {"lon": 150.872223, "lat": -34.443329}}, {"id": 2206357, "name": "Opunake", "state": "", "country": "NZ", "coord": {"lon": 173.858337, "lat": -39.455559}}, {"id": 2206358, "name": "Eltham", "state": "", "country": "NZ", "coord": {"lon": 174.300003, "lat": -39.429169}}, {"id": 2206359, "name": "Hawera", "state": "", "country": "NZ", "coord": {"lon": 174.283325, "lat": -39.591671}}, {"id": 2206361, "name": "Patea", "state": "", "country": "NZ", "coord": {"lon": 174.483337, "lat": -39.758331}}, {"id": 2206363, "name": "Ratana", "state": "", "country": "NZ", "coord": {"lon": 175.175003, "lat": -40.04583}}, {"id": 2206369, "name": "Foxton", "state": "", "country": "NZ", "coord": {"lon": 175.300003, "lat": -40.466671}}, {"id": 2206371, "name": "Levin", "state": "", "country": "NZ", "coord": {"lon": 175.274994, "lat": -40.633331}}, {"id": 2206372, "name": "Otaki", "state": "", "country": "NZ", "coord": {"lon": 175.149994, "lat": -40.758331}}, {"id": 2206564, "name": "South Mission Beach", "state": "", "country": "AU", "coord": {"lon": 146.083328, "lat": -17.950001}}, {"id": 2206599, "name": "Palm Cove", "state": "", "country": "AU", "coord": {"lon": 145.666672, "lat": -16.75}}, {"id": 2206601, "name": "Yorkeys Knob", "state": "", "country": "AU", "coord": {"lon": 145.716675, "lat": -16.816669}}, {"id": 2206805, "name": "Porangahau", "state": "", "country": "NZ", "coord": {"lon": 176.628326, "lat": -40.278889}}, {"id": 2206808, "name": "Wairoa", "state": "", "country": "NZ", "coord": {"lon": 177.366669, "lat": -39.033329}}, {"id": 2206822, "name": "Tamihunu", "state": "", "country": "NZ", "coord": {"lon": 176.847778, "lat": -39.540279}}, {"id": 2206854, "name": "Gisborne", "state": "", "country": "NZ", "coord": {"lon": 178.004166, "lat": -38.653332}}, {"id": 2206874, "name": "Waipawa", "state": "", "country": "NZ", "coord": {"lon": 175.515274, "lat": -41.41222}}, {"id": 2206890, "name": "Masterton", "state": "", "country": "NZ", "coord": {"lon": 175.657501, "lat": -40.959721}}, {"id": 2206894, "name": "Hokitika", "state": "", "country": "NZ", "coord": {"lon": 170.966675, "lat": -42.716671}}, {"id": 2206895, "name": "Greymouth", "state": "", "country": "NZ", "coord": {"lon": 171.199997, "lat": -42.466671}}, {"id": 2206900, "name": "Westport", "state": "", "country": "NZ", "coord": {"lon": 171.603699, "lat": -41.752621}}, {"id": 2206939, "name": "Bluff", "state": "", "country": "NZ", "coord": {"lon": 168.333328, "lat": -46.599998}}, {"id": 2206957, "name": "Riverton", "state": "", "country": "NZ", "coord": {"lon": 168.016663, "lat": -46.349998}}, {"id": 2206967, "name": "Wallacetown", "state": "", "country": "NZ", "coord": {"lon": 168.266663, "lat": -46.333328}}, {"id": 2206968, "name": "Winton", "state": "", "country": "NZ", "coord": {"lon": 168.333328, "lat": -46.150002}}, {"id": 2206980, "name": "Sisters Beach", "state": "", "country": "AU", "coord": {"lon": 145.55278, "lat": -40.915001}}, {"id": 2206983, "name": "Moorleah", "state": "", "country": "AU", "coord": {"lon": 145.633331, "lat": -40.98333}}, {"id": 2206984, "name": "Oldina", "state": "", "country": "AU", "coord": {"lon": 145.683334, "lat": -41.083328}}, {"id": 2207079, "name": "Gundamaian", "state": "", "country": "AU", "coord": {"lon": 151.091675, "lat": -34.066669}}, {"id": 2207153, "name": "Norlane", "state": "", "country": "AU", "coord": {"lon": 144.354172, "lat": -38.101391}}, {"id": 2207245, "name": "Hamilton", "state": "", "country": "AU", "coord": {"lon": 153.066666, "lat": -27.441669}}, {"id": 2207247, "name": "Bulimba", "state": "", "country": "AU", "coord": {"lon": 153.058334, "lat": -27.450001}}, {"id": 2207249, "name": "New Farm", "state": "", "country": "AU", "coord": {"lon": 153.045837, "lat": -27.46944}}, {"id": 2207250, "name": "Norman Park", "state": "", "country": "AU", "coord": {"lon": 153.058334, "lat": -27.48333}}, {"id": 2207251, "name": "Newstead", "state": "", "country": "AU", "coord": {"lon": 153.044434, "lat": -27.444441}}, {"id": 2207252, "name": "Hawthorne", "state": "", "country": "AU", "coord": {"lon": 153.061111, "lat": -27.461109}}, {"id": 2207258, "name": "East Brisbane", "state": "", "country": "AU", "coord": {"lon": 153.041672, "lat": -27.48333}}, {"id": 2207259, "name": "South Brisbane", "state": "", "country": "AU", "coord": {"lon": 153.016663, "lat": -27.48333}}, {"id": 2207309, "name": "Point Lookout", "state": "", "country": "AU", "coord": {"lon": 153.541946, "lat": -27.435829}}, {"id": 2207330, "name": "Scarborough", "state": "", "country": "AU", "coord": {"lon": 153.110275, "lat": -27.20083}}, {"id": 2207349, "name": "Bellara", "state": "", "country": "AU", "coord": {"lon": 153.149597, "lat": -27.063919}}, {"id": 2207360, "name": "Wonga", "state": "", "country": "AU", "coord": {"lon": 145.416672, "lat": -16.33333}}, {"id": 2207364, "name": "Bloomfield", "state": "", "country": "AU", "coord": {"lon": 145.333328, "lat": -15.93333}}, {"id": 2207391, "name": "Holloways Beach", "state": "", "country": "AU", "coord": {"lon": 145.739227, "lat": -16.842091}}, {"id": 2207413, "name": "Wasaga", "state": "", "country": "AU", "coord": {"lon": 142.245834, "lat": -10.59583}}, {"id": 2207538, "name": "Bonbeach", "state": "", "country": "AU", "coord": {"lon": 145.122787, "lat": -38.065281}}, {"id": 2207598, "name": "Laverton", "state": "", "country": "AU", "coord": {"lon": 144.769791, "lat": -37.862019}}, {"id": 2207611, "name": "North Brighton", "state": "", "country": "AU", "coord": {"lon": 145.00528, "lat": -37.90694}}, {"id": 2207616, "name": "Highett", "state": "", "country": "AU", "coord": {"lon": 145.039444, "lat": -37.951672}}, {"id": 2207618, "name": "Cheltenham", "state": "", "country": "AU", "coord": {"lon": 145.048065, "lat": -37.96944}}, {"id": 2207620, "name": "Parkdale", "state": "", "country": "AU", "coord": {"lon": 145.073395, "lat": -37.994228}}, {"id": 2207668, "name": "Stanmore Bay", "state": "", "country": "NZ", "coord": {"lon": 174.731384, "lat": -36.627499}}, {"id": 2207697, "name": "Herne Bay", "state": "", "country": "NZ", "coord": {"lon": 174.729172, "lat": -36.846111}}, {"id": 2207714, "name": "Mission Bay", "state": "", "country": "NZ", "coord": {"lon": 174.831665, "lat": -36.854721}}, {"id": 2207730, "name": "Northcote Point", "state": "", "country": "NZ", "coord": {"lon": 174.745834, "lat": -36.815281}}, {"id": 2207740, "name": "Takapuna", "state": "", "country": "NZ", "coord": {"lon": 174.775833, "lat": -36.791672}}, {"id": 2207746, "name": "Westlake", "state": "", "country": "NZ", "coord": {"lon": 174.752502, "lat": -36.785}}, {"id": 2207748, "name": "Bellevue Hill", "state": "", "country": "AU", "coord": {"lon": 151.250565, "lat": -33.87944}}, {"id": 2207753, "name": "Paddington", "state": "", "country": "AU", "coord": {"lon": 151.229996, "lat": -33.885281}}, {"id": 2207754, "name": "Ultimo", "state": "", "country": "AU", "coord": {"lon": 151.196945, "lat": -33.878609}}, {"id": 2207762, "name": "Lilyfield", "state": "", "country": "AU", "coord": {"lon": 151.165558, "lat": -33.87611}}, {"id": 2207783, "name": "Drummoyne", "state": "", "country": "AU", "coord": {"lon": 151.154175, "lat": -33.853611}}, {"id": 2207796, "name": "Greenwich", "state": "", "country": "AU", "coord": {"lon": 151.18306, "lat": -33.840561}}, {"id": 2207809, "name": "Hunters Hill", "state": "", "country": "AU", "coord": {"lon": 151.140823, "lat": -33.833328}}, {"id": 2207817, "name": "Longueville", "state": "", "country": "AU", "coord": {"lon": 151.166397, "lat": -33.832779}}, {"id": 2207819, "name": "Northwood", "state": "", "country": "AU", "coord": {"lon": 151.180832, "lat": -33.828609}}, {"id": 2207821, "name": "Crows Nest", "state": "", "country": "AU", "coord": {"lon": 151.201675, "lat": -33.82806}}, {"id": 2207822, "name": "Cammeray", "state": "", "country": "AU", "coord": {"lon": 151.215836, "lat": -33.822498}}, {"id": 2207834, "name": "Seaforth", "state": "", "country": "AU", "coord": {"lon": 151.239716, "lat": -33.802502}}, {"id": 2207840, "name": "Balgowlah Heights", "state": "", "country": "AU", "coord": {"lon": 151.259171, "lat": -33.805561}}, {"id": 2207841, "name": "Clontarf", "state": "", "country": "AU", "coord": {"lon": 151.256668, "lat": -33.809719}}, {"id": 2207879, "name": "Cremorne", "state": "", "country": "AU", "coord": {"lon": 151.225006, "lat": -33.833328}}, {"id": 2207880, "name": "Neutral Bay", "state": "", "country": "AU", "coord": {"lon": 151.216675, "lat": -33.83889}}, {"id": 2207901, "name": "Point Piper", "state": "", "country": "AU", "coord": {"lon": 151.25, "lat": -33.866669}}, {"id": 2207908, "name": "Darling Point", "state": "", "country": "AU", "coord": {"lon": 151.238892, "lat": -33.870831}}, {"id": 2207912, "name": "Dover Heights", "state": "", "country": "AU", "coord": {"lon": 151.279175, "lat": -33.870831}}, {"id": 2208032, "name": "Tauranga", "state": "", "country": "NZ", "coord": {"lon": 176.166672, "lat": -37.686111}}, {"id": 2208041, "name": "Mount Maunganui", "state": "", "country": "NZ", "coord": {"lon": 176.186111, "lat": -37.64167}}, {"id": 2208091, "name": "Waitara", "state": "", "country": "NZ", "coord": {"lon": 174.25, "lat": -38.924999}}, {"id": 2208241, "name": "Mosgiel", "state": "", "country": "NZ", "coord": {"lon": 170.347214, "lat": -45.875}}, {"id": 2208242, "name": "Milton", "state": "", "country": "NZ", "coord": {"lon": 169.969437, "lat": -46.120831}}, {"id": 2208248, "name": "Balclutha", "state": "", "country": "NZ", "coord": {"lon": 169.75, "lat": -46.233891}}, {"id": 2208265, "name": "Malampa Province", "state": "", "country": "VU", "coord": {"lon": 167.75, "lat": -16.25}}, {"id": 2208266, "name": "Penama Province", "state": "", "country": "VU", "coord": {"lon": 168.0, "lat": -15.5}}, {"id": 2208267, "name": "Shefa Province", "state": "", "country": "VU", "coord": {"lon": 168.5, "lat": -17.33333}}, {"id": 2208285, "name": "Randwick", "state": "", "country": "AU", "coord": {"lon": 151.241669, "lat": -33.916672}}, {"id": 2208286, "name": "Clovelly", "state": "", "country": "AU", "coord": {"lon": 151.25, "lat": -33.912498}}, {"id": 2208288, "name": "Bronte", "state": "", "country": "AU", "coord": {"lon": 151.266663, "lat": -33.900002}}, {"id": 2208290, "name": "Bondi", "state": "", "country": "AU", "coord": {"lon": 151.266663, "lat": -33.89167}}, {"id": 2208292, "name": "Gladesville", "state": "", "country": "AU", "coord": {"lon": 151.133331, "lat": -33.833328}}, {"id": 2208302, "name": "Forestville", "state": "", "country": "AU", "coord": {"lon": 151.208328, "lat": -33.76667}}, {"id": 2208303, "name": "Brookvale", "state": "", "country": "AU", "coord": {"lon": 151.266663, "lat": -33.76667}}, {"id": 2208304, "name": "Curl Curl", "state": "", "country": "AU", "coord": {"lon": 151.291672, "lat": -33.76667}}, {"id": 2208305, "name": "Dee Why", "state": "", "country": "AU", "coord": {"lon": 151.300003, "lat": -33.75}}, {"id": 2208327, "name": "Paeroa", "state": "", "country": "NZ", "coord": {"lon": 175.666672, "lat": -37.366669}}, {"id": 2208328, "name": "Waihi", "state": "", "country": "NZ", "coord": {"lon": 175.833328, "lat": -37.383331}}, {"id": 2208329, "name": "Papakura", "state": "", "country": "NZ", "coord": {"lon": 174.943924, "lat": -37.06572}}, {"id": 2208330, "name": "Whakatane", "state": "", "country": "NZ", "coord": {"lon": 176.985443, "lat": -37.958549}}, {"id": 2208332, "name": "Opotiki", "state": "", "country": "NZ", "coord": {"lon": 177.283325, "lat": -38.083328}}, {"id": 2208333, "name": "Thames", "state": "", "country": "NZ", "coord": {"lon": 175.533325, "lat": -37.133331}}, {"id": 2208425, "name": "Zuw\u0101rah", "state": "", "country": "LY", "coord": {"lon": 12.08199, "lat": 32.931198}}, {"id": 2208485, "name": "Zliten", "state": "", "country": "LY", "coord": {"lon": 14.56874, "lat": 32.467381}}, {"id": 2208655, "name": "Zal\u0163an", "state": "", "country": "LY", "coord": {"lon": 11.86647, "lat": 32.94701}}, {"id": 2208791, "name": "Yafran", "state": "", "country": "LY", "coord": {"lon": 12.52859, "lat": 32.06329}}, {"id": 2209055, "name": "Wadd\u0101n", "state": "", "country": "LY", "coord": {"lon": 16.13904, "lat": 29.1614}}, {"id": 2210221, "name": "Tarhuna", "state": "", "country": "LY", "coord": {"lon": 13.6332, "lat": 32.43502}}, {"id": 2210245, "name": "Tripoli", "state": "", "country": "LY", "coord": {"lon": 13.18472, "lat": 32.889721}}, {"id": 2210247, "name": "Tripoli", "state": "", "country": "LY", "coord": {"lon": 13.18746, "lat": 32.875191}}, {"id": 2210394, "name": "Tagiura", "state": "", "country": "LY", "coord": {"lon": 13.35056, "lat": 32.881672}}, {"id": 2210553, "name": "Surt", "state": "", "country": "LY", "coord": {"lon": 16.5, "lat": 30.33333}}, {"id": 2210554, "name": "Sirte", "state": "", "country": "LY", "coord": {"lon": 16.588659, "lat": 31.20892}}, {"id": 2210560, "name": "\u015eurm\u0101n", "state": "", "country": "LY", "coord": {"lon": 12.57159, "lat": 32.75668}}, {"id": 2212771, "name": "\u015eabr\u0101tah", "state": "", "country": "LY", "coord": {"lon": 12.48845, "lat": 32.79335}}, {"id": 2212774, "name": "Sabh\u0101", "state": "", "country": "LY", "coord": {"lon": 15.01664, "lat": 27.183319}}, {"id": 2212775, "name": "Sabh\u0101", "state": "", "country": "LY", "coord": {"lon": 14.42832, "lat": 27.037661}}, {"id": 2214234, "name": "Qab\u012blat Awl\u0101d Dhiy\u0101b", "state": "", "country": "LY", "coord": {"lon": 13.27083, "lat": 32.902222}}, {"id": 2214432, "name": "N\u0101l\u016bt", "state": "", "country": "LY", "coord": {"lon": 10.85, "lat": 30.33333}}, {"id": 2214433, "name": "N\u0101l\u016bt", "state": "", "country": "LY", "coord": {"lon": 10.9812, "lat": 31.868481}}, {"id": 2214602, "name": "Murzuq", "state": "", "country": "LY", "coord": {"lon": 15.48333, "lat": 25.183331}}, {"id": 2214603, "name": "Murzuq", "state": "", "country": "LY", "coord": {"lon": 13.91839, "lat": 25.91552}}, {"id": 2214812, "name": "Mu\u2018askar J\u0101l\u016b", "state": "", "country": "LY", "coord": {"lon": 13.16667, "lat": 32.866669}}, {"id": 2214813, "name": "B\u0101b al \u2018Az\u012bz\u012byah", "state": "", "country": "LY", "coord": {"lon": 13.175, "lat": 32.875}}, {"id": 2214827, "name": "Mizdah", "state": "", "country": "LY", "coord": {"lon": 12.98013, "lat": 31.445141}}, {"id": 2214845, "name": "Sha\u2018b\u012byat Mi\u015fr\u0101tah", "state": "", "country": "LY", "coord": {"lon": 14.41667, "lat": 31.41667}}, {"id": 2214846, "name": "Mi\u015fr\u0101tah", "state": "", "country": "LY", "coord": {"lon": 15.09254, "lat": 32.375351}}, {"id": 2215163, "name": "Masall\u0101tah", "state": "", "country": "LY", "coord": {"lon": 14.0, "lat": 32.616669}}, {"id": 2215210, "name": "Al Burayqah", "state": "", "country": "LY", "coord": {"lon": 19.57386, "lat": 30.40624}}, {"id": 2215636, "name": "Libya", "state": "", "country": "LY", "coord": {"lon": 17.0, "lat": 25.0}}, {"id": 2216432, "name": "Giado", "state": "", "country": "LY", "coord": {"lon": 12.02034, "lat": 31.958151}}, {"id": 2216645, "name": "H\u016bn", "state": "", "country": "LY", "coord": {"lon": 15.94772, "lat": 29.126841}}, {"id": 2216746, "name": "\u1e28ij\u0101rah", "state": "", "country": "LY", "coord": {"lon": 14.45642, "lat": 27.023001}}, {"id": 2216885, "name": "Zawiya", "state": "", "country": "LY", "coord": {"lon": 12.72778, "lat": 32.75222}}, {"id": 2217350, "name": "Gh\u0101t", "state": "", "country": "LY", "coord": {"lon": 10.33333, "lat": 26.1}}, {"id": 2217351, "name": "Ghat", "state": "", "country": "LY", "coord": {"lon": 10.17278, "lat": 24.96472}}, {"id": 2217362, "name": "Gharyan", "state": "", "country": "LY", "coord": {"lon": 13.02028, "lat": 32.172218}}, {"id": 2217440, "name": "Ghad\u0101mis", "state": "", "country": "LY", "coord": {"lon": 9.50072, "lat": 30.133659}}, {"id": 2218478, "name": "Brak", "state": "", "country": "LY", "coord": {"lon": 14.27138, "lat": 27.549561}}, {"id": 2218587, "name": "Bin Ghash\u012br", "state": "", "country": "LY", "coord": {"lon": 13.17389, "lat": 32.687778}}, {"id": 2218840, "name": "Bani Walid", "state": "", "country": "LY", "coord": {"lon": 13.99422, "lat": 31.75662}}, {"id": 2218963, "name": "Zintan", "state": "", "country": "LY", "coord": {"lon": 12.25195, "lat": 31.92231}}, {"id": 2218970, "name": "Az Z\u0101w\u012byah", "state": "", "country": "LY", "coord": {"lon": 12.72764, "lat": 32.757099}}, {"id": 2218972, "name": "Az Z\u0101wiyah", "state": "", "country": "LY", "coord": {"lon": 12.58333, "lat": 32.666672}}, {"id": 2219235, "name": "Ubari", "state": "", "country": "LY", "coord": {"lon": 12.78049, "lat": 26.59206}}, {"id": 2219905, "name": "Al Khums", "state": "", "country": "LY", "coord": {"lon": 14.26191, "lat": 32.648609}}, {"id": 2219944, "name": "Al Jufrah", "state": "", "country": "LY", "coord": {"lon": 17.41667, "lat": 28.0}}, {"id": 2219960, "name": "Al Jad\u012bd", "state": "", "country": "LY", "coord": {"lon": 14.4, "lat": 27.049999}}, {"id": 2220082, "name": "Al Fuqah\u0101\u2019", "state": "", "country": "LY", "coord": {"lon": 16.38492, "lat": 27.833731}}, {"id": 2220139, "name": "Al \u2018Az\u012bz\u012byah", "state": "", "country": "LY", "coord": {"lon": 13.0175, "lat": 32.53194}}, {"id": 2220309, "name": "Idr\u012b", "state": "", "country": "LY", "coord": {"lon": 13.26667, "lat": 27.5}}, {"id": 2220849, "name": "Yoko", "state": "", "country": "CM", "coord": {"lon": 12.31667, "lat": 5.53333}}, {"id": 2220852, "name": "Yokassala", "state": "", "country": "CM", "coord": {"lon": 11.44157, "lat": 6.46252}}, {"id": 2220853, "name": "Yokadouma", "state": "", "country": "CM", "coord": {"lon": 15.05, "lat": 3.51667}}, {"id": 2220957, "name": "Yaound\u00e9", "state": "", "country": "CM", "coord": {"lon": 11.51667, "lat": 3.86667}}, {"id": 2221030, "name": "Yagoua", "state": "", "country": "CM", "coord": {"lon": 15.23288, "lat": 10.34107}}, {"id": 2221046, "name": "Yabassi", "state": "", "country": "CM", "coord": {"lon": 9.96822, "lat": 4.45697}}, {"id": 2221053, "name": "Wum", "state": "", "country": "CM", "coord": {"lon": 10.06667, "lat": 6.38333}}, {"id": 2221394, "name": "Tonga", "state": "", "country": "CM", "coord": {"lon": 10.7, "lat": 4.96667}}, {"id": 2221504, "name": "Tiko", "state": "", "country": "CM", "coord": {"lon": 9.3699, "lat": 4.0745}}, {"id": 2221513, "name": "Tign\u00e8re", "state": "", "country": "CM", "coord": {"lon": 12.65, "lat": 7.36667}}, {"id": 2221530, "name": "Tibati", "state": "", "country": "CM", "coord": {"lon": 12.63333, "lat": 6.46667}}, {"id": 2221607, "name": "Tchollir\u00e9", "state": "", "country": "CM", "coord": {"lon": 14.1698, "lat": 8.4022}}, {"id": 2221788, "name": "South-West Region", "state": "", "country": "CM", "coord": {"lon": 9.33333, "lat": 5.41667}}, {"id": 2221789, "name": "South Region", "state": "", "country": "CM", "coord": {"lon": 11.75, "lat": 2.5}}, {"id": 2222230, "name": "Sangm\u00e9lima", "state": "", "country": "CM", "coord": {"lon": 11.98333, "lat": 2.93333}}, {"id": 2222312, "name": "Salak", "state": "", "country": "CM", "coord": {"lon": 14.25251, "lat": 10.45935}}, {"id": 2222366, "name": "Saa", "state": "", "country": "CM", "coord": {"lon": 11.45, "lat": 4.36667}}, {"id": 2222439, "name": "Rey Bouba", "state": "", "country": "CM", "coord": {"lon": 14.1786, "lat": 8.6724}}, {"id": 2222518, "name": "Pongo", "state": "", "country": "CM", "coord": {"lon": 9.98333, "lat": 2.86667}}, {"id": 2222539, "name": "Poli", "state": "", "country": "CM", "coord": {"lon": 13.25, "lat": 8.48333}}, {"id": 2222568, "name": "Pitoa", "state": "", "country": "CM", "coord": {"lon": 13.53333, "lat": 9.38333}}, {"id": 2222623, "name": "Penja", "state": "", "country": "CM", "coord": {"lon": 9.67987, "lat": 4.63911}}, {"id": 2222934, "name": "West Region", "state": "", "country": "CM", "coord": {"lon": 10.5, "lat": 5.5}}, {"id": 2223162, "name": "Omb\u00e9sa", "state": "", "country": "CM", "coord": {"lon": 11.25, "lat": 4.6}}, {"id": 2223216, "name": "Okola", "state": "", "country": "CM", "coord": {"lon": 11.38333, "lat": 4.01667}}, {"id": 2223226, "name": "Okoa", "state": "", "country": "CM", "coord": {"lon": 11.6, "lat": 3.98333}}, {"id": 2223293, "name": "Obala", "state": "", "country": "CM", "coord": {"lon": 11.53333, "lat": 4.16667}}, {"id": 2223306, "name": "Nzinb\u00e9", "state": "", "country": "CM", "coord": {"lon": 14.36667, "lat": 4.46667}}, {"id": 2223421, "name": "Ntui", "state": "", "country": "CM", "coord": {"lon": 11.63333, "lat": 4.45}}, {"id": 2223527, "name": "Nsimalen", "state": "", "country": "CM", "coord": {"lon": 11.55, "lat": 3.73333}}, {"id": 2223602, "name": "North-West Region", "state": "", "country": "CM", "coord": {"lon": 10.5, "lat": 6.33333}}, {"id": 2223603, "name": "North Region", "state": "", "country": "CM", "coord": {"lon": 14.0, "lat": 8.5}}, {"id": 2223638, "name": "Nlongo", "state": "", "country": "CM", "coord": {"lon": 9.93333, "lat": 4.95}}, {"id": 2223734, "name": "Nkoteng", "state": "", "country": "CM", "coord": {"lon": 12.03333, "lat": 4.51667}}, {"id": 2223763, "name": "Nkongsamba", "state": "", "country": "CM", "coord": {"lon": 9.9404, "lat": 4.9547}}, {"id": 2224162, "name": "Nkan", "state": "", "country": "CM", "coord": {"lon": 12.66667, "lat": 2.66667}}, {"id": 2224212, "name": "Njinikom", "state": "", "country": "CM", "coord": {"lon": 10.28333, "lat": 6.23333}}, {"id": 2224413, "name": "Nguti", "state": "", "country": "CM", "coord": {"lon": 9.4185, "lat": 5.3299}}, {"id": 2224513, "name": "Ngoulmokong", "state": "", "country": "CM", "coord": {"lon": 13.61667, "lat": 3.16667}}, {"id": 2224584, "name": "Ngoro", "state": "", "country": "CM", "coord": {"lon": 11.38333, "lat": 4.95}}, {"id": 2224641, "name": "Ngomedzap", "state": "", "country": "CM", "coord": {"lon": 11.2, "lat": 3.25}}, {"id": 2224827, "name": "Ngaound\u00e9r\u00e9", "state": "", "country": "CM", "coord": {"lon": 13.58333, "lat": 7.31667}}, {"id": 2224863, "name": "Ngamb\u00e9", "state": "", "country": "CM", "coord": {"lon": 10.61667, "lat": 4.23333}}, {"id": 2224922, "name": "New Bell", "state": "", "country": "CM", "coord": {"lon": 9.7215, "lat": 4.0354}}, {"id": 2224928, "name": "N\u00e9m\u00e9yong II", "state": "", "country": "CM", "coord": {"lon": 13.5, "lat": 2.91667}}, {"id": 2225263, "name": "Ndikinim\u00e9ki", "state": "", "country": "CM", "coord": {"lon": 10.83333, "lat": 4.76667}}, {"id": 2225325, "name": "Ndelele", "state": "", "country": "CM", "coord": {"lon": 14.93333, "lat": 4.03333}}, {"id": 2225457, "name": "Nanga Eboko", "state": "", "country": "CM", "coord": {"lon": 12.36667, "lat": 4.68333}}, {"id": 2225703, "name": "Mvangu\u00e9", "state": "", "country": "CM", "coord": {"lon": 11.51667, "lat": 2.96667}}, {"id": 2225712, "name": "Mvan", "state": "", "country": "CM", "coord": {"lon": 11.51667, "lat": 3.81667}}, {"id": 2225726, "name": "Muyuka", "state": "", "country": "CM", "coord": {"lon": 9.4103, "lat": 4.2898}}, {"id": 2225728, "name": "Mutengene", "state": "", "country": "CM", "coord": {"lon": 9.3144, "lat": 4.0913}}, {"id": 2225745, "name": "Mundemba", "state": "", "country": "CM", "coord": {"lon": 8.8724, "lat": 4.9479}}, {"id": 2225940, "name": "Mouanko", "state": "", "country": "CM", "coord": {"lon": 9.77694, "lat": 3.63972}}, {"id": 2225991, "name": "Mora", "state": "", "country": "CM", "coord": {"lon": 14.14011, "lat": 11.04611}}, {"id": 2226275, "name": "Mokolo", "state": "", "country": "CM", "coord": {"lon": 13.80188, "lat": 10.73978}}, {"id": 2226441, "name": "Mme-Bafumen", "state": "", "country": "CM", "coord": {"lon": 10.23333, "lat": 6.33333}}, {"id": 2226515, "name": "Minta", "state": "", "country": "CM", "coord": {"lon": 12.8, "lat": 4.58333}}, {"id": 2226641, "name": "Mindif", "state": "", "country": "CM", "coord": {"lon": 14.43626, "lat": 10.39757}}, {"id": 2227230, "name": "Melong", "state": "", "country": "CM", "coord": {"lon": 9.96143, "lat": 5.1218}}, {"id": 2227402, "name": "Me\u00efganga", "state": "", "country": "CM", "coord": {"lon": 14.3, "lat": 6.51667}}, {"id": 2227613, "name": "Mbouda", "state": "", "country": "CM", "coord": {"lon": 10.25517, "lat": 5.62578}}, {"id": 2227808, "name": "Mbi Djoro", "state": "", "country": "CM", "coord": {"lon": 13.56667, "lat": 7.38333}}, {"id": 2227853, "name": "Mbengwi", "state": "", "country": "CM", "coord": {"lon": 10.0, "lat": 6.01667}}, {"id": 2227980, "name": "Mbankomo", "state": "", "country": "CM", "coord": {"lon": 11.38333, "lat": 3.78333}}, {"id": 2228005, "name": "Mbanga", "state": "", "country": "CM", "coord": {"lon": 9.5671, "lat": 4.5016}}, {"id": 2228019, "name": "Mbang", "state": "", "country": "CM", "coord": {"lon": 13.33333, "lat": 4.58333}}, {"id": 2228028, "name": "Mbandjok", "state": "", "country": "CM", "coord": {"lon": 11.9, "lat": 4.45}}, {"id": 2228079, "name": "Mbalmayo", "state": "", "country": "CM", "coord": {"lon": 11.5, "lat": 3.51667}}, {"id": 2228373, "name": "Maroua", "state": "", "country": "CM", "coord": {"lon": 14.31592, "lat": 10.59095}}, {"id": 2228499, "name": "Manjo", "state": "", "country": "CM", "coord": {"lon": 9.8217, "lat": 4.8428}}, {"id": 2228675, "name": "Mamfe", "state": "", "country": "CM", "coord": {"lon": 9.3123, "lat": 5.754}}, {"id": 2228881, "name": "Makary", "state": "", "country": "CM", "coord": {"lon": 14.46662, "lat": 12.5717}}, {"id": 2229152, "name": "Loum", "state": "", "country": "CM", "coord": {"lon": 9.7351, "lat": 4.7182}}, {"id": 2229267, "name": "Lolodorf", "state": "", "country": "CM", "coord": {"lon": 10.73333, "lat": 3.23333}}, {"id": 2229336, "name": "Littoral Region", "state": "", "country": "CM", "coord": {"lon": 10.0, "lat": 4.0}}, {"id": 2229411, "name": "Limbe", "state": "", "country": "CM", "coord": {"lon": 9.2149, "lat": 4.0242}}, {"id": 2229673, "name": "La\u00efnd\u00e9", "state": "", "country": "CM", "coord": {"lon": 13.41667, "lat": 9.33333}}, {"id": 2229681, "name": "Lagdo", "state": "", "country": "CM", "coord": {"lon": 13.73333, "lat": 9.05}}, {"id": 2229748, "name": "Kumbo", "state": "", "country": "CM", "coord": {"lon": 10.66667, "lat": 6.2}}, {"id": 2229752, "name": "Kumba", "state": "", "country": "CM", "coord": {"lon": 9.4469, "lat": 4.6363}}, {"id": 2229761, "name": "Kribi", "state": "", "country": "CM", "coord": {"lon": 9.91667, "lat": 2.95}}, {"id": 2229780, "name": "Koza", "state": "", "country": "CM", "coord": {"lon": 13.87855, "lat": 10.87079}}, {"id": 2229798, "name": "Kouss\u00e9ri", "state": "", "country": "CM", "coord": {"lon": 15.03063, "lat": 12.07689}}, {"id": 2230028, "name": "Kontcha", "state": "", "country": "CM", "coord": {"lon": 12.23333, "lat": 7.96667}}, {"id": 2230285, "name": "Bankim", "state": "", "country": "CM", "coord": {"lon": 11.4905, "lat": 6.08303}}, {"id": 2230362, "name": "K\u00e9lkoto", "state": "", "country": "CM", "coord": {"lon": 11.16667, "lat": 4.43333}}, {"id": 2230599, "name": "Ka\u00e9l\u00e9", "state": "", "country": "CM", "coord": {"lon": 14.45083, "lat": 10.10917}}, {"id": 2230600, "name": "Kael\u00e9", "state": "", "country": "CM", "coord": {"lon": 14.44651, "lat": 10.10672}}, {"id": 2230641, "name": "Jakiri", "state": "", "country": "CM", "coord": {"lon": 10.65, "lat": 6.1}}, {"id": 2230876, "name": "Guider", "state": "", "country": "CM", "coord": {"lon": 13.94861, "lat": 9.93417}}, {"id": 2231319, "name": "Garoua Boula\u00ef", "state": "", "country": "CM", "coord": {"lon": 14.55, "lat": 5.88333}}, {"id": 2231320, "name": "Garoua", "state": "", "country": "CM", "coord": {"lon": 13.4, "lat": 9.3}}, {"id": 2231326, "name": "Garga Sarali", "state": "", "country": "CM", "coord": {"lon": 14.05, "lat": 5.33333}}, {"id": 2231482, "name": "Fundong", "state": "", "country": "CM", "coord": {"lon": 10.26667, "lat": 6.25}}, {"id": 2231494, "name": "Fouy", "state": "", "country": "CM", "coord": {"lon": 12.21667, "lat": 5.31667}}, {"id": 2231504, "name": "Foumbot", "state": "", "country": "CM", "coord": {"lon": 10.6356, "lat": 5.50787}}, {"id": 2231506, "name": "Foumban", "state": "", "country": "CM", "coord": {"lon": 10.90011, "lat": 5.7291}}, {"id": 2231538, "name": "Foto", "state": "", "country": "CM", "coord": {"lon": 10.06226, "lat": 5.45878}}, {"id": 2231564, "name": "Fontem", "state": "", "country": "CM", "coord": {"lon": 9.8818, "lat": 5.4685}}, {"id": 2231565, "name": "Fontain", "state": "", "country": "CM", "coord": {"lon": 10.91667, "lat": 5.73333}}, {"id": 2231755, "name": "Far North Region", "state": "", "country": "CM", "coord": {"lon": 14.5, "lat": 11.0}}, {"id": 2231775, "name": "\u00c9vodoula", "state": "", "country": "CM", "coord": {"lon": 11.2, "lat": 4.08333}}, {"id": 2231835, "name": "East Region", "state": "", "country": "CM", "coord": {"lon": 14.0, "lat": 4.0}}, {"id": 2231851, "name": "Ess\u00e9", "state": "", "country": "CM", "coord": {"lon": 11.9, "lat": 4.1}}, {"id": 2231881, "name": "Es\u00e9ka", "state": "", "country": "CM", "coord": {"lon": 10.76667, "lat": 3.65}}, {"id": 2231926, "name": "Enongal", "state": "", "country": "CM", "coord": {"lon": 11.18333, "lat": 2.88333}}, {"id": 2232239, "name": "Ed\u00e9a", "state": "", "country": "CM", "coord": {"lon": 10.13333, "lat": 3.8}}, {"id": 2232283, "name": "\u00c9bolowa", "state": "", "country": "CM", "coord": {"lon": 11.15, "lat": 2.9}}, {"id": 2232444, "name": "Dschang", "state": "", "country": "CM", "coord": {"lon": 10.055, "lat": 5.44559}}, {"id": 2232486, "name": "Doumomama", "state": "", "country": "CM", "coord": {"lon": 13.11667, "lat": 3.58333}}, {"id": 2232497, "name": "Doum\u00e9", "state": "", "country": "CM", "coord": {"lon": 13.45, "lat": 4.23333}}, {"id": 2232593, "name": "Douala", "state": "", "country": "CM", "coord": {"lon": 9.70428, "lat": 4.04827}}, {"id": 2232652, "name": "Domb\u00e9", "state": "", "country": "CM", "coord": {"lon": 9.91667, "lat": 2.95}}, {"id": 2232774, "name": "Djohong", "state": "", "country": "CM", "coord": {"lon": 14.7, "lat": 6.83333}}, {"id": 2232997, "name": "Dizangu\u00e9", "state": "", "country": "CM", "coord": {"lon": 9.98333, "lat": 3.76667}}, {"id": 2233056, "name": "Dimako", "state": "", "country": "CM", "coord": {"lon": 13.56667, "lat": 4.38333}}, {"id": 2233100, "name": "Dibombari", "state": "", "country": "CM", "coord": {"lon": 9.6561, "lat": 4.1787}}, {"id": 2233118, "name": "Diang", "state": "", "country": "CM", "coord": {"lon": 10.01667, "lat": 4.25}}, {"id": 2233238, "name": "Dankali", "state": "", "country": "CM", "coord": {"lon": 14.25, "lat": 6.4}}, {"id": 2233252, "name": "Dang", "state": "", "country": "CM", "coord": {"lon": 11.23333, "lat": 4.75}}, {"id": 2233376, "name": "Centre Region", "state": "", "country": "CM", "coord": {"lon": 12.0, "lat": 4.75}}, {"id": 2233387, "name": "Republic of Cameroon", "state": "", "country": "CM", "coord": {"lon": 12.0, "lat": 6.0}}, {"id": 2233410, "name": "Buea", "state": "", "country": "CM", "coord": {"lon": 9.241, "lat": 4.1527}}, {"id": 2233704, "name": "Bonab\u00e9ri", "state": "", "country": "CM", "coord": {"lon": 9.6759, "lat": 4.0779}}, {"id": 2233805, "name": "Bogo", "state": "", "country": "CM", "coord": {"lon": 14.60928, "lat": 10.7336}}, {"id": 2234339, "name": "B\u00e9tar\u00e9 Oya", "state": "", "country": "CM", "coord": {"lon": 14.08333, "lat": 5.6}}, {"id": 2234353, "name": "Besongabang", "state": "", "country": "CM", "coord": {"lon": 9.29875, "lat": 5.70735}}, {"id": 2234359, "name": "Bertoua", "state": "", "country": "CM", "coord": {"lon": 13.68333, "lat": 4.58333}}, {"id": 2234455, "name": "Belo", "state": "", "country": "CM", "coord": {"lon": 10.25, "lat": 6.13333}}, {"id": 2234520, "name": "B\u00e9lel", "state": "", "country": "CM", "coord": {"lon": 14.43333, "lat": 7.05}}, {"id": 2234536, "name": "B\u00e9labo", "state": "", "country": "CM", "coord": {"lon": 13.3, "lat": 4.93333}}, {"id": 2234545, "name": "Bekondo", "state": "", "country": "CM", "coord": {"lon": 9.3214, "lat": 4.6819}}, {"id": 2234635, "name": "Bazou", "state": "", "country": "CM", "coord": {"lon": 10.46978, "lat": 5.05695}}, {"id": 2234663, "name": "Batouri", "state": "", "country": "CM", "coord": {"lon": 14.36667, "lat": 4.43333}}, {"id": 2234684, "name": "Batibo", "state": "", "country": "CM", "coord": {"lon": 9.8553, "lat": 5.8358}}, {"id": 2234794, "name": "Banyo", "state": "", "country": "CM", "coord": {"lon": 11.81667, "lat": 6.75}}, {"id": 2234803, "name": "Bansoa", "state": "", "country": "CM", "coord": {"lon": 10.31514, "lat": 5.44718}}, {"id": 2234842, "name": "Ngou", "state": "", "country": "CM", "coord": {"lon": 10.38441, "lat": 5.1959}}, {"id": 2234865, "name": "Bangangt\u00e9", "state": "", "country": "CM", "coord": {"lon": 10.51975, "lat": 5.14091}}, {"id": 2234904, "name": "Bandjoun", "state": "", "country": "CM", "coord": {"lon": 10.41816, "lat": 5.37878}}, {"id": 2234936, "name": "Bana", "state": "", "country": "CM", "coord": {"lon": 10.2762, "lat": 5.1481}}, {"id": 2234941, "name": "Bamusso", "state": "", "country": "CM", "coord": {"lon": 8.9027, "lat": 4.4591}}, {"id": 2234968, "name": "Bamendjou", "state": "", "country": "CM", "coord": {"lon": 10.33161, "lat": 5.38875}}, {"id": 2234974, "name": "Bamenda", "state": "", "country": "CM", "coord": {"lon": 10.15824, "lat": 5.95266}}, {"id": 2235029, "name": "Bali", "state": "", "country": "CM", "coord": {"lon": 10.01248, "lat": 5.88724}}, {"id": 2235186, "name": "Bafut", "state": "", "country": "CM", "coord": {"lon": 10.1, "lat": 6.08333}}, {"id": 2235189, "name": "Bafoussam", "state": "", "country": "CM", "coord": {"lon": 10.41786, "lat": 5.47366}}, {"id": 2235194, "name": "Bafia", "state": "", "country": "CM", "coord": {"lon": 11.23333, "lat": 4.75}}, {"id": 2235196, "name": "Bafang", "state": "", "country": "CM", "coord": {"lon": 10.17882, "lat": 5.15625}}, {"id": 2235293, "name": "Babanki", "state": "", "country": "CM", "coord": {"lon": 10.25, "lat": 6.11667}}, {"id": 2235409, "name": "Atog-Boga", "state": "", "country": "CM", "coord": {"lon": 10.51667, "lat": 3.33333}}, {"id": 2235660, "name": "Ambam", "state": "", "country": "CM", "coord": {"lon": 11.28333, "lat": 2.38333}}, {"id": 2235669, "name": "Am\u00e0n", "state": "", "country": "CM", "coord": {"lon": 12.33333, "lat": 6.36667}}, {"id": 2235748, "name": "Akwa", "state": "", "country": "CM", "coord": {"lon": 9.7, "lat": 4.05}}, {"id": 2235776, "name": "Akonolinga", "state": "", "country": "CM", "coord": {"lon": 12.25, "lat": 3.76667}}, {"id": 2235780, "name": "Akono", "state": "", "country": "CM", "coord": {"lon": 11.33333, "lat": 3.5}}, {"id": 2235814, "name": "Akom II", "state": "", "country": "CM", "coord": {"lon": 10.56667, "lat": 2.78333}}, {"id": 2236015, "name": "Adamaoua Region", "state": "", "country": "CM", "coord": {"lon": 13.5, "lat": 6.5}}, {"id": 2236053, "name": "Abong Mbang", "state": "", "country": "CM", "coord": {"lon": 13.18333, "lat": 3.98333}}, {"id": 2236355, "name": "Zaire", "state": "", "country": "AO", "coord": {"lon": 13.51966, "lat": -6.58717}}, {"id": 2236566, "name": "Prov\u00edncia do U\u00edge", "state": "", "country": "AO", "coord": {"lon": 15.44056, "lat": -7.10719}}, {"id": 2236568, "name": "U\u00edge", "state": "", "country": "AO", "coord": {"lon": 15.06131, "lat": -7.60874}}, {"id": 2236967, "name": "Soio", "state": "", "country": "AO", "coord": {"lon": 12.36894, "lat": -6.1349}}, {"id": 2238852, "name": "Povo Grande", "state": "", "country": "AO", "coord": {"lon": 12.2, "lat": -5.6}}, {"id": 2239001, "name": "N'zeto", "state": "", "country": "AO", "coord": {"lon": 12.8666, "lat": -7.23116}}, {"id": 2239076, "name": "N\u2019dalatando", "state": "", "country": "AO", "coord": {"lon": 14.91162, "lat": -9.29782}}, {"id": 2239520, "name": "Mbanza Kongo", "state": "", "country": "AO", "coord": {"lon": 14.2401, "lat": -6.26703}}, {"id": 2239858, "name": "Malanje Province", "state": "", "country": "AO", "coord": {"lon": 16.825529, "lat": -9.67548}}, {"id": 2239861, "name": "Malanje", "state": "", "country": "AO", "coord": {"lon": 14.92634, "lat": -9.96361}}, {"id": 2239862, "name": "Malanje", "state": "", "country": "AO", "coord": {"lon": 16.34096, "lat": -9.54015}}, {"id": 2240354, "name": "Lucola", "state": "", "country": "AO", "coord": {"lon": 12.25, "lat": -5.53333}}, {"id": 2240444, "name": "Luanda Province", "state": "", "country": "AO", "coord": {"lon": 13.33924, "lat": -8.91666}}, {"id": 2240449, "name": "Luanda", "state": "", "country": "AO", "coord": {"lon": 13.23432, "lat": -8.83682}}, {"id": 2241660, "name": "Cuanza Norte Province", "state": "", "country": "AO", "coord": {"lon": 14.8887, "lat": -8.91136}}, {"id": 2242001, "name": "Caxito", "state": "", "country": "AO", "coord": {"lon": 13.66425, "lat": -8.57848}}, {"id": 2242885, "name": "Camabatela", "state": "", "country": "AO", "coord": {"lon": 15.37495, "lat": -8.18812}}, {"id": 2243266, "name": "Cabinda", "state": "", "country": "AO", "coord": {"lon": 12.40532, "lat": -4.93423}}, {"id": 2243271, "name": "Cabinda", "state": "", "country": "AO", "coord": {"lon": 12.2, "lat": -5.55}}, {"id": 2243598, "name": "Bengo Province", "state": "", "country": "AO", "coord": {"lon": 13.82743, "lat": -8.97504}}, {"id": 2243939, "name": "Ziguinchor", "state": "", "country": "SN", "coord": {"lon": -16.33333, "lat": 12.75}}, {"id": 2243940, "name": "Ziguinchor", "state": "", "country": "SN", "coord": {"lon": -16.27194, "lat": 12.58333}}, {"id": 2243973, "name": "Yoff", "state": "", "country": "SN", "coord": {"lon": -17.47389, "lat": 14.76056}}, {"id": 2244122, "name": "V\u00e8ndou S\u00e9no", "state": "", "country": "SN", "coord": {"lon": -15.0865, "lat": 15.2707}}, {"id": 2244177, "name": "V\u00e9lingara", "state": "", "country": "SN", "coord": {"lon": -14.11667, "lat": 13.15}}, {"id": 2244221, "name": "Tour\u00e9", "state": "", "country": "SN", "coord": {"lon": -16.066669, "lat": 14.51667}}, {"id": 2244322, "name": "Touba", "state": "", "country": "SN", "coord": {"lon": -15.88333, "lat": 14.85}}, {"id": 2244436, "name": "Tionk Essil", "state": "", "country": "SN", "coord": {"lon": -16.521669, "lat": 12.78556}}, {"id": 2244460, "name": "Tiofak", "state": "", "country": "SN", "coord": {"lon": -16.049999, "lat": 14.16667}}, {"id": 2244616, "name": "Ti\u00e9bo", "state": "", "country": "SN", "coord": {"lon": -16.23333, "lat": 14.63333}}, {"id": 2244786, "name": "Tiadiaye", "state": "", "country": "SN", "coord": {"lon": -16.700001, "lat": 14.41667}}, {"id": 2244799, "name": "Thi\u00e8s Nones", "state": "", "country": "SN", "coord": {"lon": -16.966669, "lat": 14.78333}}, {"id": 2244800, "name": "R\u00e9gion de Thi\u00e8s", "state": "", "country": "SN", "coord": {"lon": -16.851959, "lat": 14.87284}}, {"id": 2244802, "name": "Thi\u00e8s", "state": "", "country": "SN", "coord": {"lon": -17.10611, "lat": 14.83417}}, {"id": 2244987, "name": "Tamba I", "state": "", "country": "SN", "coord": {"lon": -13.66667, "lat": 13.73333}}, {"id": 2244990, "name": "Tambacounda", "state": "", "country": "SN", "coord": {"lon": -13.27513, "lat": 13.98416}}, {"id": 2244991, "name": "Tambacounda", "state": "", "country": "SN", "coord": {"lon": -13.75861, "lat": 13.75389}}, {"id": 2245170, "name": "Souima", "state": "", "country": "SN", "coord": {"lon": -14.96571, "lat": 16.66}}, {"id": 2245222, "name": "Somone", "state": "", "country": "SN", "coord": {"lon": -17.078609, "lat": 14.48611}}, {"id": 2245241, "name": "Sokone", "state": "", "country": "SN", "coord": {"lon": -16.366671, "lat": 13.88333}}, {"id": 2245546, "name": "Simenti", "state": "", "country": "SN", "coord": {"lon": -13.3, "lat": 13.03333}}, {"id": 2245662, "name": "Republic of Senegal", "state": "", "country": "SN", "coord": {"lon": -14.0, "lat": 14.0}}, {"id": 2245666, "name": "S\u00e9m\u00e9", "state": "", "country": "SN", "coord": {"lon": -12.94482, "lat": 15.19422}}, {"id": 2245704, "name": "S\u00e9dhiou", "state": "", "country": "SN", "coord": {"lon": -15.55694, "lat": 12.70806}}, {"id": 2245709, "name": "S\u00e9bikhotane", "state": "", "country": "SN", "coord": {"lon": -17.136669, "lat": 14.74694}}, {"id": 2246451, "name": "Saint-Louis", "state": "", "country": "SN", "coord": {"lon": -15.0, "lat": 16.33333}}, {"id": 2246452, "name": "Saint-Louis", "state": "", "country": "SN", "coord": {"lon": -16.48962, "lat": 16.017929}}, {"id": 2246522, "name": "Rosso", "state": "", "country": "SN", "coord": {"lon": -15.81528, "lat": 16.49861}}, {"id": 2246544, "name": "Richard-Toll", "state": "", "country": "SN", "coord": {"lon": -15.70083, "lat": 16.4625}}, {"id": 2246550, "name": "Rhouma", "state": "", "country": "SN", "coord": {"lon": -15.68194, "lat": 16.462219}}, {"id": 2246585, "name": "Ran\u00e9rou", "state": "", "country": "SN", "coord": {"lon": -13.96667, "lat": 15.3}}, {"id": 2246606, "name": "Pout", "state": "", "country": "SN", "coord": {"lon": -17.06028, "lat": 14.77389}}, {"id": 2246608, "name": "Pourham", "state": "", "country": "SN", "coord": {"lon": -16.41667, "lat": 14.35}}, {"id": 2246641, "name": "Polel Diaoub\u00e9", "state": "", "country": "SN", "coord": {"lon": -13.0, "lat": 15.26667}}, {"id": 2246678, "name": "Pikine", "state": "", "country": "SN", "coord": {"lon": -17.4, "lat": 14.75}}, {"id": 2246780, "name": "Passi", "state": "", "country": "SN", "coord": {"lon": -16.26667, "lat": 13.98333}}, {"id": 2246789, "name": "Pargui", "state": "", "country": "SN", "coord": {"lon": -16.133329, "lat": 14.4}}, {"id": 2246901, "name": "Oussouye", "state": "", "country": "SN", "coord": {"lon": -16.54694, "lat": 12.485}}, {"id": 2246922, "name": "Ouro Sogui", "state": "", "country": "SN", "coord": {"lon": -13.31667, "lat": 15.6}}, {"id": 2247044, "name": "Waound\u00e9", "state": "", "country": "SN", "coord": {"lon": -12.86821, "lat": 15.26367}}, {"id": 2247157, "name": "Nioro du Rip", "state": "", "country": "SN", "coord": {"lon": -15.8, "lat": 13.75}}, {"id": 2247246, "name": "Nianing", "state": "", "country": "SN", "coord": {"lon": -16.92676, "lat": 14.34485}}, {"id": 2247381, "name": "Ngu\u00e9khokh", "state": "", "country": "SN", "coord": {"lon": -17.004999, "lat": 14.51278}}, {"id": 2247660, "name": "Ndofane", "state": "", "country": "SN", "coord": {"lon": -15.93333, "lat": 13.91667}}, {"id": 2247684, "name": "Ndioum", "state": "", "country": "SN", "coord": {"lon": -14.64706, "lat": 16.51293}}, {"id": 2247813, "name": "Ndib\u00e8ne Dahra", "state": "", "country": "SN", "coord": {"lon": -15.4766, "lat": 15.3338}}, {"id": 2248409, "name": "M\u00e9kh\u00e9", "state": "", "country": "SN", "coord": {"lon": -16.621799, "lat": 15.1097}}, {"id": 2248477, "name": "Mbour", "state": "", "country": "SN", "coord": {"lon": -16.963751, "lat": 14.42196}}, {"id": 2248698, "name": "Mbak\u00e9", "state": "", "country": "SN", "coord": {"lon": -15.90803, "lat": 14.79032}}, {"id": 2248752, "name": "Matam", "state": "", "country": "SN", "coord": {"lon": -13.33028, "lat": 15.6175}}, {"id": 2248753, "name": "Matam", "state": "", "country": "SN", "coord": {"lon": -13.5, "lat": 15.5}}, {"id": 2248777, "name": "Marsassoum", "state": "", "country": "SN", "coord": {"lon": -15.98056, "lat": 12.8275}}, {"id": 2249221, "name": "Louga", "state": "", "country": "SN", "coord": {"lon": -15.47192, "lat": 15.44748}}, {"id": 2249222, "name": "Louga", "state": "", "country": "SN", "coord": {"lon": -16.22436, "lat": 15.61867}}, {"id": 2249281, "name": "Lingu\u00e8re", "state": "", "country": "SN", "coord": {"lon": -15.1193, "lat": 15.3953}}, {"id": 2249554, "name": "Koungheul", "state": "", "country": "SN", "coord": {"lon": -14.8, "lat": 13.98333}}, {"id": 2249781, "name": "Kolda", "state": "", "country": "SN", "coord": {"lon": -14.39729, "lat": 12.98376}}, {"id": 2249782, "name": "Kolda", "state": "", "country": "SN", "coord": {"lon": -14.95, "lat": 12.88333}}, {"id": 2249901, "name": "Khombole", "state": "", "country": "SN", "coord": {"lon": -16.700001, "lat": 14.76667}}, {"id": 2250139, "name": "Keur Mor Ibra", "state": "", "country": "SN", "coord": {"lon": -15.42222, "lat": 16.3375}}, {"id": 2250338, "name": "Keur Issa Bambara", "state": "", "country": "SN", "coord": {"lon": -16.9, "lat": 14.8}}, {"id": 2250645, "name": "K\u00e9dougou", "state": "", "country": "SN", "coord": {"lon": -12.1743, "lat": 12.5579}}, {"id": 2250677, "name": "Kayar", "state": "", "country": "SN", "coord": {"lon": -17.121111, "lat": 14.91917}}, {"id": 2250804, "name": "Kaolack", "state": "", "country": "SN", "coord": {"lon": -15.97977, "lat": 13.92239}}, {"id": 2250805, "name": "Kaolack", "state": "", "country": "SN", "coord": {"lon": -16.25333, "lat": 14.1825}}, {"id": 2250849, "name": "Kanel", "state": "", "country": "SN", "coord": {"lon": -13.17627, "lat": 15.4916}}, {"id": 2250982, "name": "Kahone", "state": "", "country": "SN", "coord": {"lon": -16.033331, "lat": 14.15}}, {"id": 2251007, "name": "Kaffrine", "state": "", "country": "SN", "coord": {"lon": -15.5508, "lat": 14.10594}}, {"id": 2251055, "name": "Kabrousse", "state": "", "country": "SN", "coord": {"lon": -16.72056, "lat": 12.35556}}, {"id": 2251084, "name": "Joal-Fadiout", "state": "", "country": "SN", "coord": {"lon": -16.83333, "lat": 14.16667}}, {"id": 2251230, "name": "Guinguin\u00e9o", "state": "", "country": "SN", "coord": {"lon": -15.95, "lat": 14.26667}}, {"id": 2251339, "name": "Grand Dakar", "state": "", "country": "SN", "coord": {"lon": -17.45528, "lat": 14.70889}}, {"id": 2251354, "name": "Gouye Gal", "state": "", "country": "SN", "coord": {"lon": -16.35, "lat": 15.48333}}, {"id": 2251544, "name": "Gol\u00e9r\u00e9", "state": "", "country": "SN", "coord": {"lon": -14.10165, "lat": 16.255739}}, {"id": 2251688, "name": "Gandiaye", "state": "", "country": "SN", "coord": {"lon": -16.26667, "lat": 14.23333}}, {"id": 2251791, "name": "Foundiougne", "state": "", "country": "SN", "coord": {"lon": -16.466669, "lat": 14.13333}}, {"id": 2251910, "name": "Fatick", "state": "", "country": "SN", "coord": {"lon": -16.401751, "lat": 14.38643}}, {"id": 2251911, "name": "Fatick", "state": "", "country": "SN", "coord": {"lon": -16.585831, "lat": 14.35806}}, {"id": 2252081, "name": "Fadiga", "state": "", "country": "SN", "coord": {"lon": -12.2039, "lat": 12.5535}}, {"id": 2252263, "name": "Djidje Kounda", "state": "", "country": "SN", "coord": {"lon": -13.66667, "lat": 13.75}}, {"id": 2252308, "name": "Diourbel", "state": "", "country": "SN", "coord": {"lon": -16.186819, "lat": 14.76877}}, {"id": 2252309, "name": "Diourbel", "state": "", "country": "SN", "coord": {"lon": -16.3925, "lat": 14.66278}}, {"id": 2252473, "name": "Diofior", "state": "", "country": "SN", "coord": {"lon": -16.66667, "lat": 14.18333}}, {"id": 2252606, "name": "Diawara", "state": "", "country": "SN", "coord": {"lon": -12.54374, "lat": 15.02196}}, {"id": 2252639, "name": "Diassi", "state": "", "country": "SN", "coord": {"lon": -16.283331, "lat": 12.56667}}, {"id": 2253277, "name": "Dara", "state": "", "country": "SN", "coord": {"lon": -15.47993, "lat": 15.34844}}, {"id": 2253301, "name": "Dangol", "state": "", "country": "SN", "coord": {"lon": -16.26667, "lat": 14.66667}}, {"id": 2253348, "name": "Dakar Dodj", "state": "", "country": "SN", "coord": {"lon": -16.73333, "lat": 14.93333}}, {"id": 2253349, "name": "Dakar-Bango", "state": "", "country": "SN", "coord": {"lon": -16.460699, "lat": 16.06105}}, {"id": 2253350, "name": "Dakar", "state": "", "country": "SN", "coord": {"lon": -17.33333, "lat": 14.75}}, {"id": 2253354, "name": "Dakar", "state": "", "country": "SN", "coord": {"lon": -17.444059, "lat": 14.6937}}, {"id": 2253607, "name": "Boukot Ouolof", "state": "", "country": "SN", "coord": {"lon": -16.750561, "lat": 12.41639}}, {"id": 2253901, "name": "Bignona", "state": "", "country": "SN", "coord": {"lon": -16.226391, "lat": 12.81028}}, {"id": 2255148, "name": "Tchimbanmba", "state": "", "country": "CG", "coord": {"lon": 11.87611, "lat": -4.82306}}, {"id": 2255244, "name": "Souank\u00e9", "state": "", "country": "CG", "coord": {"lon": 14.13333, "lat": 2.08333}}, {"id": 2255285, "name": "Sibiti", "state": "", "country": "CG", "coord": {"lon": 13.34985, "lat": -3.68192}}, {"id": 2255304, "name": "S\u00e9mb\u00e9", "state": "", "country": "CG", "coord": {"lon": 14.58056, "lat": 1.64806}}, {"id": 2255329, "name": "Sangha", "state": "", "country": "CG", "coord": {"lon": 15.5, "lat": 1.33333}}, {"id": 2255404, "name": "Pool", "state": "", "country": "CG", "coord": {"lon": 15.0, "lat": -3.5}}, {"id": 2255414, "name": "Pointe-Noire", "state": "", "country": "CG", "coord": {"lon": 11.86352, "lat": -4.77609}}, {"id": 2255422, "name": "Plateaux", "state": "", "country": "CG", "coord": {"lon": 15.5, "lat": -2.0}}, {"id": 2255542, "name": "Owando", "state": "", "country": "CG", "coord": {"lon": 15.89988, "lat": -0.48193}}, {"id": 2255564, "name": "Ou\u00e9sso", "state": "", "country": "CG", "coord": {"lon": 16.05167, "lat": 1.61361}}, {"id": 2256175, "name": "R\u00e9gion du Niari", "state": "", "country": "CG", "coord": {"lon": 12.5, "lat": -3.0}}, {"id": 2256895, "name": "Mossendjo", "state": "", "country": "CG", "coord": {"lon": 12.72611, "lat": -2.95056}}, {"id": 2257879, "name": "Makoua", "state": "", "country": "CG", "coord": {"lon": 15.63333, "lat": 0.00694}}, {"id": 2257925, "name": "Makabana", "state": "", "country": "CG", "coord": {"lon": 12.60556, "lat": -3.46333}}, {"id": 2257990, "name": "Madingou", "state": "", "country": "CG", "coord": {"lon": 13.55, "lat": -4.15361}}, {"id": 2258261, "name": "Dolisie", "state": "", "country": "CG", "coord": {"lon": 12.67389, "lat": -4.19972}}, {"id": 2258314, "name": "Losange", "state": "", "country": "CG", "coord": {"lon": 11.84194, "lat": -4.80028}}, {"id": 2258378, "name": "Loandjili", "state": "", "country": "CG", "coord": {"lon": 11.85778, "lat": -4.75611}}, {"id": 2258431, "name": "Likouala", "state": "", "country": "CG", "coord": {"lon": 17.5, "lat": 2.0}}, {"id": 2258534, "name": "L\u00e9koumou", "state": "", "country": "CG", "coord": {"lon": 13.5, "lat": -3.0}}, {"id": 2258738, "name": "R\u00e9gion du Kouilou", "state": "", "country": "CG", "coord": {"lon": 12.0, "lat": -4.0}}, {"id": 2258984, "name": "Kinkala", "state": "", "country": "CG", "coord": {"lon": 14.76444, "lat": -4.36139}}, {"id": 2259105, "name": "Kimpongi", "state": "", "country": "CG", "coord": {"lon": 13.98139, "lat": -4.01139}}, {"id": 2259383, "name": "Kayes", "state": "", "country": "CG", "coord": {"lon": 13.29278, "lat": -4.16556}}, {"id": 2259655, "name": "Impfondo", "state": "", "country": "CG", "coord": {"lon": 18.066669, "lat": 1.63806}}, {"id": 2259918, "name": "Gangania", "state": "", "country": "CG", "coord": {"lon": 18.05028, "lat": 1.59139}}, {"id": 2259947, "name": "Gamboma", "state": "", "country": "CG", "coord": {"lon": 15.86444, "lat": -1.87639}}, {"id": 2260009, "name": "Ewo", "state": "", "country": "CG", "coord": {"lon": 14.82056, "lat": -0.8725}}, {"id": 2260401, "name": "Djambala", "state": "", "country": "CG", "coord": {"lon": 14.75333, "lat": -2.54472}}, {"id": 2260487, "name": "Cuvette", "state": "", "country": "CG", "coord": {"lon": 16.0, "lat": -0.5}}, {"id": 2260494, "name": "Republic of the Congo", "state": "", "country": "CG", "coord": {"lon": 15.0, "lat": -1.0}}, {"id": 2260535, "name": "Brazzaville", "state": "", "country": "CG", "coord": {"lon": 15.28318, "lat": -4.26583}}, {"id": 2260668, "name": "R\u00e9gion de la Bouenza", "state": "", "country": "CG", "coord": {"lon": 14.0, "lat": -4.0}}, {"id": 2261446, "name": "Zibreira", "state": "", "country": "PT", "coord": {"lon": -7.06677, "lat": 39.845001}}, {"id": 2261447, "name": "Zibreira", "state": "", "country": "PT", "coord": {"lon": -8.60994, "lat": 39.482571}}, {"id": 2261577, "name": "Vila Vi\u00e7osa", "state": "", "country": "PT", "coord": {"lon": -7.41793, "lat": 38.777699}}, {"id": 2261582, "name": "Vila Verde", "state": "", "country": "PT", "coord": {"lon": -9.11512, "lat": 39.154888}}, {"id": 2261587, "name": "Vil\u00e3s", "state": "", "country": "PT", "coord": {"lon": -9.3316, "lat": 38.929722}}, {"id": 2261598, "name": "Vila Real de Santo Ant\u00f3nio", "state": "", "country": "PT", "coord": {"lon": -7.41766, "lat": 37.195}}, {"id": 2261617, "name": "Vila Nova de Milfontes", "state": "", "country": "PT", "coord": {"lon": -8.78278, "lat": 37.72377}}, {"id": 2261618, "name": "Vila Nova de Babeca", "state": "", "country": "PT", "coord": {"lon": -8.77816, "lat": 39.269131}}, {"id": 2261621, "name": "Vila Nova da Baronia", "state": "", "country": "PT", "coord": {"lon": -8.03787, "lat": 38.288689}}, {"id": 2261630, "name": "Vila Nova", "state": "", "country": "PT", "coord": {"lon": -9.1416, "lat": 38.91983}}, {"id": 2261633, "name": "Vila Nogueira de Azeit\u00e3o", "state": "", "country": "PT", "coord": {"lon": -9.01667, "lat": 38.51667}}, {"id": 2261636, "name": "Vila Fria", "state": "", "country": "PT", "coord": {"lon": -9.3, "lat": 38.716671}}, {"id": 2261638, "name": "Vila Franca do Ros\u00e1rio", "state": "", "country": "PT", "coord": {"lon": -9.25508, "lat": 38.974152}}, {"id": 2261639, "name": "Vila Franca de Xira", "state": "", "country": "PT", "coord": {"lon": -8.98966, "lat": 38.95525}}, {"id": 2261651, "name": "Vila de Porto Santo", "state": "", "country": "PT", "coord": {"lon": -16.33333, "lat": 33.049999}}, {"id": 2261652, "name": "Vila de Frades", "state": "", "country": "PT", "coord": {"lon": -7.82338, "lat": 38.213902}}, {"id": 2261654, "name": "Vila Ch\u00e3 de Ourique", "state": "", "country": "PT", "coord": {"lon": -8.76658, "lat": 39.172192}}, {"id": 2261657, "name": "Vila Boim", "state": "", "country": "PT", "coord": {"lon": -7.27565, "lat": 38.861561}}, {"id": 2261660, "name": "Vila Alva", "state": "", "country": "PT", "coord": {"lon": -7.9, "lat": 38.25}}, {"id": 2261673, "name": "Vieira de Leiria", "state": "", "country": "PT", "coord": {"lon": -8.93238, "lat": 39.86945}}, {"id": 2261687, "name": "Vidais", "state": "", "country": "PT", "coord": {"lon": -9.04916, "lat": 39.368858}}, {"id": 2261693, "name": "Via Rara", "state": "", "country": "PT", "coord": {"lon": -9.0839, "lat": 38.85107}}, {"id": 2261697, "name": "Vialonga", "state": "", "country": "PT", "coord": {"lon": -9.06823, "lat": 38.870941}}, {"id": 2261698, "name": "Vestiaria", "state": "", "country": "PT", "coord": {"lon": -8.9979, "lat": 39.552719}}, {"id": 2261708, "name": "Vermelha", "state": "", "country": "PT", "coord": {"lon": -9.10496, "lat": 39.269829}}, {"id": 2261732, "name": "Ventosa", "state": "", "country": "PT", "coord": {"lon": -9.08424, "lat": 39.126961}}, {"id": 2261740, "name": "Vendas Novas", "state": "", "country": "PT", "coord": {"lon": -8.45792, "lat": 38.677059}}, {"id": 2261760, "name": "Venda do Pinheiro", "state": "", "country": "PT", "coord": {"lon": -9.23178, "lat": 38.923649}}, {"id": 2261764, "name": "Venda de Cima", "state": "", "country": "PT", "coord": {"lon": -8.40307, "lat": 39.851639}}, {"id": 2261810, "name": "Vasco Car\u00e3o", "state": "", "country": "PT", "coord": {"lon": -8.8, "lat": 38.98333}}, {"id": 2261835, "name": "V\u00e1rzea", "state": "", "country": "PT", "coord": {"lon": -8.33333, "lat": 39.51667}}, {"id": 2261882, "name": "Valhascos", "state": "", "country": "PT", "coord": {"lon": -8.13666, "lat": 39.518841}}, {"id": 2261910, "name": "Vales", "state": "", "country": "PT", "coord": {"lon": -8.59107, "lat": 39.638031}}, {"id": 2261956, "name": "Valejas", "state": "", "country": "PT", "coord": {"lon": -9.26549, "lat": 38.735001}}, {"id": 2262029, "name": "Vale do Para\u00edso", "state": "", "country": "PT", "coord": {"lon": -8.88575, "lat": 39.115292}}, {"id": 2262092, "name": "Vale de Santar\u00e9m", "state": "", "country": "PT", "coord": {"lon": -8.72735, "lat": 39.190521}}, {"id": 2262160, "name": "Vale de Lobos", "state": "", "country": "PT", "coord": {"lon": -9.28543, "lat": 38.818871}}, {"id": 2262214, "name": "Vale de Cavalos", "state": "", "country": "PT", "coord": {"lon": -8.51977, "lat": 39.290581}}, {"id": 2262274, "name": "Vale da Ursa", "state": "", "country": "PT", "coord": {"lon": -8.28649, "lat": 37.112179}}, {"id": 2262322, "name": "Vale da Pinta", "state": "", "country": "PT", "coord": {"lon": -8.82652, "lat": 39.17115}}, {"id": 2262373, "name": "Vale da Amoreira", "state": "", "country": "PT", "coord": {"lon": -7.69849, "lat": 39.069691}}, {"id": 2262378, "name": "Vale Covo", "state": "", "country": "PT", "coord": {"lon": -9.17558, "lat": 39.25367}}, {"id": 2262389, "name": "Vale Canhestro", "state": "", "country": "PT", "coord": {"lon": -7.8306, "lat": 39.637299}}, {"id": 2262432, "name": "Valado de Frades", "state": "", "country": "PT", "coord": {"lon": -9.0229, "lat": 39.58432}}, {"id": 2262451, "name": "Usseira", "state": "", "country": "PT", "coord": {"lon": -9.15783, "lat": 39.331348}}, {"id": 2262461, "name": "Urra", "state": "", "country": "PT", "coord": {"lon": -7.39856, "lat": 39.228298}}, {"id": 2262462, "name": "Urqueira", "state": "", "country": "PT", "coord": {"lon": -8.59487, "lat": 39.728329}}, {"id": 2262465, "name": "Unhos", "state": "", "country": "PT", "coord": {"lon": -9.12231, "lat": 38.82589}}, {"id": 2262478, "name": "Turquel", "state": "", "country": "PT", "coord": {"lon": -8.97743, "lat": 39.464119}}, {"id": 2262479, "name": "Turcifal", "state": "", "country": "PT", "coord": {"lon": -9.26568, "lat": 39.041592}}, {"id": 2262481, "name": "Tunes", "state": "", "country": "PT", "coord": {"lon": -8.28554, "lat": 37.167599}}, {"id": 2262506, "name": "Trigaches", "state": "", "country": "PT", "coord": {"lon": -7.97196, "lat": 38.090641}}, {"id": 2262540, "name": "Tramagal", "state": "", "country": "PT", "coord": {"lon": -8.25, "lat": 39.450001}}, {"id": 2262541, "name": "Tramaga", "state": "", "country": "PT", "coord": {"lon": -8.03504, "lat": 39.22541}}, {"id": 2262544, "name": "Trafaria", "state": "", "country": "PT", "coord": {"lon": -9.23268, "lat": 38.672218}}, {"id": 2262581, "name": "Torres Vedras", "state": "", "country": "PT", "coord": {"lon": -9.2586, "lat": 39.091091}}, {"id": 2262582, "name": "Torres Novas", "state": "", "country": "PT", "coord": {"lon": -8.53949, "lat": 39.48114}}, {"id": 2262626, "name": "Torr\u00e3o", "state": "", "country": "PT", "coord": {"lon": -8.22661, "lat": 38.293041}}, {"id": 2262633, "name": "Tornada", "state": "", "country": "PT", "coord": {"lon": -9.12668, "lat": 39.445278}}, {"id": 2262644, "name": "Tomar", "state": "", "country": "PT", "coord": {"lon": -8.40924, "lat": 39.60199}}, {"id": 2262651, "name": "Tojeiras de Cima", "state": "", "country": "PT", "coord": {"lon": -8.23736, "lat": 39.279812}}, {"id": 2262664, "name": "Tojal", "state": "", "country": "PT", "coord": {"lon": -8.10554, "lat": 39.50132}}, {"id": 2262673, "name": "Tissoaria", "state": "", "country": "PT", "coord": {"lon": -8.52834, "lat": 39.86491}}, {"id": 2262687, "name": "Terrugem", "state": "", "country": "PT", "coord": {"lon": -9.28693, "lat": 38.70647}}, {"id": 2262688, "name": "Terroal", "state": "", "country": "PT", "coord": {"lon": -9.2357, "lat": 38.976131}}, {"id": 2262699, "name": "Tercena", "state": "", "country": "PT", "coord": {"lon": -9.28171, "lat": 38.745289}}, {"id": 2262724, "name": "Telhais", "state": "", "country": "PT", "coord": {"lon": -9.05, "lat": 39.316669}}, {"id": 2262725, "name": "Telhadouro", "state": "", "country": "PT", "coord": {"lon": -9.31994, "lat": 39.08519}}, {"id": 2262744, "name": "Tavira", "state": "", "country": "PT", "coord": {"lon": -7.64861, "lat": 37.127338}}, {"id": 2262815, "name": "Souto da Carpalhosa", "state": "", "country": "PT", "coord": {"lon": -8.82332, "lat": 39.845692}}, {"id": 2262861, "name": "Sobreira Formosa", "state": "", "country": "PT", "coord": {"lon": -7.85037, "lat": 39.772381}}, {"id": 2262865, "name": "Sobreda", "state": "", "country": "PT", "coord": {"lon": -9.18977, "lat": 38.649609}}, {"id": 2262867, "name": "Sobralinho", "state": "", "country": "PT", "coord": {"lon": -9.02656, "lat": 38.91703}}, {"id": 2262870, "name": "Sobral do Campo", "state": "", "country": "PT", "coord": {"lon": -7.56489, "lat": 39.998001}}, {"id": 2262871, "name": "Sobral de Monte Agra\u00e7o", "state": "", "country": "PT", "coord": {"lon": -9.15081, "lat": 39.019581}}, {"id": 2262900, "name": "Soalheira", "state": "", "country": "PT", "coord": {"lon": -8.46192, "lat": 39.719898}}, {"id": 2262912, "name": "Sintra", "state": "", "country": "PT", "coord": {"lon": -9.37826, "lat": 38.800968}}, {"id": 2262917, "name": "Sines", "state": "", "country": "PT", "coord": {"lon": -8.86979, "lat": 37.956219}}, {"id": 2262926, "name": "Silves", "state": "", "country": "PT", "coord": {"lon": -8.43822, "lat": 37.189209}}, {"id": 2262944, "name": "Silveira", "state": "", "country": "PT", "coord": {"lon": -9.3643, "lat": 39.111198}}, {"id": 2262956, "name": "Sibilheiro", "state": "", "country": "PT", "coord": {"lon": -9.28333, "lat": 39.0}}, {"id": 2262957, "name": "Sesimbra", "state": "", "country": "PT", "coord": {"lon": -9.10149, "lat": 38.444511}}, {"id": 2262961, "name": "Distrito de Set\u00fabal", "state": "", "country": "PT", "coord": {"lon": -8.5, "lat": 38.333328}}, {"id": 2262963, "name": "Set\u00fabal", "state": "", "country": "PT", "coord": {"lon": -8.8882, "lat": 38.524399}}, {"id": 2262987, "name": "Sert\u00e3", "state": "", "country": "PT", "coord": {"lon": -8.09883, "lat": 39.80846}}, {"id": 2263033, "name": "Serradas", "state": "", "country": "PT", "coord": {"lon": -9.33633, "lat": 38.76936}}, {"id": 2263049, "name": "Serpa", "state": "", "country": "PT", "coord": {"lon": -7.59754, "lat": 37.945808}}, {"id": 2263074, "name": "Senhora da Gra\u00e7a", "state": "", "country": "PT", "coord": {"lon": -9.01266, "lat": 39.1366}}, {"id": 2263087, "name": "Selmes", "state": "", "country": "PT", "coord": {"lon": -7.75919, "lat": 38.145302}}, {"id": 2263123, "name": "Segura", "state": "", "country": "PT", "coord": {"lon": -6.97889, "lat": 39.826382}}, {"id": 2263128, "name": "Seda", "state": "", "country": "PT", "coord": {"lon": -7.78536, "lat": 39.189159}}, {"id": 2263166, "name": "Sarilhos Pequenos", "state": "", "country": "PT", "coord": {"lon": -8.98231, "lat": 38.681759}}, {"id": 2263167, "name": "Sarilhos Grandes", "state": "", "country": "PT", "coord": {"lon": -8.96745, "lat": 38.679722}}, {"id": 2263189, "name": "Sapataria", "state": "", "country": "PT", "coord": {"lon": -9.19307, "lat": 38.96632}}, {"id": 2263197, "name": "S\u00e3o Vicente", "state": "", "country": "PT", "coord": {"lon": -17.04323, "lat": 32.79673}}, {"id": 2263207, "name": "S\u00e3o Teot\u00f3nio", "state": "", "country": "PT", "coord": {"lon": -8.70708, "lat": 37.512821}}, {"id": 2263217, "name": "S\u00e3o Sebasti\u00e3o", "state": "", "country": "PT", "coord": {"lon": -8.0, "lat": 39.150002}}, {"id": 2263220, "name": "S\u00e3o Sebasti\u00e3o", "state": "", "country": "PT", "coord": {"lon": -9.13333, "lat": 38.849998}}, {"id": 2263245, "name": "S\u00e3o Pedro da Cadeira", "state": "", "country": "PT", "coord": {"lon": -9.37174, "lat": 39.069832}}, {"id": 2263255, "name": "S\u00e3o Pedro", "state": "", "country": "PT", "coord": {"lon": -9.16667, "lat": 38.666672}}, {"id": 2263257, "name": "S\u00e3o Pedro", "state": "", "country": "PT", "coord": {"lon": -16.799999, "lat": 32.683331}}, {"id": 2263263, "name": "S\u00e3o Miguel de Machede", "state": "", "country": "PT", "coord": {"lon": -7.72966, "lat": 38.645012}}, {"id": 2263264, "name": "S\u00e3o Miguel", "state": "", "country": "PT", "coord": {"lon": -8.80816, "lat": 39.85014}}, {"id": 2263275, "name": "S\u00e3o Martinho do Porto", "state": "", "country": "PT", "coord": {"lon": -9.13112, "lat": 39.514439}}, {"id": 2263286, "name": "S\u00e3o Marcos da Serra", "state": "", "country": "PT", "coord": {"lon": -8.37764, "lat": 37.361}}, {"id": 2263292, "name": "S\u00e3o Man\u00e7os", "state": "", "country": "PT", "coord": {"lon": -7.75098, "lat": 38.458801}}, {"id": 2263310, "name": "S\u00e3o Juli\u00e3o da Barra", "state": "", "country": "PT", "coord": {"lon": -9.33333, "lat": 38.683331}}, {"id": 2263311, "name": "S\u00e3o Juli\u00e3o", "state": "", "country": "PT", "coord": {"lon": -7.31106, "lat": 39.322681}}, {"id": 2263322, "name": "S\u00e3o Jo\u00e3o dos Montes", "state": "", "country": "PT", "coord": {"lon": -9.01892, "lat": 38.939442}}, {"id": 2263324, "name": "S\u00e3o Jo\u00e3o de Negrilhos", "state": "", "country": "PT", "coord": {"lon": -8.18092, "lat": 37.946529}}, {"id": 2263326, "name": "S\u00e3o Jo\u00e3o da Talha", "state": "", "country": "PT", "coord": {"lon": -9.09079, "lat": 38.821831}}, {"id": 2263327, "name": "S\u00e3o Jo\u00e3o das Lampas", "state": "", "country": "PT", "coord": {"lon": -9.39842, "lat": 38.87376}}, {"id": 2263348, "name": "S\u00e3o Francisco da Serra", "state": "", "country": "PT", "coord": {"lon": -8.66204, "lat": 38.091728}}, {"id": 2263352, "name": "S\u00e3o Domingos de Rana", "state": "", "country": "PT", "coord": {"lon": -9.3276, "lat": 38.701229}}, {"id": 2263377, "name": "S\u00e3o Br\u00e1s de Alportel", "state": "", "country": "PT", "coord": {"lon": -7.88752, "lat": 37.153099}}, {"id": 2263393, "name": "S\u00e3o Bartolomeu de Messines", "state": "", "country": "PT", "coord": {"lon": -8.2867, "lat": 37.260239}}, {"id": 2263412, "name": "Santo Est\u00eav\u00e3o das Gal\u00e9s", "state": "", "country": "PT", "coord": {"lon": -9.25241, "lat": 38.896709}}, {"id": 2263415, "name": "Santo Est\u00eav\u00e3o", "state": "", "country": "PT", "coord": {"lon": -8.74491, "lat": 38.85994}}, {"id": 2263426, "name": "Santo Ant\u00f3nio da Charneca", "state": "", "country": "PT", "coord": {"lon": -9.03043, "lat": 38.62561}}, {"id": 2263434, "name": "Santo Ant\u00e3o do Tojal", "state": "", "country": "PT", "coord": {"lon": -9.13975, "lat": 38.851509}}, {"id": 2263438, "name": "Santo Andr\u00e9", "state": "", "country": "PT", "coord": {"lon": -8.24414, "lat": 39.055321}}, {"id": 2263439, "name": "Santo Andr\u00e9", "state": "", "country": "PT", "coord": {"lon": -8.75212, "lat": 38.05444}}, {"id": 2263444, "name": "Santo Amaro", "state": "", "country": "PT", "coord": {"lon": -7.58245, "lat": 38.969059}}, {"id": 2263458, "name": "Santiago do Cac\u00e9m", "state": "", "country": "PT", "coord": {"lon": -8.69475, "lat": 38.016941}}, {"id": 2263460, "name": "Santiago da Guarda", "state": "", "country": "PT", "coord": {"lon": -8.48064, "lat": 39.947899}}, {"id": 2263478, "name": "Distrito de Santar\u00e9m", "state": "", "country": "PT", "coord": {"lon": -8.58333, "lat": 39.25}}, {"id": 2263480, "name": "Santar\u00e9m", "state": "", "country": "PT", "coord": {"lon": -8.68333, "lat": 39.23333}}, {"id": 2263483, "name": "Santana do Mato", "state": "", "country": "PT", "coord": {"lon": -8.4034, "lat": 38.877102}}, {"id": 2263491, "name": "Santana", "state": "", "country": "PT", "coord": {"lon": -16.883329, "lat": 32.799999}}, {"id": 2263498, "name": "Santa Maria de Machede", "state": "", "country": "PT", "coord": {"lon": -7.77616, "lat": 38.57756}}, {"id": 2263508, "name": "Santa Margarida da Coutada", "state": "", "country": "PT", "coord": {"lon": -8.31667, "lat": 39.450001}}, {"id": 2263523, "name": "Santa Iria da Az\u00f3ia", "state": "", "country": "PT", "coord": {"lon": -9.08748, "lat": 38.846291}}, {"id": 2263528, "name": "Santa Eul\u00e1lia", "state": "", "country": "PT", "coord": {"lon": -7.24891, "lat": 39.005939}}, {"id": 2263531, "name": "Santa Euf\u00e9mia", "state": "", "country": "PT", "coord": {"lon": -8.75644, "lat": 39.76215}}, {"id": 2263540, "name": "Santa Cruz", "state": "", "country": "PT", "coord": {"lon": -16.799999, "lat": 32.683331}}, {"id": 2263547, "name": "Santa Catarina da Serra", "state": "", "country": "PT", "coord": {"lon": -8.68679, "lat": 39.6796}}, {"id": 2263557, "name": "Santa B\u00e1rbara de Padr\u00f5es", "state": "", "country": "PT", "coord": {"lon": -7.98485, "lat": 37.63649}}, {"id": 2263558, "name": "Santa B\u00e1rbara de Nexe", "state": "", "country": "PT", "coord": {"lon": -7.96648, "lat": 37.10619}}, {"id": 2263561, "name": "Santa Ana da Serra", "state": "", "country": "PT", "coord": {"lon": -8.30108, "lat": 37.50074}}, {"id": 2263584, "name": "Samouco", "state": "", "country": "PT", "coord": {"lon": -9.00471, "lat": 38.72036}}, {"id": 2263586, "name": "Samora Correia", "state": "", "country": "PT", "coord": {"lon": -8.87178, "lat": 38.937092}}, {"id": 2263594, "name": "Samarra", "state": "", "country": "PT", "coord": {"lon": -8.2, "lat": 39.466671}}, {"id": 2263596, "name": "Salvaterra de Magos", "state": "", "country": "PT", "coord": {"lon": -8.7935, "lat": 39.027882}},