[{"id": 2523124, "name": "Siapiccia", "state": "", "country": "IT", "coord": {"lon": 8.7625, "lat": 39.929169}}, {"id": 2523125, "name": "Siano", "state": "", "country": "IT", "coord": {"lon": 16.6, "lat": 38.916672}}, {"id": 2523126, "name": "Siamanna", "state": "", "country": "IT", "coord": {"lon": 8.76444, "lat": 39.920559}}, {"id": 2523127, "name": "Siamaggiore", "state": "", "country": "IT", "coord": {"lon": 8.63444, "lat": 39.950279}}, {"id": 2523132, "name": "Seulo", "state": "", "country": "IT", "coord": {"lon": 9.23694, "lat": 39.869438}}, {"id": 2523133, "name": "Seui", "state": "", "country": "IT", "coord": {"lon": 9.32, "lat": 39.839169}}, {"id": 2523134, "name": "Setzu", "state": "", "country": "IT", "coord": {"lon": 8.93972, "lat": 39.723061}}, {"id": 2523135, "name": "Settimo San Pietro", "state": "", "country": "IT", "coord": {"lon": 9.18556, "lat": 39.289719}}, {"id": 2523136, "name": "Sestu", "state": "", "country": "IT", "coord": {"lon": 9.09083, "lat": 39.30056}}, {"id": 2523137, "name": "Sersale", "state": "", "country": "IT", "coord": {"lon": 16.72691, "lat": 39.010891}}, {"id": 2523141, "name": "Serri", "state": "", "country": "IT", "coord": {"lon": 9.145, "lat": 39.70306}}, {"id": 2523142, "name": "Serrenti", "state": "", "country": "IT", "coord": {"lon": 8.97889, "lat": 39.493061}}, {"id": 2523144, "name": "Serrata", "state": "", "country": "IT", "coord": {"lon": 16.1007, "lat": 38.512878}}, {"id": 2523145, "name": "Serrastretta", "state": "", "country": "IT", "coord": {"lon": 16.4163, "lat": 39.013191}}, {"id": 2523146, "name": "Serra San Bruno", "state": "", "country": "IT", "coord": {"lon": 16.3244, "lat": 38.575378}}, {"id": 2523147, "name": "Serra Pedace", "state": "", "country": "IT", "coord": {"lon": 16.3456, "lat": 39.278389}}, {"id": 2523148, "name": "Serramanna", "state": "", "country": "IT", "coord": {"lon": 8.92444, "lat": 39.424438}}, {"id": 2523151, "name": "Serradifalco", "state": "", "country": "IT", "coord": {"lon": 13.88046, "lat": 37.453838}}, {"id": 2523152, "name": "Serra d'Aiello", "state": "", "country": "IT", "coord": {"lon": 16.127489, "lat": 39.09029}}, {"id": 2523156, "name": "Serdiana", "state": "", "country": "IT", "coord": {"lon": 9.15972, "lat": 39.373329}}, {"id": 2523159, "name": "Senorb\u00ec", "state": "", "country": "IT", "coord": {"lon": 9.1325, "lat": 39.533611}}, {"id": 2523161, "name": "Senis", "state": "", "country": "IT", "coord": {"lon": 8.93917, "lat": 39.825279}}, {"id": 2523162, "name": "Seminara", "state": "", "country": "IT", "coord": {"lon": 15.8696, "lat": 38.333771}}, {"id": 2523163, "name": "Sellia", "state": "", "country": "IT", "coord": {"lon": 16.6299, "lat": 38.981892}}, {"id": 2523165, "name": "Selegas", "state": "", "country": "IT", "coord": {"lon": 9.10306, "lat": 39.56889}}, {"id": 2523166, "name": "Selargius", "state": "", "country": "IT", "coord": {"lon": 9.1675, "lat": 39.256672}}, {"id": 2523167, "name": "Selamo", "state": "", "country": "IT", "coord": {"lon": 16.283331, "lat": 39.51667}}, {"id": 2523172, "name": "Segariu", "state": "", "country": "IT", "coord": {"lon": 8.98278, "lat": 39.56361}}, {"id": 2523180, "name": "Scordia", "state": "", "country": "IT", "coord": {"lon": 14.84078, "lat": 37.29805}}, {"id": 2523186, "name": "Scillato", "state": "", "country": "IT", "coord": {"lon": 13.90636, "lat": 37.856548}}, {"id": 2523187, "name": "Scilla", "state": "", "country": "IT", "coord": {"lon": 15.71899, "lat": 38.250671}}, {"id": 2523190, "name": "Scido", "state": "", "country": "IT", "coord": {"lon": 15.9327, "lat": 38.243568}}, {"id": 2523192, "name": "Scicli", "state": "", "country": "IT", "coord": {"lon": 14.70139, "lat": 36.790241}}, {"id": 2523193, "name": "Sciara", "state": "", "country": "IT", "coord": {"lon": 13.76286, "lat": 37.915352}}, {"id": 2523194, "name": "Sciacca", "state": "", "country": "IT", "coord": {"lon": 13.08399, "lat": 37.506931}}, {"id": 2523202, "name": "Scandale", "state": "", "country": "IT", "coord": {"lon": 16.96081, "lat": 39.124199}}, {"id": 2523204, "name": "Scaletta Zanclea", "state": "", "country": "IT", "coord": {"lon": 15.46769, "lat": 38.047958}}, {"id": 2523207, "name": "Scalea", "state": "", "country": "IT", "coord": {"lon": 15.79558, "lat": 39.813}}, {"id": 2523209, "name": "Scala Coeli", "state": "", "country": "IT", "coord": {"lon": 16.885401, "lat": 39.449799}}, {"id": 2523211, "name": "Sbarre", "state": "", "country": "IT", "coord": {"lon": 15.65, "lat": 38.099998}}, {"id": 2523215, "name": "Savelli", "state": "", "country": "IT", "coord": {"lon": 16.7764, "lat": 39.313499}}, {"id": 2523217, "name": "Satriano", "state": "", "country": "IT", "coord": {"lon": 16.481199, "lat": 38.666882}}, {"id": 2523222, "name": "Sarroch", "state": "", "country": "IT", "coord": {"lon": 9.00972, "lat": 39.064442}}, {"id": 2523228, "name": "Sardegna", "state": "", "country": "IT", "coord": {"lon": 9.0, "lat": 40.0}}, {"id": 2523229, "name": "Sardara", "state": "", "country": "IT", "coord": {"lon": 8.82167, "lat": 39.614441}}, {"id": 2523233, "name": "Saracena", "state": "", "country": "IT", "coord": {"lon": 16.156679, "lat": 39.778801}}, {"id": 2523234, "name": "Saponara", "state": "", "country": "IT", "coord": {"lon": 15.43279, "lat": 38.19437}}, {"id": 2523237, "name": "San Vito Sullo Ionio", "state": "", "country": "IT", "coord": {"lon": 16.4097, "lat": 38.711781}}, {"id": 2523238, "name": "San Vito Lo Capo", "state": "", "country": "IT", "coord": {"lon": 12.73493, "lat": 38.172352}}, {"id": 2523241, "name": "San Vito", "state": "", "country": "IT", "coord": {"lon": 9.53667, "lat": 39.444721}}, {"id": 2523242, "name": "San Vincenzo la Costa", "state": "", "country": "IT", "coord": {"lon": 16.15169, "lat": 39.365189}}, {"id": 2523246, "name": "Gibilmanna", "state": "", "country": "IT", "coord": {"lon": 14.01667, "lat": 37.98333}}, {"id": 2523247, "name": "Santo Stefano Quisquina", "state": "", "country": "IT", "coord": {"lon": 13.49125, "lat": 37.625542}}, {"id": 2523248, "name": "Santo Stefano in Aspromonte", "state": "", "country": "IT", "coord": {"lon": 15.7892, "lat": 38.16917}}, {"id": 2523249, "name": "Santo Stefano di Rogliano", "state": "", "country": "IT", "coord": {"lon": 16.318199, "lat": 39.19249}}, {"id": 2523250, "name": "Santo Stefano di Camastra", "state": "", "country": "IT", "coord": {"lon": 14.34857, "lat": 38.014561}}, {"id": 2523255, "name": "San Sperate", "state": "", "country": "IT", "coord": {"lon": 9.00222, "lat": 39.35833}}, {"id": 2523258, "name": "Sant'Onofrio", "state": "", "country": "IT", "coord": {"lon": 16.1441, "lat": 38.694981}}, {"id": 2523262, "name": "Sant'Ilario dello Ionio", "state": "", "country": "IT", "coord": {"lon": 16.195601, "lat": 38.218769}}, {"id": 2523266, "name": "Sant'Eufemia d'Aspromonte", "state": "", "country": "IT", "coord": {"lon": 15.8548, "lat": 38.26347}}, {"id": 2523271, "name": "San Teodoro", "state": "", "country": "IT", "coord": {"lon": 14.69828, "lat": 37.84866}}, {"id": 2523280, "name": "Santa Venerina", "state": "", "country": "IT", "coord": {"lon": 15.13829, "lat": 37.687359}}, {"id": 2523281, "name": "Sant'Avendrace", "state": "", "country": "IT", "coord": {"lon": 9.09694, "lat": 39.23056}}, {"id": 2523282, "name": "Santa Teresa di Riva", "state": "", "country": "IT", "coord": {"lon": 15.36769, "lat": 37.94696}}, {"id": 2523285, "name": "Santa Sofia d'Epiro", "state": "", "country": "IT", "coord": {"lon": 16.328991, "lat": 39.546501}}, {"id": 2523286, "name": "Santa Severina", "state": "", "country": "IT", "coord": {"lon": 16.910009, "lat": 39.1478}}, {"id": 2523297, "name": "Sant'Antioco", "state": "", "country": "IT", "coord": {"lon": 8.45222, "lat": 39.066391}}, {"id": 2523298, "name": "Sant'Anna Arresi", "state": "", "country": "IT", "coord": {"lon": 8.64139, "lat": 39.001942}}, {"id": 2523304, "name": "Santa Ninfa", "state": "", "country": "IT", "coord": {"lon": 12.87764, "lat": 37.771339}}, {"id": 2523306, "name": "Sant'Angelo Muxaro", "state": "", "country": "IT", "coord": {"lon": 13.54556, "lat": 37.479641}}, {"id": 2523307, "name": "Sant'Angelo di Brolo", "state": "", "country": "IT", "coord": {"lon": 14.88348, "lat": 38.113461}}, {"id": 2523311, "name": "Gerocarne", "state": "", "country": "IT", "coord": {"lon": 16.2187, "lat": 38.587879}}, {"id": 2523312, "name": "Sant'Andrea Frius", "state": "", "country": "IT", "coord": {"lon": 9.17, "lat": 39.479172}}, {"id": 2523313, "name": "Sant'Andrea Apostolo dello Ionio", "state": "", "country": "IT", "coord": {"lon": 16.528311, "lat": 38.622581}}, {"id": 2523317, "name": "Santa Marina Salina", "state": "", "country": "IT", "coord": {"lon": 14.87077, "lat": 38.561169}}, {"id": 2523320, "name": "Santa Maria di Licodia", "state": "", "country": "IT", "coord": {"lon": 14.89058, "lat": 37.61475}}, {"id": 2523322, "name": "Santa Maria di Ges\u00f9", "state": "", "country": "IT", "coord": {"lon": 14.51667, "lat": 37.23333}}, {"id": 2523330, "name": "Santa Margherita di Belice", "state": "", "country": "IT", "coord": {"lon": 13.02014, "lat": 37.691841}}, {"id": 2523333, "name": "Santa Lucia del Mela", "state": "", "country": "IT", "coord": {"lon": 15.28228, "lat": 38.142761}}, {"id": 2523338, "name": "Sant'Alfio", "state": "", "country": "IT", "coord": {"lon": 15.14179, "lat": 37.742359}}, {"id": 2523340, "name": "Sant'Alessio Siculo", "state": "", "country": "IT", "coord": {"lon": 15.34909, "lat": 37.924561}}, {"id": 2523341, "name": "Sant'Alessio in Aspromonte", "state": "", "country": "IT", "coord": {"lon": 15.7578, "lat": 38.172569}}, {"id": 2523344, "name": "Santa Giusta", "state": "", "country": "IT", "coord": {"lon": 8.60694, "lat": 39.880001}}, {"id": 2523347, "name": "Sant'Agata di Militello", "state": "", "country": "IT", "coord": {"lon": 14.63267, "lat": 38.06786}}, {"id": 2523348, "name": "Sant'Agata di Esaro", "state": "", "country": "IT", "coord": {"lon": 15.98378, "lat": 39.622799}}, {"id": 2523352, "name": "Santa Flavia", "state": "", "country": "IT", "coord": {"lon": 13.53505, "lat": 38.085049}}, {"id": 2523353, "name": "Santa Elisabetta", "state": "", "country": "IT", "coord": {"lon": 13.55686, "lat": 37.434639}}, {"id": 2523354, "name": "Santa Domenica Vittoria", "state": "", "country": "IT", "coord": {"lon": 14.96198, "lat": 37.917259}}, {"id": 2523355, "name": "Santa Domenica Talao", "state": "", "country": "IT", "coord": {"lon": 15.85458, "lat": 39.8195}}, {"id": 2523361, "name": "Santadi", "state": "", "country": "IT", "coord": {"lon": 8.71583, "lat": 39.092781}}, {"id": 2523362, "name": "Santa Croce Camerina", "state": "", "country": "IT", "coord": {"lon": 14.52678, "lat": 36.828941}}, {"id": 2523364, "name": "Santa Cristina Gela", "state": "", "country": "IT", "coord": {"lon": 13.32815, "lat": 37.984249}}, {"id": 2523365, "name": "Santa Cristina d'Aspromonte", "state": "", "country": "IT", "coord": {"lon": 15.9705, "lat": 38.255371}}, {"id": 2523366, "name": "Santa Caterina Villarmosa", "state": "", "country": "IT", "coord": {"lon": 14.03626, "lat": 37.591148}}, {"id": 2523367, "name": "Santa Caterina dello Ionio", "state": "", "country": "IT", "coord": {"lon": 16.522011, "lat": 38.532681}}, {"id": 2523368, "name": "Santa Caterina Albanese", "state": "", "country": "IT", "coord": {"lon": 16.070391, "lat": 39.585899}}, {"id": 2523371, "name": "San Sosti", "state": "", "country": "IT", "coord": {"lon": 16.02758, "lat": 39.659}}, {"id": 2523373, "name": "San Sostene", "state": "", "country": "IT", "coord": {"lon": 16.48711, "lat": 38.637878}}, {"id": 2523375, "name": "San Salvatore di Fitalia", "state": "", "country": "IT", "coord": {"lon": 14.77848, "lat": 38.058262}}, {"id": 2523382, "name": "San Roberto", "state": "", "country": "IT", "coord": {"lon": 15.73659, "lat": 38.211269}}, {"id": 2523384, "name": "San Procopio", "state": "", "country": "IT", "coord": {"lon": 15.8904, "lat": 38.28117}}, {"id": 2523385, "name": "Villa San Pietro", "state": "", "country": "IT", "coord": {"lon": 8.99639, "lat": 39.03278}}, {"id": 2523386, "name": "San Pietro in Guarano", "state": "", "country": "IT", "coord": {"lon": 16.311489, "lat": 39.34219}}, {"id": 2523387, "name": "San Pietro in Amantea", "state": "", "country": "IT", "coord": {"lon": 16.111589, "lat": 39.136391}}, {"id": 2523388, "name": "San Pietro Apostolo", "state": "", "country": "IT", "coord": {"lon": 16.468399, "lat": 39.004391}}, {"id": 2523389, "name": "San Pietro a Maida", "state": "", "country": "IT", "coord": {"lon": 16.3435, "lat": 38.845982}}, {"id": 2523396, "name": "Santo Pietro", "state": "", "country": "IT", "coord": {"lon": 14.5, "lat": 37.099998}}, {"id": 2523397, "name": "San Piero Patti", "state": "", "country": "IT", "coord": {"lon": 14.97018, "lat": 38.05286}}, {"id": 2523398, "name": "San Pier Niceto", "state": "", "country": "IT", "coord": {"lon": 15.34819, "lat": 38.16127}}, {"id": 2523405, "name": "San Nicolo'Gerrei", "state": "", "country": "IT", "coord": {"lon": 9.30611, "lat": 39.498329}}, {"id": 2523406, "name": "San Nicol\u00f2 d'Arcidano", "state": "", "country": "IT", "coord": {"lon": 8.64361, "lat": 39.68417}}, {"id": 2523408, "name": "San Nicola dell'Alto", "state": "", "country": "IT", "coord": {"lon": 16.97291, "lat": 39.289299}}, {"id": 2523409, "name": "San Nicola da Crissa", "state": "", "country": "IT", "coord": {"lon": 16.2848, "lat": 38.663582}}, {"id": 2523410, "name": "San Nicola Arcella", "state": "", "country": "IT", "coord": {"lon": 15.79338, "lat": 39.845901}}, {"id": 2523416, "name": "San Michele di Ganzaria", "state": "", "country": "IT", "coord": {"lon": 14.42548, "lat": 37.281441}}, {"id": 2523418, "name": "San Mauro Marchesato", "state": "", "country": "IT", "coord": {"lon": 16.92561, "lat": 39.105591}}, {"id": 2523419, "name": "San Mauro Castelverde", "state": "", "country": "IT", "coord": {"lon": 14.18956, "lat": 37.915451}}, {"id": 2523420, "name": "San Martino di Finita", "state": "", "country": "IT", "coord": {"lon": 16.109791, "lat": 39.490601}}, {"id": 2523425, "name": "San Marco d'Alunzio", "state": "", "country": "IT", "coord": {"lon": 14.70067, "lat": 38.071861}}, {"id": 2523426, "name": "San Marco Argentano", "state": "", "country": "IT", "coord": {"lon": 16.12009, "lat": 39.5583}}, {"id": 2523432, "name": "San Mango d'Aquino", "state": "", "country": "IT", "coord": {"lon": 16.194691, "lat": 39.060589}}, {"id": 2523434, "name": "Sanluri", "state": "", "country": "IT", "coord": {"lon": 8.89944, "lat": 39.561111}}, {"id": 2523435, "name": "San Lucido", "state": "", "country": "IT", "coord": {"lon": 16.050791, "lat": 39.308891}}, {"id": 2523436, "name": "San Luca", "state": "", "country": "IT", "coord": {"lon": 16.066, "lat": 38.148369}}, {"id": 2523438, "name": "San Lorenzo del Vallo", "state": "", "country": "IT", "coord": {"lon": 16.29739, "lat": 39.668201}}, {"id": 2523439, "name": "San Lorenzo Bellizzi", "state": "", "country": "IT", "coord": {"lon": 16.33029, "lat": 39.889198}}, {"id": 2523440, "name": "San Lorenzo", "state": "", "country": "IT", "coord": {"lon": 15.8344, "lat": 38.010971}}, {"id": 2523447, "name": "San Gregorio d'Ippona", "state": "", "country": "IT", "coord": {"lon": 16.107, "lat": 38.644581}}, {"id": 2523448, "name": "San Gregorio di Catania", "state": "", "country": "IT", "coord": {"lon": 15.11179, "lat": 37.56525}}, {"id": 2523451, "name": "San Giuseppe Jato", "state": "", "country": "IT", "coord": {"lon": 13.18814, "lat": 37.973351}}, {"id": 2523456, "name": "San Giovanni Suergiu", "state": "", "country": "IT", "coord": {"lon": 8.52111, "lat": 39.110001}}, {"id": 2523459, "name": "Samo", "state": "", "country": "IT", "coord": {"lon": 16.0583, "lat": 38.073769}}, {"id": 2523460, "name": "San Giovanni la Punta", "state": "", "country": "IT", "coord": {"lon": 15.09809, "lat": 37.57605}}, {"id": 2523461, "name": "San Giovanni in Fiore", "state": "", "country": "IT", "coord": {"lon": 16.6996, "lat": 39.263302}}, {"id": 2523462, "name": "San Giovanni Gemini", "state": "", "country": "IT", "coord": {"lon": 13.64076, "lat": 37.628139}}, {"id": 2523463, "name": "San Giovanni di Gerace", "state": "", "country": "IT", "coord": {"lon": 16.2777, "lat": 38.365082}}, {"id": 2523472, "name": "San Giorgio Morgeto", "state": "", "country": "IT", "coord": {"lon": 16.085501, "lat": 38.390179}}, {"id": 2523473, "name": "San Giorgio Albanese", "state": "", "country": "IT", "coord": {"lon": 16.453489, "lat": 39.582298}}, {"id": 2523478, "name": "Sangineto", "state": "", "country": "IT", "coord": {"lon": 15.91488, "lat": 39.604801}}, {"id": 2523482, "name": "San Gavino Monreale", "state": "", "country": "IT", "coord": {"lon": 8.79167, "lat": 39.551392}}, {"id": 2523487, "name": "San Fratello", "state": "", "country": "IT", "coord": {"lon": 14.59817, "lat": 38.017059}}, {"id": 2523490, "name": "San Floro", "state": "", "country": "IT", "coord": {"lon": 16.5187, "lat": 38.83799}}, {"id": 2523494, "name": "San Filippo del Mela", "state": "", "country": "IT", "coord": {"lon": 15.27338, "lat": 38.170071}}, {"id": 2523497, "name": "San Fili", "state": "", "country": "IT", "coord": {"lon": 16.14349, "lat": 39.33889}}, {"id": 2523498, "name": "San Ferdinando", "state": "", "country": "IT", "coord": {"lon": 15.9189, "lat": 38.48558}}, {"id": 2523499, "name": "San Donato di Ninea", "state": "", "country": "IT", "coord": {"lon": 16.048479, "lat": 39.711601}}, {"id": 2523500, "name": "San Demetrio Corone", "state": "", "country": "IT", "coord": {"lon": 16.36149, "lat": 39.569901}}, {"id": 2523504, "name": "San Costantino Calabro", "state": "", "country": "IT", "coord": {"lon": 16.0739, "lat": 38.632278}}, {"id": 2523507, "name": "San Cosmo Albanese", "state": "", "country": "IT", "coord": {"lon": 16.420191, "lat": 39.583099}}, {"id": 2523509, "name": "San Cono", "state": "", "country": "IT", "coord": {"lon": 14.36608, "lat": 37.291439}}, {"id": 2523511, "name": "San Cipirello", "state": "", "country": "IT", "coord": {"lon": 13.17614, "lat": 37.962151}}, {"id": 2523513, "name": "San Cataldo", "state": "", "country": "IT", "coord": {"lon": 13.98542, "lat": 37.484119}}, {"id": 2523516, "name": "San Calogero", "state": "", "country": "IT", "coord": {"lon": 16.0203, "lat": 38.575581}}, {"id": 2523519, "name": "San Biagio Platani", "state": "", "country": "IT", "coord": {"lon": 13.52556, "lat": 37.509041}}, {"id": 2523523, "name": "San Benedetto Ullano", "state": "", "country": "IT", "coord": {"lon": 16.123791, "lat": 39.427101}}, {"id": 2523525, "name": "San Basilio", "state": "", "country": "IT", "coord": {"lon": 9.19639, "lat": 39.537498}}, {"id": 2523528, "name": "San Basile", "state": "", "country": "IT", "coord": {"lon": 16.16328, "lat": 39.809601}}, {"id": 2523530, "name": "Samugheo", "state": "", "country": "IT", "coord": {"lon": 8.94111, "lat": 39.948891}}, {"id": 2523533, "name": "Sambuca di Sicilia", "state": "", "country": "IT", "coord": {"lon": 13.11094, "lat": 37.649441}}, {"id": 2523536, "name": "Samatzai", "state": "", "country": "IT", "coord": {"lon": 9.03361, "lat": 39.48444}}, {"id": 2523537, "name": "Samassi", "state": "", "country": "IT", "coord": {"lon": 8.90917, "lat": 39.48167}}, {"id": 2523539, "name": "Salve", "state": "", "country": "IT", "coord": {"lon": 18.293329, "lat": 39.86132}}, {"id": 2523557, "name": "Salemi", "state": "", "country": "IT", "coord": {"lon": 12.80564, "lat": 37.823139}}, {"id": 2523558, "name": "Salaparuta", "state": "", "country": "IT", "coord": {"lon": 13.00974, "lat": 37.757938}}, {"id": 2523562, "name": "Sadali", "state": "", "country": "IT", "coord": {"lon": 9.27194, "lat": 39.813251}}, {"id": 2523567, "name": "Ruinas", "state": "", "country": "IT", "coord": {"lon": 8.89583, "lat": 39.909168}}, {"id": 2523569, "name": "Ruffano", "state": "", "country": "IT", "coord": {"lon": 18.246429, "lat": 39.982922}}, {"id": 2523571, "name": "Rovito", "state": "", "country": "IT", "coord": {"lon": 16.321091, "lat": 39.307991}}, {"id": 2523574, "name": "Rotonda", "state": "", "country": "IT", "coord": {"lon": 16.03908, "lat": 39.952702}}, {"id": 2523575, "name": "Rota Greca", "state": "", "country": "IT", "coord": {"lon": 16.112591, "lat": 39.468498}}, {"id": 2523578, "name": "Rossano", "state": "", "country": "IT", "coord": {"lon": 16.634899, "lat": 39.5751}}, {"id": 2523581, "name": "Rosolini", "state": "", "country": "IT", "coord": {"lon": 14.94779, "lat": 36.824242}}, {"id": 2523583, "name": "Roseto Capo Spulico", "state": "", "country": "IT", "coord": {"lon": 16.60169, "lat": 39.987011}}, {"id": 2523584, "name": "Rose", "state": "", "country": "IT", "coord": {"lon": 16.287189, "lat": 39.398499}}, {"id": 2523585, "name": "Rosarno", "state": "", "country": "IT", "coord": {"lon": 15.979, "lat": 38.484081}}, {"id": 2523588, "name": "Rombiolo", "state": "", "country": "IT", "coord": {"lon": 16.001699, "lat": 38.591782}}, {"id": 2523589, "name": "Rogliano", "state": "", "country": "IT", "coord": {"lon": 16.320999, "lat": 39.18119}}, {"id": 2523590, "name": "Roghudi Vecchio", "state": "", "country": "IT", "coord": {"lon": 15.91667, "lat": 38.049999}}, {"id": 2523591, "name": "Roggiano Gravina", "state": "", "country": "IT", "coord": {"lon": 16.159691, "lat": 39.618198}}, {"id": 2523592, "name": "Rod\u00ec", "state": "", "country": "IT", "coord": {"lon": 15.16928, "lat": 38.10886}}, {"id": 2523594, "name": "Roccella Valdemone", "state": "", "country": "IT", "coord": {"lon": 15.00968, "lat": 37.93346}}, {"id": 2523595, "name": "Roccella Ionica", "state": "", "country": "IT", "coord": {"lon": 16.400909, "lat": 38.32198}}, {"id": 2523597, "name": "Roccavaldina", "state": "", "country": "IT", "coord": {"lon": 15.37269, "lat": 38.18327}}, {"id": 2523599, "name": "Roccapalumba", "state": "", "country": "IT", "coord": {"lon": 13.63846, "lat": 37.80595}}, {"id": 2523600, "name": "Roccamena", "state": "", "country": "IT", "coord": {"lon": 13.15474, "lat": 37.837238}}, {"id": 2523601, "name": "Roccalumera", "state": "", "country": "IT", "coord": {"lon": 15.39519, "lat": 37.976261}}, {"id": 2523602, "name": "Roccaforte del Greco", "state": "", "country": "IT", "coord": {"lon": 15.8947, "lat": 38.047272}}, {"id": 2523603, "name": "Rocca di Neto", "state": "", "country": "IT", "coord": {"lon": 17.008909, "lat": 39.184299}}, {"id": 2523604, "name": "Roccabernarda", "state": "", "country": "IT", "coord": {"lon": 16.87051, "lat": 39.135689}}, {"id": 2523608, "name": "Rizziconi", "state": "", "country": "IT", "coord": {"lon": 15.9582, "lat": 38.410782}}, {"id": 2523612, "name": "Riposto", "state": "", "country": "IT", "coord": {"lon": 15.20089, "lat": 37.73056}}, {"id": 2523613, "name": "Riola Sardo", "state": "", "country": "IT", "coord": {"lon": 8.54, "lat": 39.995831}}, {"id": 2523616, "name": "Riesi", "state": "", "country": "IT", "coord": {"lon": 14.08227, "lat": 37.28194}}, {"id": 2523618, "name": "Ricadi", "state": "", "country": "IT", "coord": {"lon": 15.86729, "lat": 38.625381}}, {"id": 2523619, "name": "Ribera", "state": "", "country": "IT", "coord": {"lon": 13.26415, "lat": 37.49844}}, {"id": 2523622, "name": "Resuttano", "state": "", "country": "IT", "coord": {"lon": 14.02946, "lat": 37.67865}}, {"id": 2523623, "name": "Rende", "state": "", "country": "IT", "coord": {"lon": 16.184389, "lat": 39.331989}}, {"id": 2523626, "name": "Reitano", "state": "", "country": "IT", "coord": {"lon": 14.34327, "lat": 37.972061}}, {"id": 2523629, "name": "Provincia di Reggio Calabria", "state": "", "country": "IT", "coord": {"lon": 16.08333, "lat": 38.316669}}, {"id": 2523630, "name": "Reggio Calabria", "state": "", "country": "IT", "coord": {"lon": 15.66129, "lat": 38.11047}}, {"id": 2523632, "name": "Regalbuto", "state": "", "country": "IT", "coord": {"lon": 14.64088, "lat": 37.652649}}, {"id": 2523636, "name": "Realmonte", "state": "", "country": "IT", "coord": {"lon": 13.46186, "lat": 37.309139}}, {"id": 2523638, "name": "Ravanusa", "state": "", "country": "IT", "coord": {"lon": 13.96897, "lat": 37.266739}}, {"id": 2523641, "name": "Randazzo", "state": "", "country": "IT", "coord": {"lon": 14.95012, "lat": 37.877361}}, {"id": 2523644, "name": "Ramacca", "state": "", "country": "IT", "coord": {"lon": 14.69268, "lat": 37.38805}}, {"id": 2523649, "name": "Ragusa", "state": "", "country": "IT", "coord": {"lon": 14.6, "lat": 36.916672}}, {"id": 2523650, "name": "Ragusa", "state": "", "country": "IT", "coord": {"lon": 14.71719, "lat": 36.928242}}, {"id": 2523654, "name": "Raffadali", "state": "", "country": "IT", "coord": {"lon": 13.53306, "lat": 37.403641}}, {"id": 2523656, "name": "Raddusa", "state": "", "country": "IT", "coord": {"lon": 14.53388, "lat": 37.475651}}, {"id": 2523658, "name": "Raccuja", "state": "", "country": "IT", "coord": {"lon": 14.90958, "lat": 38.05526}}, {"id": 2523659, "name": "Racalmuto", "state": "", "country": "IT", "coord": {"lon": 13.73376, "lat": 37.407139}}, {"id": 2523660, "name": "Racale", "state": "", "country": "IT", "coord": {"lon": 18.09383, "lat": 39.96312}}, {"id": 2523665, "name": "Quartu Sant'Elena", "state": "", "country": "IT", "coord": {"lon": 9.18389, "lat": 39.24194}}, {"id": 2523666, "name": "Quartucciu", "state": "", "country": "IT", "coord": {"lon": 9.17944, "lat": 39.251942}}, {"id": 2523675, "name": "Pula", "state": "", "country": "IT", "coord": {"lon": 9.00167, "lat": 39.009998}}, {"id": 2523678, "name": "Prizzi", "state": "", "country": "IT", "coord": {"lon": 13.43275, "lat": 37.721439}}, {"id": 2523679, "name": "Priolo Gargallo", "state": "", "country": "IT", "coord": {"lon": 15.18019, "lat": 37.157249}}, {"id": 2523681, "name": "Presicce", "state": "", "country": "IT", "coord": {"lon": 18.26173, "lat": 39.89912}}, {"id": 2523687, "name": "Praia a Mare", "state": "", "country": "IT", "coord": {"lon": 15.77928, "lat": 39.900902}}, {"id": 2523688, "name": "Pozzo di Gotto", "state": "", "country": "IT", "coord": {"lon": 15.23333, "lat": 38.150002}}, {"id": 2523693, "name": "Pozzallo", "state": "", "country": "IT", "coord": {"lon": 14.84989, "lat": 36.730541}}, {"id": 2523699, "name": "Portoscuso", "state": "", "country": "IT", "coord": {"lon": 8.37889, "lat": 39.20472}}, {"id": 2523703, "name": "Portopalo di Capo Passero", "state": "", "country": "IT", "coord": {"lon": 15.1346, "lat": 36.682339}}, {"id": 2523705, "name": "Porto Empedocle", "state": "", "country": "IT", "coord": {"lon": 13.52636, "lat": 37.293442}}, {"id": 2523711, "name": "Portigliola", "state": "", "country": "IT", "coord": {"lon": 16.2022, "lat": 38.227669}}, {"id": 2523728, "name": "Pompu", "state": "", "country": "IT", "coord": {"lon": 8.79722, "lat": 39.725559}}, {"id": 2523734, "name": "Pollina", "state": "", "country": "IT", "coord": {"lon": 14.14526, "lat": 37.99366}}, {"id": 2523736, "name": "Polizzi Generosa", "state": "", "country": "IT", "coord": {"lon": 14.00336, "lat": 37.811852}}, {"id": 2523738, "name": "Polistena", "state": "", "country": "IT", "coord": {"lon": 16.08, "lat": 38.405979}}, {"id": 2523742, "name": "Polia", "state": "", "country": "IT", "coord": {"lon": 16.312201, "lat": 38.751179}}, {"id": 2523747, "name": "Nuovo Centro Urbano Poggioreale", "state": "", "country": "IT", "coord": {"lon": 13.03594, "lat": 37.764042}}, {"id": 2523749, "name": "Plat\u00ec", "state": "", "country": "IT", "coord": {"lon": 16.046499, "lat": 38.219971}}, {"id": 2523750, "name": "Platania", "state": "", "country": "IT", "coord": {"lon": 16.320101, "lat": 39.00539}}, {"id": 2523752, "name": "Plataci", "state": "", "country": "IT", "coord": {"lon": 16.43199, "lat": 39.90041}}, {"id": 2523757, "name": "Placanica", "state": "", "country": "IT", "coord": {"lon": 16.452511, "lat": 38.41188}}, {"id": 2523758, "name": "Pizzoni", "state": "", "country": "IT", "coord": {"lon": 16.2519, "lat": 38.623081}}, {"id": 2523762, "name": "Pizzo", "state": "", "country": "IT", "coord": {"lon": 16.1658, "lat": 38.73838}}, {"id": 2523769, "name": "Piscinas", "state": "", "country": "IT", "coord": {"lon": 8.665, "lat": 39.075001}}, {"id": 2523773, "name": "Piraino", "state": "", "country": "IT", "coord": {"lon": 14.86258, "lat": 38.16066}}, {"id": 2523778, "name": "Pimentel", "state": "", "country": "IT", "coord": {"lon": 9.06528, "lat": 39.48917}}, {"id": 2523784, "name": "Pietraperzia", "state": "", "country": "IT", "coord": {"lon": 14.13707, "lat": 37.419941}}, {"id": 2523786, "name": "Pietrapaola", "state": "", "country": "IT", "coord": {"lon": 16.8158, "lat": 39.487499}}, {"id": 2523790, "name": "Pietrafitta", "state": "", "country": "IT", "coord": {"lon": 16.3386, "lat": 39.261391}}, {"id": 2523793, "name": "Piedimonte Etneo", "state": "", "country": "IT", "coord": {"lon": 15.17659, "lat": 37.806862}}, {"id": 2523796, "name": "Piazza Armerina", "state": "", "country": "IT", "coord": {"lon": 14.36717, "lat": 37.385948}}, {"id": 2523799, "name": "Pianopoli", "state": "", "country": "IT", "coord": {"lon": 16.388399, "lat": 38.954189}}, {"id": 2523806, "name": "Piane Crati", "state": "", "country": "IT", "coord": {"lon": 16.3255, "lat": 39.234089}}, {"id": 2523808, "name": "Piana degli Albanesi", "state": "", "country": "IT", "coord": {"lon": 13.27974, "lat": 37.997952}}, {"id": 2523813, "name": "Pettineo", "state": "", "country": "IT", "coord": {"lon": 14.29187, "lat": 37.967258}}, {"id": 2523816, "name": "Petrosino", "state": "", "country": "IT", "coord": {"lon": 12.49993, "lat": 37.707741}}, {"id": 2523817, "name": "Petron\u00e0", "state": "", "country": "IT", "coord": {"lon": 16.755911, "lat": 39.04369}}, {"id": 2523818, "name": "Petrizzi", "state": "", "country": "IT", "coord": {"lon": 16.473, "lat": 38.701382}}, {"id": 2523821, "name": "Petralia Sottana", "state": "", "country": "IT", "coord": {"lon": 14.09246, "lat": 37.809448}}, {"id": 2523822, "name": "Petralia Soprana", "state": "", "country": "IT", "coord": {"lon": 14.10756, "lat": 37.800549}}, {"id": 2523825, "name": "Petilia Policastro", "state": "", "country": "IT", "coord": {"lon": 16.785509, "lat": 39.113892}}, {"id": 2523832, "name": "Perdaxius", "state": "", "country": "IT", "coord": {"lon": 8.61083, "lat": 39.160278}}, {"id": 2523833, "name": "Perdasdefogu", "state": "", "country": "IT", "coord": {"lon": 9.43917, "lat": 39.681671}}, {"id": 2523838, "name": "Pentone", "state": "", "country": "IT", "coord": {"lon": 16.5825, "lat": 38.98579}}, {"id": 2523845, "name": "Pellaro", "state": "", "country": "IT", "coord": {"lon": 15.65, "lat": 38.01667}}, {"id": 2523849, "name": "Pedivigliano", "state": "", "country": "IT", "coord": {"lon": 16.3029, "lat": 39.109489}}, {"id": 2523850, "name": "Pedara", "state": "", "country": "IT", "coord": {"lon": 15.05669, "lat": 37.616852}}, {"id": 2523853, "name": "Pedace-Perito", "state": "", "country": "IT", "coord": {"lon": 16.336399, "lat": 39.27639}}, {"id": 2523857, "name": "Pazzano", "state": "", "country": "IT", "coord": {"lon": 16.45261, "lat": 38.475182}}, {"id": 2523859, "name": "Pauli Arbarei", "state": "", "country": "IT", "coord": {"lon": 8.92306, "lat": 39.662781}}, {"id": 2523861, "name": "Pau", "state": "", "country": "IT", "coord": {"lon": 8.80222, "lat": 39.791672}}, {"id": 2523862, "name": "Pat\u00f9", "state": "", "country": "IT", "coord": {"lon": 18.33893, "lat": 39.841221}}, {"id": 2523864, "name": "Patti", "state": "", "country": "IT", "coord": {"lon": 14.96958, "lat": 38.146759}}, {"id": 2523865, "name": "Paterno Calabro", "state": "", "country": "IT", "coord": {"lon": 16.264891, "lat": 39.228489}}, {"id": 2523866, "name": "Patern\u00f2", "state": "", "country": "IT", "coord": {"lon": 14.90268, "lat": 37.57095}}, {"id": 2523871, "name": "Partinico", "state": "", "country": "IT", "coord": {"lon": 13.12004, "lat": 38.043949}}, {"id": 2523872, "name": "Partanna", "state": "", "country": "IT", "coord": {"lon": 12.88854, "lat": 37.72784}}, {"id": 2523876, "name": "Parghelia", "state": "", "country": "IT", "coord": {"lon": 15.92249, "lat": 38.680882}}, {"id": 2523877, "name": "Parenti", "state": "", "country": "IT", "coord": {"lon": 16.4105, "lat": 39.162189}}, {"id": 2523883, "name": "Papasidero", "state": "", "country": "IT", "coord": {"lon": 15.90788, "lat": 39.871498}}, {"id": 2523888, "name": "Paola", "state": "", "country": "IT", "coord": {"lon": 16.039591, "lat": 39.35989}}, {"id": 2523890, "name": "Pantelleria", "state": "", "country": "IT", "coord": {"lon": 11.95, "lat": 36.833328}}, {"id": 2523896, "name": "Panettieri", "state": "", "country": "IT", "coord": {"lon": 16.456699, "lat": 39.05999}}, {"id": 2523900, "name": "Paludi", "state": "", "country": "IT", "coord": {"lon": 16.6828, "lat": 39.530102}}, {"id": 2523902, "name": "Palmi", "state": "", "country": "IT", "coord": {"lon": 15.84915, "lat": 38.35862}}, {"id": 2523904, "name": "Palmas Arborea", "state": "", "country": "IT", "coord": {"lon": 8.64583, "lat": 39.876389}}, {"id": 2523908, "name": "Palma di Montechiaro", "state": "", "country": "IT", "coord": {"lon": 13.76496, "lat": 37.192638}}, {"id": 2523910, "name": "Pallagorio", "state": "", "country": "IT", "coord": {"lon": 16.90831, "lat": 39.308899}}, {"id": 2523912, "name": "Palizzi", "state": "", "country": "IT", "coord": {"lon": 15.9867, "lat": 37.966671}}, {"id": 2523918, "name": "Palermo", "state": "", "country": "IT", "coord": {"lon": 13.58333, "lat": 37.816669}}, {"id": 2523920, "name": "Palermo", "state": "", "country": "IT", "coord": {"lon": 13.35976, "lat": 38.115822}}, {"id": 2523921, "name": "Palermiti", "state": "", "country": "IT", "coord": {"lon": 16.4522, "lat": 38.74868}}, {"id": 2523922, "name": "Palazzolo Acreide", "state": "", "country": "IT", "coord": {"lon": 14.90349, "lat": 37.06234}}, {"id": 2523925, "name": "Palazzo Adriano", "state": "", "country": "IT", "coord": {"lon": 13.37905, "lat": 37.681042}}, {"id": 2523927, "name": "Palagonia", "state": "", "country": "IT", "coord": {"lon": 14.74478, "lat": 37.328251}}, {"id": 2523932, "name": "Pagliara", "state": "", "country": "IT", "coord": {"lon": 15.35969, "lat": 37.985458}}, {"id": 2523938, "name": "Pachino", "state": "", "country": "IT", "coord": {"lon": 15.0907, "lat": 36.718639}}, {"id": 2523942, "name": "Paceco", "state": "", "country": "IT", "coord": {"lon": 12.55663, "lat": 37.978741}}, {"id": 2523943, "name": "Pabillonis", "state": "", "country": "IT", "coord": {"lon": 8.72, "lat": 39.59444}}, {"id": 2523944, "name": "Ovile Sant'Andre", "state": "", "country": "IT", "coord": {"lon": 17.08333, "lat": 39.0}}, {"id": 2523949, "name": "Osini", "state": "", "country": "IT", "coord": {"lon": 9.49222, "lat": 39.828331}}, {"id": 2523954, "name": "Ortacesus", "state": "", "country": "IT", "coord": {"lon": 9.08333, "lat": 39.539169}}, {"id": 2523955, "name": "Orsomarso", "state": "", "country": "IT", "coord": {"lon": 15.90748, "lat": 39.799099}}, {"id": 2523958, "name": "Orroli", "state": "", "country": "IT", "coord": {"lon": 9.25139, "lat": 39.693062}}, {"id": 2523962, "name": "Provincia di Oristano", "state": "", "country": "IT", "coord": {"lon": 8.6, "lat": 39.900002}}, {"id": 2523964, "name": "Oristano", "state": "", "country": "IT", "coord": {"lon": 8.59194, "lat": 39.903061}}, {"id": 2523969, "name": "Albagiara", "state": "", "country": "IT", "coord": {"lon": 8.86444, "lat": 39.786942}}, {"id": 2523972, "name": "Oliveri", "state": "", "country": "IT", "coord": {"lon": 15.06278, "lat": 38.125759}}, {"id": 2523975, "name": "Olivadi", "state": "", "country": "IT", "coord": {"lon": 16.4237, "lat": 38.725578}}, {"id": 2523983, "name": "Nuxis", "state": "", "country": "IT", "coord": {"lon": 8.74056, "lat": 39.153061}}, {"id": 2523984, "name": "Nurri", "state": "", "country": "IT", "coord": {"lon": 9.23, "lat": 39.709999}}, {"id": 2523985, "name": "Nureci", "state": "", "country": "IT", "coord": {"lon": 8.97528, "lat": 39.822498}}, {"id": 2523987, "name": "Nuraminis", "state": "", "country": "IT", "coord": {"lon": 9.01361, "lat": 39.444721}}, {"id": 2523988, "name": "Nurallao", "state": "", "country": "IT", "coord": {"lon": 9.08028, "lat": 39.790562}}, {"id": 2523989, "name": "Nuragus", "state": "", "country": "IT", "coord": {"lon": 9.03639, "lat": 39.775829}}, {"id": 2523990, "name": "Nurachi", "state": "", "country": "IT", "coord": {"lon": 8.53889, "lat": 39.973888}}, {"id": 2523994, "name": "Novara di Sicilia", "state": "", "country": "IT", "coord": {"lon": 15.13188, "lat": 38.015961}}, {"id": 2523996, "name": "Lido di Noto", "state": "", "country": "IT", "coord": {"lon": 15.11667, "lat": 36.849998}}, {"id": 2523998, "name": "Noto", "state": "", "country": "IT", "coord": {"lon": 15.06929, "lat": 36.890141}}, {"id": 2524000, "name": "Nocera Terinese", "state": "", "country": "IT", "coord": {"lon": 16.168591, "lat": 39.034389}}, {"id": 2524002, "name": "Noce", "state": "", "country": "IT", "coord": {"lon": 13.33333, "lat": 38.116669}}, {"id": 2524003, "name": "Nizza di Sicilia", "state": "", "country": "IT", "coord": {"lon": 15.41189, "lat": 37.994961}}, {"id": 2524004, "name": "Nissoria", "state": "", "country": "IT", "coord": {"lon": 14.44737, "lat": 37.655151}}, {"id": 2524006, "name": "Niscemi", "state": "", "country": "IT", "coord": {"lon": 14.39128, "lat": 37.14864}}, {"id": 2524008, "name": "Nicotera", "state": "", "country": "IT", "coord": {"lon": 15.9367, "lat": 38.554581}}, {"id": 2524009, "name": "Nicosia", "state": "", "country": "IT", "coord": {"lon": 14.39727, "lat": 37.747452}}, {"id": 2524010, "name": "Nicolosi", "state": "", "country": "IT", "coord": {"lon": 15.02549, "lat": 37.615952}}, {"id": 2524013, "name": "Nicastro", "state": "", "country": "IT", "coord": {"lon": 16.316669, "lat": 38.98333}}, {"id": 2524020, "name": "Naso", "state": "", "country": "IT", "coord": {"lon": 14.78688, "lat": 38.123058}}, {"id": 2524022, "name": "Naro", "state": "", "country": "IT", "coord": {"lon": 13.79356, "lat": 37.293541}}, {"id": 2524023, "name": "Nardodipace", "state": "", "country": "IT", "coord": {"lon": 16.342501, "lat": 38.472279}}, {"id": 2524024, "name": "Narcao", "state": "", "country": "IT", "coord": {"lon": 8.675, "lat": 39.1675}}, {"id": 2524028, "name": "Mussomeli", "state": "", "country": "IT", "coord": {"lon": 13.75126, "lat": 37.577839}}, {"id": 2524029, "name": "Musei", "state": "", "country": "IT", "coord": {"lon": 8.66667, "lat": 39.30167}}, {"id": 2524033, "name": "Muravera", "state": "", "country": "IT", "coord": {"lon": 9.57139, "lat": 39.41917}}, {"id": 2524041, "name": "Motta Sant'Anastasia", "state": "", "country": "IT", "coord": {"lon": 14.96588, "lat": 37.513149}}, {"id": 2524042, "name": "Motta Santa Lucia", "state": "", "country": "IT", "coord": {"lon": 16.2924, "lat": 39.091888}}, {"id": 2524043, "name": "Motta San Giovanni", "state": "", "country": "IT", "coord": {"lon": 15.6951, "lat": 38.003159}}, {"id": 2524044, "name": "Mottafollone", "state": "", "country": "IT", "coord": {"lon": 16.063379, "lat": 39.648701}}, {"id": 2524049, "name": "Mormanno", "state": "", "country": "IT", "coord": {"lon": 15.98678, "lat": 39.888302}}, {"id": 2524050, "name": "Morgongiori", "state": "", "country": "IT", "coord": {"lon": 8.77194, "lat": 39.74556}}, {"id": 2524055, "name": "Morciano di Leuca", "state": "", "country": "IT", "coord": {"lon": 18.312429, "lat": 39.84782}}, {"id": 2524056, "name": "Morano Calabro", "state": "", "country": "IT", "coord": {"lon": 16.141279, "lat": 39.839802}}, {"id": 2524061, "name": "Montevago", "state": "", "country": "IT", "coord": {"lon": 12.98584, "lat": 37.70224}}, {"id": 2524062, "name": "Montesardo", "state": "", "country": "IT", "coord": {"lon": 18.33333, "lat": 39.883331}}, {"id": 2524063, "name": "Montesano Salentino", "state": "", "country": "IT", "coord": {"lon": 18.32143, "lat": 39.97562}}, {"id": 2524064, "name": "Monterosso Almo", "state": "", "country": "IT", "coord": {"lon": 14.76459, "lat": 37.089642}}, {"id": 2524065, "name": "Monterosso Calabro", "state": "", "country": "IT", "coord": {"lon": 16.291, "lat": 38.716881}}, {"id": 2524067, "name": "Montepaone", "state": "", "country": "IT", "coord": {"lon": 16.4972, "lat": 38.72258}}, {"id": 2524069, "name": "Montemaggiore Belsito", "state": "", "country": "IT", "coord": {"lon": 13.76126, "lat": 37.846451}}, {"id": 2524070, "name": "Montelepre", "state": "", "country": "IT", "coord": {"lon": 13.17434, "lat": 38.09045}}, {"id": 2524071, "name": "Montedoro", "state": "", "country": "IT", "coord": {"lon": 13.81676, "lat": 37.453239}}, {"id": 2524072, "name": "Montebello Jonico", "state": "", "country": "IT", "coord": {"lon": 15.758, "lat": 37.982769}}, {"id": 2524074, "name": "Montauro", "state": "", "country": "IT", "coord": {"lon": 16.513201, "lat": 38.74868}}, {"id": 2524076, "name": "Montalto Uffugo", "state": "", "country": "IT", "coord": {"lon": 16.15799, "lat": 39.4048}}, {"id": 2524078, "name": "Montallegro", "state": "", "country": "IT", "coord": {"lon": 13.35075, "lat": 37.392941}}, {"id": 2524079, "name": "Montalbano Elicona", "state": "", "country": "IT", "coord": {"lon": 15.01268, "lat": 38.024658}}, {"id": 2524080, "name": "Montagnareale", "state": "", "country": "IT", "coord": {"lon": 14.94658, "lat": 38.13216}}, {"id": 2524084, "name": "Monserrato", "state": "", "country": "IT", "coord": {"lon": 9.13972, "lat": 39.256111}}, {"id": 2524085, "name": "Monreale", "state": "", "country": "IT", "coord": {"lon": 13.28854, "lat": 38.080051}}, {"id": 2524086, "name": "Mongrassano", "state": "", "country": "IT", "coord": {"lon": 16.11059, "lat": 39.526901}}, {"id": 2524088, "name": "Mongiuffi Melia", "state": "", "country": "IT", "coord": {"lon": 15.27539, "lat": 37.903358}}, {"id": 2524090, "name": "Mongiana", "state": "", "country": "IT", "coord": {"lon": 16.3195, "lat": 38.512878}}, {"id": 2524093, "name": "Monforte San Giorgio", "state": "", "country": "IT", "coord": {"lon": 15.38129, "lat": 38.156471}}, {"id": 2524096, "name": "Monastir", "state": "", "country": "IT", "coord": {"lon": 9.04389, "lat": 39.386108}}, {"id": 2524097, "name": "Monasterace", "state": "", "country": "IT", "coord": {"lon": 16.55201, "lat": 38.453678}}, {"id": 2524100, "name": "Molochio", "state": "", "country": "IT", "coord": {"lon": 16.029301, "lat": 38.307171}}, {"id": 2524114, "name": "Moio Alcantara", "state": "", "country": "IT", "coord": {"lon": 15.05148, "lat": 37.900059}}, {"id": 2524116, "name": "Mogoro", "state": "", "country": "IT", "coord": {"lon": 8.77694, "lat": 39.685558}}, {"id": 2524117, "name": "Mogorella", "state": "", "country": "IT", "coord": {"lon": 8.85722, "lat": 39.865829}}, {"id": 2524119, "name": "Modica", "state": "", "country": "IT", "coord": {"lon": 14.77399, "lat": 36.84594}}, {"id": 2524122, "name": "Mistretta", "state": "", "country": "IT", "coord": {"lon": 14.35747, "lat": 37.927059}}, {"id": 2524123, "name": "Misterbianco", "state": "", "country": "IT", "coord": {"lon": 15.03089, "lat": 37.51815}}, {"id": 2524126, "name": "Misilmeri", "state": "", "country": "IT", "coord": {"lon": 13.45175, "lat": 38.033852}}, {"id": 2524131, "name": "Mirto", "state": "", "country": "IT", "coord": {"lon": 14.75148, "lat": 38.08466}}, {"id": 2524135, "name": "Mirabella Imbaccari", "state": "", "country": "IT", "coord": {"lon": 14.44628, "lat": 37.327541}}, {"id": 2524142, "name": "Mineo", "state": "", "country": "IT", "coord": {"lon": 14.69008, "lat": 37.26535}}, {"id": 2524143, "name": "Milo", "state": "", "country": "IT", "coord": {"lon": 15.11589, "lat": 37.723259}}, {"id": 2524144, "name": "Militello Rosmarino", "state": "", "country": "IT", "coord": {"lon": 14.67647, "lat": 38.046162}}, {"id": 2524145, "name": "Militello in Val di Catania", "state": "", "country": "IT", "coord": {"lon": 14.79338, "lat": 37.274849}}, {"id": 2524151, "name": "Mileto", "state": "", "country": "IT", "coord": {"lon": 16.069599, "lat": 38.609581}}, {"id": 2524152, "name": "Milena", "state": "", "country": "IT", "coord": {"lon": 13.73516, "lat": 37.469639}}, {"id": 2524155, "name": "Milazzo", "state": "", "country": "IT", "coord": {"lon": 15.23828, "lat": 38.221169}}, {"id": 2524158, "name": "Miglierina", "state": "", "country": "IT", "coord": {"lon": 16.471201, "lat": 38.951988}}, {"id": 2524160, "name": "Miggiano", "state": "", "country": "IT", "coord": {"lon": 18.31163, "lat": 39.959721}}, {"id": 2524163, "name": "Mezzojuso", "state": "", "country": "IT", "coord": {"lon": 13.46465, "lat": 37.864449}}, {"id": 2524169, "name": "Messina", "state": "", "country": "IT", "coord": {"lon": 14.86667, "lat": 38.049999}}, {"id": 2524170, "name": "Messina", "state": "", "country": "IT", "coord": {"lon": 15.54969, "lat": 38.193272}}, {"id": 2524172, "name": "Mesoraca", "state": "", "country": "IT", "coord": {"lon": 16.78891, "lat": 39.07679}}, {"id": 2524175, "name": "Mer\u00ec", "state": "", "country": "IT", "coord": {"lon": 15.24988, "lat": 38.165859}}, {"id": 2524179, "name": "Menfi", "state": "", "country": "IT", "coord": {"lon": 12.96784, "lat": 37.60664}}, {"id": 2524180, "name": "Mendicino", "state": "", "country": "IT", "coord": {"lon": 16.19599, "lat": 39.263592}}, {"id": 2524181, "name": "Melito di Porto Salvo", "state": "", "country": "IT", "coord": {"lon": 15.7714, "lat": 37.922161}}, {"id": 2524184, "name": "Melissano", "state": "", "country": "IT", "coord": {"lon": 18.121429, "lat": 39.974018}}, {"id": 2524185, "name": "Melissa", "state": "", "country": "IT", "coord": {"lon": 17.02981, "lat": 39.308601}}, {"id": 2524186, "name": "Melilli", "state": "", "country": "IT", "coord": {"lon": 15.12549, "lat": 37.179649}}, {"id": 2524188, "name": "Melicucco", "state": "", "country": "IT", "coord": {"lon": 16.0599, "lat": 38.433979}}, {"id": 2524189, "name": "Melicucc\u00e0", "state": "", "country": "IT", "coord": {"lon": 16.16667, "lat": 38.549999}}, {"id": 2524190, "name": "Melicucc\u00e0", "state": "", "country": "IT", "coord": {"lon": 15.8813, "lat": 38.303768}}, {"id": 2524197, "name": "Meana Sardo", "state": "", "country": "IT", "coord": {"lon": 9.07222, "lat": 39.945831}}, {"id": 2524199, "name": "Mazzarr\u00e0 Sant'Andrea", "state": "", "country": "IT", "coord": {"lon": 15.13358, "lat": 38.088459}}, {"id": 2524200, "name": "Mazzarino", "state": "", "country": "IT", "coord": {"lon": 14.21407, "lat": 37.30434}}, {"id": 2524205, "name": "Mazara del Vallo", "state": "", "country": "IT", "coord": {"lon": 12.58804, "lat": 37.664139}}, {"id": 2524208, "name": "Maracalagonis", "state": "", "country": "IT", "coord": {"lon": 9.2275, "lat": 39.28722}}, {"id": 2524209, "name": "Masullas", "state": "", "country": "IT", "coord": {"lon": 8.785, "lat": 39.701939}}, {"id": 2524236, "name": "Mascalucia", "state": "", "country": "IT", "coord": {"lon": 15.02989, "lat": 37.592152}}, {"id": 2524237, "name": "Mascali", "state": "", "country": "IT", "coord": {"lon": 15.19589, "lat": 37.75576}}, {"id": 2524238, "name": "Masainas", "state": "", "country": "IT", "coord": {"lon": 8.62944, "lat": 39.048061}}, {"id": 2524239, "name": "Marzi", "state": "", "country": "IT", "coord": {"lon": 16.3064, "lat": 39.170792}}, {"id": 2524241, "name": "Martone", "state": "", "country": "IT", "coord": {"lon": 16.2883, "lat": 38.353981}}, {"id": 2524242, "name": "Martirano Lombardo", "state": "", "country": "IT", "coord": {"lon": 16.232, "lat": 39.074692}}, {"id": 2524243, "name": "Martirano", "state": "", "country": "IT", "coord": {"lon": 16.248301, "lat": 39.081188}}, {"id": 2524245, "name": "Marsala", "state": "", "country": "IT", "coord": {"lon": 12.43518, "lat": 37.796638}}, {"id": 2524246, "name": "Marrubiu", "state": "", "country": "IT", "coord": {"lon": 8.6375, "lat": 39.750561}}, {"id": 2524255, "name": "Marineo", "state": "", "country": "IT", "coord": {"lon": 13.41685, "lat": 37.949951}}, {"id": 2524258, "name": "Marina di Schiavonea", "state": "", "country": "IT", "coord": {"lon": 16.533331, "lat": 39.650002}}, {"id": 2524263, "name": "Marina di Ragusa", "state": "", "country": "IT", "coord": {"lon": 14.55, "lat": 36.783329}}, {"id": 2524266, "name": "Marina di Gioiosa Ionica", "state": "", "country": "IT", "coord": {"lon": 16.32061, "lat": 38.307281}}, {"id": 2524269, "name": "Marina di Catanzaro", "state": "", "country": "IT", "coord": {"lon": 16.6, "lat": 38.816669}}, {"id": 2524274, "name": "Marina", "state": "", "country": "IT", "coord": {"lon": 14.95, "lat": 38.466671}}, {"id": 2524275, "name": "Marianopoli", "state": "", "country": "IT", "coord": {"lon": 13.91576, "lat": 37.59745}}, {"id": 2524282, "name": "Marcellinara", "state": "", "country": "IT", "coord": {"lon": 16.4849, "lat": 38.924992}}, {"id": 2524283, "name": "Marcedusa", "state": "", "country": "IT", "coord": {"lon": 16.836309, "lat": 39.02779}}, {"id": 2524287, "name": "Maratea", "state": "", "country": "IT", "coord": {"lon": 15.72237, "lat": 39.9967}}, {"id": 2524289, "name": "Marano Principato", "state": "", "country": "IT", "coord": {"lon": 16.175091, "lat": 39.299591}}, {"id": 2524290, "name": "Marano Marchesato", "state": "", "country": "IT", "coord": {"lon": 16.17379, "lat": 39.31599}}, {"id": 2524300, "name": "Mangone", "state": "", "country": "IT", "coord": {"lon": 16.332001, "lat": 39.205589}}, {"id": 2524305, "name": "Mandatoriccio", "state": "", "country": "IT", "coord": {"lon": 16.834801, "lat": 39.467201}}, {"id": 2524306, "name": "Mandas", "state": "", "country": "IT", "coord": {"lon": 9.12556, "lat": 39.65472}}, {"id": 2524310, "name": "Mandanici", "state": "", "country": "IT", "coord": {"lon": 15.31669, "lat": 38.003559}}, {"id": 2524311, "name": "Mammola", "state": "", "country": "IT", "coord": {"lon": 16.239401, "lat": 38.363579}}, {"id": 2524312, "name": "Malvito", "state": "", "country": "IT", "coord": {"lon": 16.05328, "lat": 39.599701}}, {"id": 2524313, "name": "Malvagna", "state": "", "country": "IT", "coord": {"lon": 15.05548, "lat": 37.917519}}, {"id": 2524319, "name": "Malito", "state": "", "country": "IT", "coord": {"lon": 16.2486, "lat": 39.154991}}, {"id": 2524321, "name": "Malfa", "state": "", "country": "IT", "coord": {"lon": 14.83547, "lat": 38.57597}}, {"id": 2524322, "name": "Maletto", "state": "", "country": "IT", "coord": {"lon": 14.86248, "lat": 37.82996}}, {"id": 2524328, "name": "Maierato", "state": "", "country": "IT", "coord": {"lon": 16.186501, "lat": 38.707779}}, {"id": 2524329, "name": "Maier\u00e0", "state": "", "country": "IT", "coord": {"lon": 15.85078, "lat": 39.716801}}, {"id": 2524331, "name": "Maida", "state": "", "country": "IT", "coord": {"lon": 16.363001, "lat": 38.860191}}, {"id": 2524335, "name": "Magisano", "state": "", "country": "IT", "coord": {"lon": 16.627899, "lat": 39.01339}}, {"id": 2524352, "name": "Luzzi", "state": "", "country": "IT", "coord": {"lon": 16.28829, "lat": 39.446098}}, {"id": 2524354, "name": "Locogrande", "state": "", "country": "IT", "coord": {"lon": 12.51154, "lat": 37.925781}}, {"id": 2524356, "name": "Lungro", "state": "", "country": "IT", "coord": {"lon": 16.12458, "lat": 39.7383}}, {"id": 2524357, "name": "Lunamatrona", "state": "", "country": "IT", "coord": {"lon": 8.9, "lat": 39.648891}}, {"id": 2524361, "name": "Lucca Sicula", "state": "", "country": "IT", "coord": {"lon": 13.30695, "lat": 37.579441}}, {"id": 2524363, "name": "Lotzorai", "state": "", "country": "IT", "coord": {"lon": 9.66083, "lat": 39.970001}}, {"id": 2524367, "name": "Longobucco", "state": "", "country": "IT", "coord": {"lon": 16.6105, "lat": 39.448299}}, {"id": 2524368, "name": "Longobardi", "state": "", "country": "IT", "coord": {"lon": 16.07649, "lat": 39.207088}}, {"id": 2524369, "name": "Longi", "state": "", "country": "IT", "coord": {"lon": 14.75228, "lat": 38.027359}}, {"id": 2524371, "name": "Locri", "state": "", "country": "IT", "coord": {"lon": 16.2623, "lat": 38.241371}}, {"id": 2524372, "name": "Loceri", "state": "", "country": "IT", "coord": {"lon": 9.58083, "lat": 39.855282}}, {"id": 2524379, "name": "Lipari", "state": "", "country": "IT", "coord": {"lon": 14.95398, "lat": 38.46743}}, {"id": 2524382, "name": "Linguaglossa", "state": "", "country": "IT", "coord": {"lon": 15.13878, "lat": 37.843159}}, {"id": 2524388, "name": "Limbadi-Caroni", "state": "", "country": "IT", "coord": {"lon": 15.9659, "lat": 38.55748}}, {"id": 2524392, "name": "Licodia Eubea", "state": "", "country": "IT", "coord": {"lon": 14.70608, "lat": 37.157139}}, {"id": 2524393, "name": "Licata", "state": "", "country": "IT", "coord": {"lon": 13.94607, "lat": 37.10714}}, {"id": 2524394, "name": "Librizzi", "state": "", "country": "IT", "coord": {"lon": 14.95818, "lat": 38.09576}}, {"id": 2524400, "name": "Letojanni", "state": "", "country": "IT", "coord": {"lon": 15.31919, "lat": 37.892658}}, {"id": 2524402, "name": "Lercara Friddi", "state": "", "country": "IT", "coord": {"lon": 13.60485, "lat": 37.746948}}, {"id": 2524404, "name": "Leonforte", "state": "", "country": "IT", "coord": {"lon": 14.40067, "lat": 37.644348}}, {"id": 2524410, "name": "Lentini", "state": "", "country": "IT", "coord": {"lon": 14.99959, "lat": 37.28545}}, {"id": 2524413, "name": "Leni", "state": "", "country": "IT", "coord": {"lon": 14.82547, "lat": 38.55447}}, {"id": 2524429, "name": "Laurignano", "state": "", "country": "IT", "coord": {"lon": 16.23333, "lat": 39.26667}}, {"id": 2524430, "name": "Laureana di Borrello", "state": "", "country": "IT", "coord": {"lon": 16.0821, "lat": 38.49258}}, {"id": 2524431, "name": "Lattarico", "state": "", "country": "IT", "coord": {"lon": 16.129089, "lat": 39.449902}}, {"id": 2524435, "name": "Las Plassas", "state": "", "country": "IT", "coord": {"lon": 8.98611, "lat": 39.680828}}, {"id": 2524438, "name": "Lascari", "state": "", "country": "IT", "coord": {"lon": 13.94146, "lat": 38.00005}}, {"id": 2524446, "name": "Lappano", "state": "", "country": "IT", "coord": {"lon": 16.312691, "lat": 39.31979}}, {"id": 2524454, "name": "Lanusei", "state": "", "country": "IT", "coord": {"lon": 9.54167, "lat": 39.875832}}, {"id": 2524459, "name": "Lampedusa", "state": "", "country": "IT", "coord": {"lon": 12.6, "lat": 35.5}}, {"id": 2524465, "name": "Laino Castello-Nuovo Centro", "state": "", "country": "IT", "coord": {"lon": 15.97658, "lat": 39.936298}}, {"id": 2524466, "name": "Laino Borgo", "state": "", "country": "IT", "coord": {"lon": 15.97348, "lat": 39.9543}}, {"id": 2524468, "name": "Lago", "state": "", "country": "IT", "coord": {"lon": 16.150591, "lat": 39.169392}}, {"id": 2524470, "name": "Laganadi", "state": "", "country": "IT", "coord": {"lon": 15.7414, "lat": 38.17337}}, {"id": 2524479, "name": "Laconi", "state": "", "country": "IT", "coord": {"lon": 9.05167, "lat": 39.854721}}, {"id": 2524492, "name": "Itala", "state": "", "country": "IT", "coord": {"lon": 15.43799, "lat": 38.051159}}, {"id": 2524493, "name": "Ispica", "state": "", "country": "IT", "coord": {"lon": 14.90629, "lat": 36.784439}}, {"id": 2524494, "name": "Isola delle Femmine", "state": "", "country": "IT", "coord": {"lon": 13.24884, "lat": 38.193451}}, {"id": 2524495, "name": "Isola di Capo Rizzuto", "state": "", "country": "IT", "coord": {"lon": 17.093321, "lat": 38.959991}}, {"id": 2524496, "name": "Isnello", "state": "", "country": "IT", "coord": {"lon": 14.00576, "lat": 37.943951}}, {"id": 2524498, "name": "Isili", "state": "", "country": "IT", "coord": {"lon": 9.10611, "lat": 39.739719}}, {"id": 2524501, "name": "Isca sullo Ionio", "state": "", "country": "IT", "coord": {"lon": 16.519609, "lat": 38.60128}}, {"id": 2524506, "name": "Joppolo Giancaxio", "state": "", "country": "IT", "coord": {"lon": 13.55526, "lat": 37.387039}}, {"id": 2524524, "name": "Il Pagliarone", "state": "", "country": "IT", "coord": {"lon": 16.25, "lat": 38.900002}}, {"id": 2524530, "name": "Ilbono", "state": "", "country": "IT", "coord": {"lon": 9.54556, "lat": 39.894718}}, {"id": 2524533, "name": "Iglesias", "state": "", "country": "IT", "coord": {"lon": 8.535, "lat": 39.31139}}, {"id": 2524534, "name": "Jerzu", "state": "", "country": "IT", "coord": {"lon": 9.51694, "lat": 39.791939}}, {"id": 2524546, "name": "Guspini", "state": "", "country": "IT", "coord": {"lon": 8.62944, "lat": 39.540562}}, {"id": 2524551, "name": "Guasila", "state": "", "country": "IT", "coord": {"lon": 9.04694, "lat": 39.5625}}, {"id": 2524553, "name": "Aprigliano", "state": "", "country": "IT", "coord": {"lon": 16.341801, "lat": 39.241692}}, {"id": 2524554, "name": "Guardia Piemontese", "state": "", "country": "IT", "coord": {"lon": 15.99929, "lat": 39.466202}}, {"id": 2524557, "name": "Guardavalle", "state": "", "country": "IT", "coord": {"lon": 16.50351, "lat": 38.504978}}, {"id": 2524558, "name": "Guamaggiore", "state": "", "country": "IT", "coord": {"lon": 9.07333, "lat": 39.57}}, {"id": 2524560, "name": "Grotteria", "state": "", "country": "IT", "coord": {"lon": 16.2649, "lat": 38.365479}}, {"id": 2524561, "name": "Grotte", "state": "", "country": "IT", "coord": {"lon": 13.70016, "lat": 37.40464}}, {"id": 2524564, "name": "Grisolia", "state": "", "country": "IT", "coord": {"lon": 15.85418, "lat": 39.724499}}, {"id": 2524566, "name": "Grimaldi", "state": "", "country": "IT", "coord": {"lon": 16.235689, "lat": 39.141991}}, {"id": 2524572, "name": "Gratteri", "state": "", "country": "IT", "coord": {"lon": 13.97226, "lat": 37.965549}}, {"id": 2524583, "name": "Grammichele", "state": "", "country": "IT", "coord": {"lon": 14.63968, "lat": 37.212341}}, {"id": 2524585, "name": "Gonnostramatza", "state": "", "country": "IT", "coord": {"lon": 8.83639, "lat": 39.683331}}, {"id": 2524586, "name": "Gonnosn\u00f2", "state": "", "country": "IT", "coord": {"lon": 8.87333, "lat": 39.761669}}, {"id": 2524587, "name": "Gonnosfanadiga", "state": "", "country": "IT", "coord": {"lon": 8.66, "lat": 39.49361}}, {"id": 2524588, "name": "Gonnoscodina", "state": "", "country": "IT", "coord": {"lon": 8.83722, "lat": 39.700001}}, {"id": 2524589, "name": "Gonnesa", "state": "", "country": "IT", "coord": {"lon": 8.47111, "lat": 39.265282}}, {"id": 2524590, "name": "Goni", "state": "", "country": "IT", "coord": {"lon": 9.28806, "lat": 39.577499}}, {"id": 2524592, "name": "Godrano", "state": "", "country": "IT", "coord": {"lon": 13.42925, "lat": 37.903351}}, {"id": 2524593, "name": "Gizzeria", "state": "", "country": "IT", "coord": {"lon": 16.2033, "lat": 38.979988}}, {"id": 2524598, "name": "Giuliana", "state": "", "country": "IT", "coord": {"lon": 13.23695, "lat": 37.673439}}, {"id": 2524600, "name": "Girifalco", "state": "", "country": "IT", "coord": {"lon": 16.424101, "lat": 38.82428}}, {"id": 2524602, "name": "Girasole", "state": "", "country": "IT", "coord": {"lon": 9.66111, "lat": 39.952499}}, {"id": 2524604, "name": "Gioiosa Marea", "state": "", "country": "IT", "coord": {"lon": 14.89558, "lat": 38.17276}}, {"id": 2524605, "name": "Gioiosa Ionica", "state": "", "country": "IT", "coord": {"lon": 16.302601, "lat": 38.322182}}, {"id": 2524606, "name": "Gioia Tauro", "state": "", "country": "IT", "coord": {"lon": 15.899, "lat": 38.423969}}, {"id": 2524610, "name": "Gimigliano", "state": "", "country": "IT", "coord": {"lon": 16.5305, "lat": 38.974491}}, {"id": 2524613, "name": "Giffone", "state": "", "country": "IT", "coord": {"lon": 16.15, "lat": 38.438179}}, {"id": 2524614, "name": "Nuova Gibellina", "state": "", "country": "IT", "coord": {"lon": 12.86954, "lat": 37.807041}}, {"id": 2524617, "name": "Giba", "state": "", "country": "IT", "coord": {"lon": 8.63444, "lat": 39.07}}, {"id": 2524618, "name": "Giarre", "state": "", "country": "IT", "coord": {"lon": 15.18769, "lat": 37.72686}}, {"id": 2524619, "name": "Giarratana", "state": "", "country": "IT", "coord": {"lon": 14.79419, "lat": 37.048641}}, {"id": 2524622, "name": "Giardini-Naxos", "state": "", "country": "IT", "coord": {"lon": 15.26713, "lat": 37.827549}}, {"id": 2524624, "name": "Giardinello", "state": "", "country": "IT", "coord": {"lon": 13.15704, "lat": 38.088051}}, {"id": 2524633, "name": "Gesturi", "state": "", "country": "IT", "coord": {"lon": 9.02054, "lat": 39.73415}}, {"id": 2524635, "name": "Gesico", "state": "", "country": "IT", "coord": {"lon": 9.10667, "lat": 39.616669}}, {"id": 2524636, "name": "Gergei", "state": "", "country": "IT", "coord": {"lon": 9.10139, "lat": 39.700279}}, {"id": 2524641, "name": "Geraci Siculo", "state": "", "country": "IT", "coord": {"lon": 14.15356, "lat": 37.859749}}, {"id": 2524643, "name": "Gerace", "state": "", "country": "IT", "coord": {"lon": 16.220699, "lat": 38.27137}}, {"id": 2524644, "name": "Genuri", "state": "", "country": "IT", "coord": {"lon": 8.92417, "lat": 39.746391}}, {"id": 2524646, "name": "Genoni", "state": "", "country": "IT", "coord": {"lon": 9.00667, "lat": 39.794998}}, {"id": 2524653, "name": "Gela", "state": "", "country": "IT", "coord": {"lon": 14.23068, "lat": 37.080341}}, {"id": 2524656, "name": "Gasperina", "state": "", "country": "IT", "coord": {"lon": 16.5061, "lat": 38.740879}}, {"id": 2524661, "name": "Gangi", "state": "", "country": "IT", "coord": {"lon": 14.20437, "lat": 37.79565}}, {"id": 2524665, "name": "Gallodoro", "state": "", "country": "IT", "coord": {"lon": 15.29359, "lat": 37.902061}}, {"id": 2524677, "name": "Galatro", "state": "", "country": "IT", "coord": {"lon": 16.1106, "lat": 38.460381}}, {"id": 2524679, "name": "Galati Mamertino", "state": "", "country": "IT", "coord": {"lon": 14.77088, "lat": 38.03196}}, {"id": 2524683, "name": "Gairo Sant'Elena", "state": "", "country": "IT", "coord": {"lon": 9.50472, "lat": 39.84972}}, {"id": 2524685, "name": "Gagliano del Capo", "state": "", "country": "IT", "coord": {"lon": 18.36953, "lat": 39.844219}}, {"id": 2524686, "name": "Gagliano Castelferrato", "state": "", "country": "IT", "coord": {"lon": 14.53677, "lat": 37.711948}}, {"id": 2524688, "name": "Gaggi", "state": "", "country": "IT", "coord": {"lon": 15.22126, "lat": 37.859951}}, {"id": 2524690, "name": "Gadoni", "state": "", "country": "IT", "coord": {"lon": 9.18444, "lat": 39.91111}}, {"id": 2524691, "name": "Fuscaldo", "state": "", "country": "IT", "coord": {"lon": 16.029791, "lat": 39.414291}}, {"id": 2524692, "name": "Furtei", "state": "", "country": "IT", "coord": {"lon": 8.94861, "lat": 39.563061}}, {"id": 2524694, "name": "Furci Siculo", "state": "", "country": "IT", "coord": {"lon": 15.37939, "lat": 37.960361}}, {"id": 2524696, "name": "Fronte Aguglieri", "state": "", "country": "IT", "coord": {"lon": 16.15, "lat": 39.033329}}, {"id": 2524698, "name": "Frazzan\u00f2", "state": "", "country": "IT", "coord": {"lon": 14.74228, "lat": 38.073059}}, {"id": 2524702, "name": "Frascineto", "state": "", "country": "IT", "coord": {"lon": 16.26199, "lat": 39.836399}}, {"id": 2524704, "name": "Francofonte", "state": "", "country": "IT", "coord": {"lon": 14.88059, "lat": 37.226452}}, {"id": 2524705, "name": "Francica", "state": "", "country": "IT", "coord": {"lon": 16.0993, "lat": 38.615681}}, {"id": 2524706, "name": "Francavilla Marittima", "state": "", "country": "IT", "coord": {"lon": 16.394991, "lat": 39.816101}}, {"id": 2524707, "name": "Francavilla di Sicilia", "state": "", "country": "IT", "coord": {"lon": 15.13748, "lat": 37.901859}}, {"id": 2524708, "name": "Francavilla Angitola", "state": "", "country": "IT", "coord": {"lon": 16.2717, "lat": 38.780182}}, {"id": 2524713, "name": "Fossato Serralta", "state": "", "country": "IT", "coord": {"lon": 16.579599, "lat": 38.996288}}, {"id": 2524715, "name": "Forza d'Agr\u00f2", "state": "", "country": "IT", "coord": {"lon": 15.33469, "lat": 37.914761}}, {"id": 2524720, "name": "Fordongianus", "state": "", "country": "IT", "coord": {"lon": 8.81028, "lat": 39.995831}}, {"id": 2524731, "name": "Fluminimaggiore", "state": "", "country": "IT", "coord": {"lon": 8.49639, "lat": 39.43972}}, {"id": 2524734, "name": "Floridia", "state": "", "country": "IT", "coord": {"lon": 15.15189, "lat": 37.086948}}, {"id": 2524735, "name": "Floresta", "state": "", "country": "IT", "coord": {"lon": 14.91018, "lat": 37.98756}}, {"id": 2524742, "name": "Fiumefreddo Sicilia", "state": "", "country": "IT", "coord": {"lon": 15.20919, "lat": 37.791458}}, {"id": 2524743, "name": "Fiumefreddo Bruzio", "state": "", "country": "IT", "coord": {"lon": 16.06959, "lat": 39.23439}}, {"id": 2524745, "name": "Fiumedinisi", "state": "", "country": "IT", "coord": {"lon": 15.38099, "lat": 38.025959}}, {"id": 2524749, "name": "Firmo", "state": "", "country": "IT", "coord": {"lon": 16.170191, "lat": 39.721401}}, {"id": 2524751, "name": "Filogaso", "state": "", "country": "IT", "coord": {"lon": 16.228701, "lat": 38.68148}}, {"id": 2524758, "name": "Filadelfia", "state": "", "country": "IT", "coord": {"lon": 16.292, "lat": 38.784679}}, {"id": 2524764, "name": "Ficarra", "state": "", "country": "IT", "coord": {"lon": 14.82898, "lat": 38.109058}}, {"id": 2524765, "name": "Ficarazzi", "state": "", "country": "IT", "coord": {"lon": 13.46805, "lat": 38.089748}}, {"id": 2524769, "name": "Ferruzzano", "state": "", "country": "IT", "coord": {"lon": 16.0877, "lat": 38.037769}}, {"id": 2524774, "name": "Feroleto della Chiesa", "state": "", "country": "IT", "coord": {"lon": 16.064199, "lat": 38.465778}}, {"id": 2524775, "name": "Ferla", "state": "", "country": "IT", "coord": {"lon": 14.93959, "lat": 37.120541}}, {"id": 2524777, "name": "Felline", "state": "", "country": "IT", "coord": {"lon": 18.116671, "lat": 39.933331}}, {"id": 2524780, "name": "Favignana", "state": "", "country": "IT", "coord": {"lon": 12.32853, "lat": 37.930038}}, {"id": 2524786, "name": "Favara", "state": "", "country": "IT", "coord": {"lon": 13.66226, "lat": 37.317539}}, {"id": 2524800, "name": "Falerna", "state": "", "country": "IT", "coord": {"lon": 16.1707, "lat": 39.002491}}, {"id": 2524801, "name": "Falcone", "state": "", "country": "IT", "coord": {"lon": 15.07908, "lat": 38.117062}}, {"id": 2524802, "name": "Falconara Albanese", "state": "", "country": "IT", "coord": {"lon": 16.091789, "lat": 39.27589}}, {"id": 2524805, "name": "Fagnano Castello", "state": "", "country": "IT", "coord": {"lon": 16.05369, "lat": 39.565701}}, {"id": 2524808, "name": "Fabrizia", "state": "", "country": "IT", "coord": {"lon": 16.301001, "lat": 38.48708}}, {"id": 2524811, "name": "Esterzili", "state": "", "country": "IT", "coord": {"lon": 9.28694, "lat": 39.78194}}, {"id": 2524813, "name": "Escolca", "state": "", "country": "IT", "coord": {"lon": 9.12139, "lat": 39.698608}}, {"id": 2524814, "name": "Escalaplano", "state": "", "country": "IT", "coord": {"lon": 9.35222, "lat": 39.624439}}, {"id": 2524815, "name": "Erice", "state": "", "country": "IT", "coord": {"lon": 12.58653, "lat": 38.037041}}, {"id": 2524818, "name": "Enna", "state": "", "country": "IT", "coord": {"lon": 14.43333, "lat": 37.583328}}, {"id": 2524819, "name": "Enna", "state": "", "country": "IT", "coord": {"lon": 14.28917, "lat": 37.558849}}, {"id": 2524820, "name": "Elmas", "state": "", "country": "IT", "coord": {"lon": 9.05167, "lat": 39.266941}}, {"id": 2524821, "name": "Elini", "state": "", "country": "IT", "coord": {"lon": 9.52944, "lat": 39.899719}}, {"id": 2524829, "name": "Drapia", "state": "", "country": "IT", "coord": {"lon": 15.91159, "lat": 38.665581}}, {"id": 2524831, "name": "Donor\u00ec", "state": "", "country": "IT", "coord": {"lon": 9.12722, "lat": 39.43306}}, {"id": 2524841, "name": "Domusnovas", "state": "", "country": "IT", "coord": {"lon": 8.64861, "lat": 39.321941}}, {"id": 2524842, "name": "Domus de Maria", "state": "", "country": "IT", "coord": {"lon": 8.86354, "lat": 38.944031}}, {"id": 2524843, "name": "Domanico", "state": "", "country": "IT", "coord": {"lon": 16.206091, "lat": 39.219688}}, {"id": 2524844, "name": "Dolianova", "state": "", "country": "IT", "coord": {"lon": 9.17583, "lat": 39.377781}}, {"id": 2524849, "name": "Diso", "state": "", "country": "IT", "coord": {"lon": 18.39253, "lat": 40.009521}}, {"id": 2524850, "name": "Dipignano", "state": "", "country": "IT", "coord": {"lon": 16.25, "lat": 39.25}}, {"id": 2524852, "name": "Dinami", "state": "", "country": "IT", "coord": {"lon": 16.1479, "lat": 38.529678}}, {"id": 2524856, "name": "Diamante", "state": "", "country": "IT", "coord": {"lon": 15.82488, "lat": 39.675999}}, {"id": 2524861, "name": "Delianuova", "state": "", "country": "IT", "coord": {"lon": 15.9178, "lat": 38.23407}}, {"id": 2524862, "name": "Delia", "state": "", "country": "IT", "coord": {"lon": 13.92867, "lat": 37.358742}}, {"id": 2524863, "name": "Decollatura", "state": "", "country": "IT", "coord": {"lon": 16.357531, "lat": 39.046452}}, {"id": 2524864, "name": "Decimoputzu", "state": "", "country": "IT", "coord": {"lon": 8.91556, "lat": 39.335831}}, {"id": 2524865, "name": "Decimomannu", "state": "", "country": "IT", "coord": {"lon": 8.96944, "lat": 39.3125}}, {"id": 2524866, "name": "Davoli", "state": "", "country": "IT", "coord": {"lon": 16.4862, "lat": 38.647381}}, {"id": 2524868, "name": "Das\u00e0", "state": "", "country": "IT", "coord": {"lon": 16.195999, "lat": 38.56488}}, {"id": 2524869, "name": "Cutro", "state": "", "country": "IT", "coord": {"lon": 16.981911, "lat": 39.03529}}, {"id": 2524870, "name": "Custonaci", "state": "", "country": "IT", "coord": {"lon": 12.68753, "lat": 38.07304}}, {"id": 2524872, "name": "Curinga", "state": "", "country": "IT", "coord": {"lon": 16.3134, "lat": 38.82618}}, {"id": 2524873, "name": "Curcuris", "state": "", "country": "IT", "coord": {"lon": 8.83111, "lat": 39.747219}}, {"id": 2524879, "name": "Cuccumella", "state": "", "country": "IT", "coord": {"lon": 14.93333, "lat": 37.366669}}, {"id": 2524880, "name": "Crucoli", "state": "", "country": "IT", "coord": {"lon": 17.00231, "lat": 39.423698}}, {"id": 2524881, "name": "Crotone", "state": "", "country": "IT", "coord": {"lon": 17.117809, "lat": 39.085098}}, {"id": 2524882, "name": "Crosia", "state": "", "country": "IT", "coord": {"lon": 16.7728, "lat": 39.5676}}, {"id": 2524883, "name": "Cropani", "state": "", "country": "IT", "coord": {"lon": 16.781309, "lat": 38.967789}}, {"id": 2524884, "name": "Cropalati", "state": "", "country": "IT", "coord": {"lon": 16.7265, "lat": 39.5172}}, {"id": 2524894, "name": "Crichi", "state": "", "country": "IT", "coord": {"lon": 16.6411, "lat": 38.95499}}, {"id": 2524901, "name": "Cotronei", "state": "", "country": "IT", "coord": {"lon": 16.78091, "lat": 39.158192}}, {"id": 2524904, "name": "Cosoleto", "state": "", "country": "IT", "coord": {"lon": 15.928, "lat": 38.275372}}, {"id": 2524906, "name": "Provincia di Cosenza", "state": "", "country": "IT", "coord": {"lon": 16.41667, "lat": 39.466671}}, {"id": 2524907, "name": "Cosenza", "state": "", "country": "IT", "coord": {"lon": 16.250191, "lat": 39.30999}}, {"id": 2524915, "name": "Cortale", "state": "", "country": "IT", "coord": {"lon": 16.409599, "lat": 38.840092}}, {"id": 2524918, "name": "Corsano", "state": "", "country": "IT", "coord": {"lon": 18.369329, "lat": 39.889221}}, {"id": 2524928, "name": "Corleone", "state": "", "country": "IT", "coord": {"lon": 13.3017, "lat": 37.813381}}, {"id": 2524929, "name": "Corigliano Calabro", "state": "", "country": "IT", "coord": {"lon": 16.5177, "lat": 39.595001}}, {"id": 2524940, "name": "Contessa Entellina", "state": "", "country": "IT", "coord": {"lon": 13.18365, "lat": 37.73064}}, {"id": 2524946, "name": "Condr\u00f2", "state": "", "country": "IT", "coord": {"lon": 15.32679, "lat": 38.17437}}, {"id": 2524949, "name": "Condofuri", "state": "", "country": "IT", "coord": {"lon": 15.8577, "lat": 38.004471}}, {"id": 2524954, "name": "Comitini", "state": "", "country": "IT", "coord": {"lon": 13.64296, "lat": 37.40794}}, {"id": 2524955, "name": "Comiso", "state": "", "country": "IT", "coord": {"lon": 14.61018, "lat": 36.95134}}, {"id": 2524957, "name": "Colosimi", "state": "", "country": "IT", "coord": {"lon": 16.3997, "lat": 39.119091}}, {"id": 2524963, "name": "Collinas", "state": "", "country": "IT", "coord": {"lon": 8.84139, "lat": 39.64278}}, {"id": 2524964, "name": "Collesano", "state": "", "country": "IT", "coord": {"lon": 13.93566, "lat": 37.91835}}, {"id": 2524973, "name": "Cleto", "state": "", "country": "IT", "coord": {"lon": 16.15839, "lat": 39.090191}}, {"id": 2524975, "name": "Civita", "state": "", "country": "IT", "coord": {"lon": 16.31249, "lat": 39.8288}}, {"id": 2524976, "name": "Cittanova", "state": "", "country": "IT", "coord": {"lon": 16.0798, "lat": 38.355171}}, {"id": 2524979, "name": "Cir\u00f2 Marina", "state": "", "country": "IT", "coord": {"lon": 17.126011, "lat": 39.373199}}, {"id": 2524980, "name": "Cir\u00f2", "state": "", "country": "IT", "coord": {"lon": 17.062611, "lat": 39.382401}}, {"id": 2524985, "name": "Cinque Frondi", "state": "", "country": "IT", "coord": {"lon": 16.0842, "lat": 38.41618}}, {"id": 2524987, "name": "Cinisi", "state": "", "country": "IT", "coord": {"lon": 13.10734, "lat": 38.156151}}, {"id": 2524989, "name": "Ciminna", "state": "", "country": "IT", "coord": {"lon": 13.55945, "lat": 37.898251}}, {"id": 2524990, "name": "Cimin\u00e0", "state": "", "country": "IT", "coord": {"lon": 16.1404, "lat": 38.24667}}, {"id": 2524992, "name": "Cicala", "state": "", "country": "IT", "coord": {"lon": 16.486099, "lat": 39.02219}}, {"id": 2524993, "name": "Cibali", "state": "", "country": "IT", "coord": {"lon": 15.06667, "lat": 37.51667}}, {"id": 2524999, "name": "Cianciana", "state": "", "country": "IT", "coord": {"lon": 13.43355, "lat": 37.520241}}, {"id": 2525003, "name": "Chiusa Sclafani", "state": "", "country": "IT", "coord": {"lon": 13.27015, "lat": 37.676941}}, {"id": 2525009, "name": "Chiaravalle Centrale", "state": "", "country": "IT", "coord": {"lon": 16.410601, "lat": 38.680382}}, {"id": 2525010, "name": "Chiaramonte Gulfi", "state": "", "country": "IT", "coord": {"lon": 14.70128, "lat": 37.031342}}, {"id": 2525012, "name": "Cetraro", "state": "", "country": "IT", "coord": {"lon": 15.94158, "lat": 39.516602}}, {"id": 2525014, "name": "Cessaniti", "state": "", "country": "IT", "coord": {"lon": 16.0268, "lat": 38.663681}}, {"id": 2525015, "name": "Cesar\u00f2", "state": "", "country": "IT", "coord": {"lon": 14.71308, "lat": 37.844761}}, {"id": 2525016, "name": "Cerzeto", "state": "", "country": "IT", "coord": {"lon": 16.11499, "lat": 39.507801}}, {"id": 2525017, "name": "Cervicati", "state": "", "country": "IT", "coord": {"lon": 16.12829, "lat": 39.5425}}, {"id": 2525019, "name": "Cerva", "state": "", "country": "IT", "coord": {"lon": 16.74361, "lat": 39.023891}}, {"id": 2525023, "name": "Cerisano", "state": "", "country": "IT", "coord": {"lon": 16.17539, "lat": 39.276089}}, {"id": 2525025, "name": "Cerenzia", "state": "", "country": "IT", "coord": {"lon": 16.781, "lat": 39.2444}}, {"id": 2525026, "name": "Cerda", "state": "", "country": "IT", "coord": {"lon": 13.81436, "lat": 37.905949}}, {"id": 2525027, "name": "Cerchiara di Calabria", "state": "", "country": "IT", "coord": {"lon": 16.38279, "lat": 39.860401}}, {"id": 2525029, "name": "Cerasi", "state": "", "country": "IT", "coord": {"lon": 15.75, "lat": 38.166672}}, {"id": 2525031, "name": "Cerami", "state": "", "country": "IT", "coord": {"lon": 14.50727, "lat": 37.81065}}, {"id": 2525032, "name": "Centuripe", "state": "", "country": "IT", "coord": {"lon": 14.73908, "lat": 37.622952}}, {"id": 2525034, "name": "Centrache", "state": "", "country": "IT", "coord": {"lon": 16.4321, "lat": 38.728981}}, {"id": 2525036, "name": "Cenadi", "state": "", "country": "IT", "coord": {"lon": 16.4172, "lat": 38.719479}}, {"id": 2525037, "name": "Cellara", "state": "", "country": "IT", "coord": {"lon": 16.334801, "lat": 39.218491}}, {"id": 2525038, "name": "Celico", "state": "", "country": "IT", "coord": {"lon": 16.339899, "lat": 39.310089}}, {"id": 2525041, "name": "Cefal\u00f9", "state": "", "country": "IT", "coord": {"lon": 14.02285, "lat": 38.038559}}, {"id": 2525043, "name": "Cefal\u00e0 Diana", "state": "", "country": "IT", "coord": {"lon": 13.46325, "lat": 37.915649}}, {"id": 2525053, "name": "Caulonia", "state": "", "country": "IT", "coord": {"lon": 16.40901, "lat": 38.381378}}, {"id": 2525054, "name": "Cattolica Eraclea", "state": "", "country": "IT", "coord": {"lon": 13.39205, "lat": 37.440842}}, {"id": 2525057, "name": "Catenanuova", "state": "", "country": "IT", "coord": {"lon": 14.69208, "lat": 37.569851}}, {"id": 2525058, "name": "Provincia di Catanzaro", "state": "", "country": "IT", "coord": {"lon": 16.433331, "lat": 38.916672}}, {"id": 2525059, "name": "Catanzaro", "state": "", "country": "IT", "coord": {"lon": 16.5987, "lat": 38.890789}}, {"id": 2525065, "name": "Catania", "state": "", "country": "IT", "coord": {"lon": 14.66667, "lat": 37.383331}}, {"id": 2525068, "name": "Catania", "state": "", "country": "IT", "coord": {"lon": 15.08719, "lat": 37.502129}}, {"id": 2525070, "name": "Castrovillari", "state": "", "country": "IT", "coord": {"lon": 16.21229, "lat": 39.820301}}, {"id": 2525071, "name": "Castroregio", "state": "", "country": "IT", "coord": {"lon": 16.477591, "lat": 39.992409}}, {"id": 2525073, "name": "Castroreale", "state": "", "country": "IT", "coord": {"lon": 15.21018, "lat": 38.099159}}, {"id": 2525074, "name": "Castronuovo di Sicilia", "state": "", "country": "IT", "coord": {"lon": 13.60346, "lat": 37.67894}}, {"id": 2525075, "name": "Castrolibero", "state": "", "country": "IT", "coord": {"lon": 16.194389, "lat": 39.30809}}, {"id": 2525076, "name": "Castrofilippo", "state": "", "country": "IT", "coord": {"lon": 13.75001, "lat": 37.35046}}, {"id": 2525077, "name": "Castrignano del Capo", "state": "", "country": "IT", "coord": {"lon": 18.351231, "lat": 39.832321}}, {"id": 2525079, "name": "Castiglione di Sicilia", "state": "", "country": "IT", "coord": {"lon": 15.12138, "lat": 37.882061}}, {"id": 2525080, "name": "Castiglione Cosentino", "state": "", "country": "IT", "coord": {"lon": 16.289391, "lat": 39.352001}}, {"id": 2525082, "name": "Castiadas", "state": "", "country": "IT", "coord": {"lon": 9.50056, "lat": 39.235561}}, {"id": 2525083, "name": "Castelvetrano", "state": "", "country": "IT", "coord": {"lon": 12.79164, "lat": 37.68264}}, {"id": 2525084, "name": "Casteltermini", "state": "", "country": "IT", "coord": {"lon": 13.64446, "lat": 37.540539}}, {"id": 2525088, "name": "Castell'Umberto", "state": "", "country": "IT", "coord": {"lon": 14.80698, "lat": 38.08506}}, {"id": 2525089, "name": "Castelluccio Inferiore", "state": "", "country": "IT", "coord": {"lon": 15.98088, "lat": 40.003899}}, {"id": 2525093, "name": "Castellana Sicula", "state": "", "country": "IT", "coord": {"lon": 14.03936, "lat": 37.784851}}, {"id": 2525095, "name": "Castellammare del Golfo", "state": "", "country": "IT", "coord": {"lon": 12.88584, "lat": 38.018848}}, {"id": 2525100, "name": "Castel di Lucio", "state": "", "country": "IT", "coord": {"lon": 14.31217, "lat": 37.886452}}, {"id": 2525101, "name": "Castel di Judica", "state": "", "country": "IT", "coord": {"lon": 14.64744, "lat": 37.494751}}, {"id": 2525102, "name": "Casteldaccia", "state": "", "country": "IT", "coord": {"lon": 13.52865, "lat": 38.052551}}, {"id": 2525103, "name": "Castelbuono", "state": "", "country": "IT", "coord": {"lon": 14.08856, "lat": 37.93195}}, {"id": 2525104, "name": "Castanea delle Furie", "state": "", "country": "IT", "coord": {"lon": 15.51667, "lat": 38.25}}, {"id": 2525109, "name": "Cassaro", "state": "", "country": "IT", "coord": {"lon": 14.94789, "lat": 37.10704}}, {"id": 2525110, "name": "Cassano Allo Ionio", "state": "", "country": "IT", "coord": {"lon": 16.31819, "lat": 39.783001}}, {"id": 2525113, "name": "Casole Bruzio", "state": "", "country": "IT", "coord": {"lon": 16.3365, "lat": 39.284389}}, {"id": 2525120, "name": "Casignana", "state": "", "country": "IT", "coord": {"lon": 16.089899, "lat": 38.101871}}, {"id": 2525135, "name": "Caserma di Latro", "state": "", "country": "IT", "coord": {"lon": 16.26667, "lat": 38.533329}}, {"id": 2525152, "name": "Case Levito", "state": "", "country": "IT", "coord": {"lon": 15.35, "lat": 38.133331}}, {"id": 2525207, "name": "Casarano", "state": "", "country": "IT", "coord": {"lon": 18.163031, "lat": 40.015018}}, {"id": 2525218, "name": "Casa Petrusa", "state": "", "country": "IT", "coord": {"lon": 16.549999, "lat": 38.450001}}, {"id": 2525248, "name": "Casa Maio", "state": "", "country": "IT", "coord": {"lon": 16.533331, "lat": 38.76667}}, {"id": 2525251, "name": "Casalvecchio Siculo", "state": "", "country": "IT", "coord": {"lon": 15.32259, "lat": 37.95816}}, {"id": 2525319, "name": "Casa Camigliati", "state": "", "country": "IT", "coord": {"lon": 16.466669, "lat": 39.333328}}, {"id": 2525328, "name": "Casabona", "state": "", "country": "IT", "coord": {"lon": 16.956511, "lat": 39.250301}}, {"id": 2525341, "name": "Carpanzano", "state": "", "country": "IT", "coord": {"lon": 16.303301, "lat": 39.147491}}, {"id": 2525344, "name": "Caronia", "state": "", "country": "IT", "coord": {"lon": 14.44057, "lat": 38.024361}}, {"id": 2525346, "name": "Carolei", "state": "", "country": "IT", "coord": {"lon": 16.220091, "lat": 39.25629}}, {"id": 2525347, "name": "Carlopoli", "state": "", "country": "IT", "coord": {"lon": 16.454901, "lat": 39.05669}}, {"id": 2525348, "name": "Carloforte", "state": "", "country": "IT", "coord": {"lon": 8.30583, "lat": 39.145}}, {"id": 2525349, "name": "Carlentini", "state": "", "country": "IT", "coord": {"lon": 15.01259, "lat": 37.26955}}, {"id": 2525350, "name": "Carini", "state": "", "country": "IT", "coord": {"lon": 13.17764, "lat": 38.156651}}, {"id": 2525352, "name": "Cariati", "state": "", "country": "IT", "coord": {"lon": 16.95941, "lat": 39.492199}}, {"id": 2525354, "name": "Carfizzi", "state": "", "country": "IT", "coord": {"lon": 16.973909, "lat": 39.3074}}, {"id": 2525357, "name": "Careri", "state": "", "country": "IT", "coord": {"lon": 16.1178, "lat": 38.176571}}, {"id": 2525358, "name": "Cardinale", "state": "", "country": "IT", "coord": {"lon": 16.385401, "lat": 38.649479}}, {"id": 2525360, "name": "Cardeto", "state": "", "country": "IT", "coord": {"lon": 15.7666, "lat": 38.084572}}, {"id": 2525362, "name": "Carbonia", "state": "", "country": "IT", "coord": {"lon": 8.52222, "lat": 39.167221}}, {"id": 2525369, "name": "Caraffa di Catanzaro", "state": "", "country": "IT", "coord": {"lon": 16.4856, "lat": 38.88129}}, {"id": 2525370, "name": "Caraffa del Bianco", "state": "", "country": "IT", "coord": {"lon": 16.086399, "lat": 38.09267}}, {"id": 2525373, "name": "Capri Leone", "state": "", "country": "IT", "coord": {"lon": 14.72877, "lat": 38.086262}}, {"id": 2525379, "name": "Capoterra", "state": "", "country": "IT", "coord": {"lon": 8.97111, "lat": 39.174438}}, {"id": 2525381, "name": "Capora-Merendi", "state": "", "country": "IT", "coord": {"lon": 16.25, "lat": 39.216671}}, {"id": 2525384, "name": "Capo d'Orlando", "state": "", "country": "IT", "coord": {"lon": 14.73047, "lat": 38.143459}}, {"id": 2525385, "name": "Dipignano", "state": "", "country": "IT", "coord": {"lon": 16.25309, "lat": 39.237492}}, {"id": 2525387, "name": "Capizzi", "state": "", "country": "IT", "coord": {"lon": 14.47817, "lat": 37.847851}}, {"id": 2525388, "name": "Capistrano", "state": "", "country": "IT", "coord": {"lon": 16.2896, "lat": 38.69228}}, {"id": 2525392, "name": "Capaci", "state": "", "country": "IT", "coord": {"lon": 13.2393, "lat": 38.17107}}, {"id": 2525395, "name": "Canolo", "state": "", "country": "IT", "coord": {"lon": 16.1999, "lat": 38.31498}}, {"id": 2525404, "name": "Canicattini Bagni", "state": "", "country": "IT", "coord": {"lon": 15.06339, "lat": 37.03294}}, {"id": 2525405, "name": "Canicatt\u00ec", "state": "", "country": "IT", "coord": {"lon": 13.85036, "lat": 37.35894}}, {"id": 2525408, "name": "Candidoni", "state": "", "country": "IT", "coord": {"lon": 16.0863, "lat": 38.505482}}, {"id": 2525415, "name": "Camporeale", "state": "", "country": "IT", "coord": {"lon": 13.09384, "lat": 37.897141}}, {"id": 2525421, "name": "Campofranco", "state": "", "country": "IT", "coord": {"lon": 13.71256, "lat": 37.511139}}, {"id": 2525422, "name": "Campofiorito", "state": "", "country": "IT", "coord": {"lon": 13.26875, "lat": 37.753738}}, {"id": 2525423, "name": "Campofelice di Roccella", "state": "", "country": "IT", "coord": {"lon": 13.88536, "lat": 37.99015}}, {"id": 2525424, "name": "Campofelice di Fitalia", "state": "", "country": "IT", "coord": {"lon": 13.48635, "lat": 37.826752}}, {"id": 2525425, "name": "Campobello di Mazara", "state": "", "country": "IT", "coord": {"lon": 12.74434, "lat": 37.635841}}, {"id": 2525426, "name": "Campobello di Licata", "state": "", "country": "IT", "coord": {"lon": 13.91827, "lat": 37.258438}}, {"id": 2525430, "name": "Campana", "state": "", "country": "IT", "coord": {"lon": 16.822201, "lat": 39.413601}}, {"id": 2525433, "name": "Cammarata", "state": "", "country": "IT", "coord": {"lon": 13.63146, "lat": 37.62994}}, {"id": 2525434, "name": "Camini", "state": "", "country": "IT", "coord": {"lon": 16.48271, "lat": 38.432079}}, {"id": 2525441, "name": "Camastra", "state": "", "country": "IT", "coord": {"lon": 13.79476, "lat": 37.25264}}, {"id": 2525445, "name": "Caltavuturo", "state": "", "country": "IT", "coord": {"lon": 13.89016, "lat": 37.82095}}, {"id": 2525447, "name": "Provincia di Caltanissetta", "state": "", "country": "IT", "coord": {"lon": 14.06421, "lat": 37.374481}}, {"id": 2525448, "name": "Caltanissetta", "state": "", "country": "IT", "coord": {"lon": 14.04497, "lat": 37.48774}}, {"id": 2525450, "name": "Caltagirone", "state": "", "country": "IT", "coord": {"lon": 14.5132, "lat": 37.23682}}, {"id": 2525451, "name": "Caltabellotta", "state": "", "country": "IT", "coord": {"lon": 13.21655, "lat": 37.577339}}, {"id": 2525452, "name": "Caloveto", "state": "", "country": "IT", "coord": {"lon": 16.759899, "lat": 39.5051}}, {"id": 2525453, "name": "Caloppezzati", "state": "", "country": "IT", "coord": {"lon": 16.8018, "lat": 39.561199}}, {"id": 2525458, "name": "Calatafimi", "state": "", "country": "IT", "coord": {"lon": 12.86254, "lat": 37.914841}}, {"id": 2525459, "name": "Calatabiano", "state": "", "country": "IT", "coord": {"lon": 15.22799, "lat": 37.820862}}, {"id": 2525460, "name": "Calasetta", "state": "", "country": "IT", "coord": {"lon": 8.36861, "lat": 39.10778}}, {"id": 2525461, "name": "Calascibetta", "state": "", "country": "IT", "coord": {"lon": 14.27067, "lat": 37.590851}}, {"id": 2525464, "name": "Calanna", "state": "", "country": "IT", "coord": {"lon": 15.72309, "lat": 38.18367}}, {"id": 2525465, "name": "Calamonaci", "state": "", "country": "IT", "coord": {"lon": 13.28985, "lat": 37.526138}}, {"id": 2525468, "name": "Calabria", "state": "", "country": "IT", "coord": {"lon": 16.5, "lat": 39.0}}, {"id": 2525471, "name": "Provincia di Cagliari", "state": "", "country": "IT", "coord": {"lon": 9.09119, "lat": 39.245022}}, {"id": 2525473, "name": "Cagliari", "state": "", "country": "IT", "coord": {"lon": 9.13462, "lat": 39.207378}}, {"id": 2525475, "name": "Caccuri", "state": "", "country": "IT", "coord": {"lon": 16.776501, "lat": 39.227001}}, {"id": 2525476, "name": "Caccamo", "state": "", "country": "IT", "coord": {"lon": 13.66495, "lat": 37.932652}}, {"id": 2525478, "name": "Cabras", "state": "", "country": "IT", "coord": {"lon": 8.53139, "lat": 39.93}}, {"id": 2525480, "name": "Butera", "state": "", "country": "IT", "coord": {"lon": 14.18367, "lat": 37.19104}}, {"id": 2525483, "name": "Buscemi", "state": "", "country": "IT", "coord": {"lon": 14.88389, "lat": 37.086842}}, {"id": 2525485, "name": "Burgio", "state": "", "country": "IT", "coord": {"lon": 13.29015, "lat": 37.599442}}, {"id": 2525487, "name": "Burcei", "state": "", "country": "IT", "coord": {"lon": 9.36167, "lat": 39.345829}}, {"id": 2525488, "name": "Buonvicino", "state": "", "country": "IT", "coord": {"lon": 15.88548, "lat": 39.686001}}, {"id": 2525491, "name": "Buggerru", "state": "", "country": "IT", "coord": {"lon": 8.4025, "lat": 39.396671}}, {"id": 2525492, "name": "Buccheri", "state": "", "country": "IT", "coord": {"lon": 14.84989, "lat": 37.125038}}, {"id": 2525493, "name": "Bruzzano Zeffirio", "state": "", "country": "IT", "coord": {"lon": 16.0826, "lat": 38.013271}}, {"id": 2525498, "name": "Bronte", "state": "", "country": "IT", "coord": {"lon": 14.83418, "lat": 37.789459}}, {"id": 2525499, "name": "Brolo", "state": "", "country": "IT", "coord": {"lon": 14.82958, "lat": 38.155361}}, {"id": 2525501, "name": "Briatico", "state": "", "country": "IT", "coord": {"lon": 16.0329, "lat": 38.725979}}, {"id": 2525505, "name": "Brancaleone", "state": "", "country": "IT", "coord": {"lon": 16.100401, "lat": 37.962971}}, {"id": 2525511, "name": "Bova Marina", "state": "", "country": "IT", "coord": {"lon": 15.9175, "lat": 37.93037}}, {"id": 2525512, "name": "Bovalino Superiore", "state": "", "country": "IT", "coord": {"lon": 16.16667, "lat": 38.183331}}, {"id": 2525513, "name": "Bovalino", "state": "", "country": "IT", "coord": {"lon": 16.174, "lat": 38.148972}}, {"id": 2525517, "name": "Botricello", "state": "", "country": "IT", "coord": {"lon": 16.858311, "lat": 38.931992}}, {"id": 2525524, "name": "Borgo San Marco", "state": "", "country": "IT", "coord": {"lon": 15.93333, "lat": 39.51667}}, {"id": 2525525, "name": "Borgia", "state": "", "country": "IT", "coord": {"lon": 16.508801, "lat": 38.826191}}, {"id": 2525526, "name": "Borgetto", "state": "", "country": "IT", "coord": {"lon": 13.14354, "lat": 38.04705}}, {"id": 2525532, "name": "Bonifati", "state": "", "country": "IT", "coord": {"lon": 15.90028, "lat": 39.5853}}, {"id": 2525534, "name": "Bompietro", "state": "", "country": "IT", "coord": {"lon": 14.09296, "lat": 37.744949}}, {"id": 2525535, "name": "Bompensiere", "state": "", "country": "IT", "coord": {"lon": 13.78126, "lat": 37.474339}}, {"id": 2525537, "name": "Bolognetta", "state": "", "country": "IT", "coord": {"lon": 13.45685, "lat": 37.965649}}, {"id": 2525540, "name": "Bocchigliero", "state": "", "country": "IT", "coord": {"lon": 16.749001, "lat": 39.4198}}, {"id": 2525543, "name": "Bivongi", "state": "", "country": "IT", "coord": {"lon": 16.452511, "lat": 38.48328}}, {"id": 2525545, "name": "Bivona", "state": "", "country": "IT", "coord": {"lon": 13.43835, "lat": 37.619339}}, {"id": 2525550, "name": "Bisignano", "state": "", "country": "IT", "coord": {"lon": 16.277189, "lat": 39.505901}}, {"id": 2525552, "name": "Bisacquino", "state": "", "country": "IT", "coord": {"lon": 13.25975, "lat": 37.702438}}, {"id": 2525558, "name": "Bianco", "state": "", "country": "IT", "coord": {"lon": 16.1493, "lat": 38.090672}}, {"id": 2525559, "name": "Bianchi", "state": "", "country": "IT", "coord": {"lon": 16.410101, "lat": 39.100891}}, {"id": 2525560, "name": "Biancavilla", "state": "", "country": "IT", "coord": {"lon": 14.86708, "lat": 37.645149}}, {"id": 2525564, "name": "Benestare", "state": "", "country": "IT", "coord": {"lon": 16.136999, "lat": 38.185371}}, {"id": 2525565, "name": "Belv\u00ec", "state": "", "country": "IT", "coord": {"lon": 9.18639, "lat": 39.961109}}, {"id": 2525567, "name": "Belvedere Marittimo", "state": "", "country": "IT", "coord": {"lon": 15.86168, "lat": 39.617901}}, {"id": 2525568, "name": "Belvedere Spinello", "state": "", "country": "IT", "coord": {"lon": 16.88821, "lat": 39.2099}}, {"id": 2525570, "name": "Belsito", "state": "", "country": "IT", "coord": {"lon": 16.2883, "lat": 39.177189}}, {"id": 2525571, "name": "Belpasso", "state": "", "country": "IT", "coord": {"lon": 14.98338, "lat": 37.59465}}, {"id": 2525573, "name": "Belmonte Mezzagno", "state": "", "country": "IT", "coord": {"lon": 13.39465, "lat": 38.04565}}, {"id": 2525574, "name": "Belmonte Calabro", "state": "", "country": "IT", "coord": {"lon": 16.08629, "lat": 39.162392}}, {"id": 2525583, "name": "Baucina", "state": "", "country": "IT", "coord": {"lon": 13.53725, "lat": 37.92495}}, {"id": 2525587, "name": "Basilic\u00f2", "state": "", "country": "IT", "coord": {"lon": 15.83333, "lat": 38.166672}}, {"id": 2525588, "name": "Basic\u00f2", "state": "", "country": "IT", "coord": {"lon": 15.06338, "lat": 38.061562}}, {"id": 2525589, "name": "Barumini", "state": "", "country": "IT", "coord": {"lon": 9.00222, "lat": 39.703609}}, {"id": 2525592, "name": "Barrali", "state": "", "country": "IT", "coord": {"lon": 9.10056, "lat": 39.477219}}, {"id": 2525593, "name": "Barrafranca", "state": "", "country": "IT", "coord": {"lon": 14.20107, "lat": 37.379139}}, {"id": 2525595, "name": "Bari Sardo", "state": "", "country": "IT", "coord": {"lon": 9.63861, "lat": 39.842499}}, {"id": 2525596, "name": "Baressa", "state": "", "country": "IT", "coord": {"lon": 8.87583, "lat": 39.714169}}, {"id": 2525597, "name": "Barcellona Pozzo di Gotto", "state": "", "country": "IT", "coord": {"lon": 15.21048, "lat": 38.14756}}, {"id": 2525601, "name": "Baratili San Pietro", "state": "", "country": "IT", "coord": {"lon": 8.55528, "lat": 39.993061}}, {"id": 2525602, "name": "Baradili", "state": "", "country": "IT", "coord": {"lon": 8.89861, "lat": 39.7225}}, {"id": 2525605, "name": "Villa Verde", "state": "", "country": "IT", "coord": {"lon": 8.81944, "lat": 39.79694}}, {"id": 2525608, "name": "Ballao", "state": "", "country": "IT", "coord": {"lon": 9.3625, "lat": 39.548328}}, {"id": 2525609, "name": "Balestrate", "state": "", "country": "IT", "coord": {"lon": 13.00724, "lat": 38.05125}}, {"id": 2525616, "name": "Bagnara Calabra", "state": "", "country": "IT", "coord": {"lon": 15.8078, "lat": 38.288471}}, {"id": 2525628, "name": "Bagheria", "state": "", "country": "IT", "coord": {"lon": 13.50935, "lat": 38.07935}}, {"id": 2525629, "name": "Bagaladi", "state": "", "country": "IT", "coord": {"lon": 15.8214, "lat": 38.026669}}, {"id": 2525634, "name": "Badolato", "state": "", "country": "IT", "coord": {"lon": 16.524611, "lat": 38.56868}}, {"id": 2525635, "name": "Badiazza", "state": "", "country": "IT", "coord": {"lon": 15.53333, "lat": 38.216671}}, {"id": 2525643, "name": "Avola", "state": "", "country": "IT", "coord": {"lon": 15.1395, "lat": 36.911339}}, {"id": 2525646, "name": "Augusta", "state": "", "country": "IT", "coord": {"lon": 15.21969, "lat": 37.236549}}, {"id": 2525647, "name": "Atzara", "state": "", "country": "IT", "coord": {"lon": 9.07806, "lat": 39.99139}}, {"id": 2525649, "name": "Asuni", "state": "", "country": "IT", "coord": {"lon": 8.94611, "lat": 39.87278}}, {"id": 2525651, "name": "Assoro", "state": "", "country": "IT", "coord": {"lon": 14.42167, "lat": 37.625252}}, {"id": 2525652, "name": "Assolo", "state": "", "country": "IT", "coord": {"lon": 8.91944, "lat": 39.81028}}, {"id": 2525655, "name": "Assemini", "state": "", "country": "IT", "coord": {"lon": 8.99694, "lat": 39.290562}}, {"id": 2525664, "name": "Arzana", "state": "", "country": "IT", "coord": {"lon": 9.52694, "lat": 39.91972}}, {"id": 2525667, "name": "Armungia", "state": "", "country": "IT", "coord": {"lon": 9.38083, "lat": 39.523331}}, {"id": 2525673, "name": "Aritzo", "state": "", "country": "IT", "coord": {"lon": 9.19694, "lat": 39.955559}}, {"id": 2525678, "name": "Argusto", "state": "", "country": "IT", "coord": {"lon": 16.4354, "lat": 38.680779}}, {"id": 2525683, "name": "Arena", "state": "", "country": "IT", "coord": {"lon": 16.2099, "lat": 38.562778}}, {"id": 2525685, "name": "Ardore", "state": "", "country": "IT", "coord": {"lon": 16.167999, "lat": 38.191368}}, {"id": 2525688, "name": "Arbus", "state": "", "country": "IT", "coord": {"lon": 8.59944, "lat": 39.527222}}, {"id": 2525689, "name": "Arborea", "state": "", "country": "IT", "coord": {"lon": 8.58194, "lat": 39.774441}}, {"id": 2525693, "name": "Aragona", "state": "", "country": "IT", "coord": {"lon": 13.61756, "lat": 37.400841}}, {"id": 2525700, "name": "Antonimina", "state": "", "country": "IT", "coord": {"lon": 16.148399, "lat": 38.27227}}, {"id": 2525701, "name": "Antillo", "state": "", "country": "IT", "coord": {"lon": 15.24479, "lat": 37.977261}}, {"id": 2525706, "name": "Anoia Inferiore", "state": "", "country": "IT", "coord": {"lon": 16.079399, "lat": 38.43618}}, {"id": 2525714, "name": "Andrano", "state": "", "country": "IT", "coord": {"lon": 18.38253, "lat": 39.983219}}, {"id": 2525715, "name": "Andali", "state": "", "country": "IT", "coord": {"lon": 16.76841, "lat": 39.01339}}, {"id": 2525723, "name": "Amendolara", "state": "", "country": "IT", "coord": {"lon": 16.58239, "lat": 39.95211}}, {"id": 2525725, "name": "Amato", "state": "", "country": "IT", "coord": {"lon": 16.133329, "lat": 38.383331}}, {"id": 2525726, "name": "Amaroni", "state": "", "country": "IT", "coord": {"lon": 16.448099, "lat": 38.793079}}, {"id": 2525727, "name": "Amantea", "state": "", "country": "IT", "coord": {"lon": 16.074591, "lat": 39.13319}}, {"id": 2525728, "name": "Altomonte", "state": "", "country": "IT", "coord": {"lon": 16.12999, "lat": 39.699001}}, {"id": 2525729, "name": "Altofonte", "state": "", "country": "IT", "coord": {"lon": 13.29624, "lat": 38.042049}}, {"id": 2525732, "name": "Altilia", "state": "", "country": "IT", "coord": {"lon": 16.252701, "lat": 39.130489}}, {"id": 2525734, "name": "Altavilla Milicia", "state": "", "country": "IT", "coord": {"lon": 13.54835, "lat": 38.037849}}, {"id": 2525736, "name": "Alliste", "state": "", "country": "IT", "coord": {"lon": 18.088831, "lat": 39.94862}}, {"id": 2525739, "name": "Allai", "state": "", "country": "IT", "coord": {"lon": 8.86389, "lat": 39.958061}}, {"id": 2525740, "name": "Aliminusa", "state": "", "country": "IT", "coord": {"lon": 13.78126, "lat": 37.863949}}, {"id": 2525741, "name": "Alimena", "state": "", "country": "IT", "coord": {"lon": 14.11367, "lat": 37.693649}}, {"id": 2525746, "name": "Alia", "state": "", "country": "IT", "coord": {"lon": 13.71386, "lat": 37.779949}}, {"id": 2525747, "name": "Al\u00ec", "state": "", "country": "IT", "coord": {"lon": 15.41769, "lat": 38.027359}}, {"id": 2525748, "name": "Alessano", "state": "", "country": "IT", "coord": {"lon": 18.33103, "lat": 39.888618}}, {"id": 2525749, "name": "Alessandria della Rocca", "state": "", "country": "IT", "coord": {"lon": 13.45335, "lat": 37.566441}}, {"id": 2525750, "name": "Alessandria del Carretto", "state": "", "country": "IT", "coord": {"lon": 16.37949, "lat": 39.958111}}, {"id": 2525751, "name": "Ales", "state": "", "country": "IT", "coord": {"lon": 8.815, "lat": 39.770828}}, {"id": 2525752, "name": "Alcara Li Fusi", "state": "", "country": "IT", "coord": {"lon": 14.70087, "lat": 38.021961}}, {"id": 2525755, "name": "Alcamo", "state": "", "country": "IT", "coord": {"lon": 12.95654, "lat": 37.998348}}, {"id": 2525756, "name": "Albidona", "state": "", "country": "IT", "coord": {"lon": 16.47019, "lat": 39.922611}}, {"id": 2525757, "name": "Albi", "state": "", "country": "IT", "coord": {"lon": 16.596399, "lat": 39.02499}}, {"id": 2525759, "name": "Aieta", "state": "", "country": "IT", "coord": {"lon": 15.82348, "lat": 39.927799}}, {"id": 2525760, "name": "Aiello Calabro", "state": "", "country": "IT", "coord": {"lon": 16.166691, "lat": 39.117592}}, {"id": 2525761, "name": "Aidone", "state": "", "country": "IT", "coord": {"lon": 14.44528, "lat": 37.415451}}, {"id": 2525763, "name": "Agrigento", "state": "", "country": "IT", "coord": {"lon": 13.5, "lat": 37.450001}}, {"id": 2525764, "name": "Agrigento", "state": "", "country": "IT", "coord": {"lon": 13.58876, "lat": 37.320839}}, {"id": 2525766, "name": "Agnana Calabra", "state": "", "country": "IT", "coord": {"lon": 16.2229, "lat": 38.30267}}, {"id": 2525767, "name": "Agira", "state": "", "country": "IT", "coord": {"lon": 14.52158, "lat": 37.656151}}, {"id": 2525768, "name": "Africo Vecchio", "state": "", "country": "IT", "coord": {"lon": 15.98333, "lat": 38.066669}}, {"id": 2525769, "name": "Adrano", "state": "", "country": "IT", "coord": {"lon": 14.83478, "lat": 37.661751}}, {"id": 2525772, "name": "Acri", "state": "", "country": "IT", "coord": {"lon": 16.383789, "lat": 39.492901}}, {"id": 2525773, "name": "Acquedolci", "state": "", "country": "IT", "coord": {"lon": 14.58207, "lat": 38.056061}}, {"id": 2525774, "name": "Acquaviva Platani", "state": "", "country": "IT", "coord": {"lon": 13.70156, "lat": 37.571739}}, {"id": 2525776, "name": "Acquaro", "state": "", "country": "IT", "coord": {"lon": 16.187201, "lat": 38.554779}},