[{"id": 2670613, "name": "Surahammar", "state": "", "country": "SE", "coord": {"lon": 16.22188, "lat": 59.707249}}, {"id": 2670710, "name": "Sunne", "state": "", "country": "SE", "coord": {"lon": 13.14302, "lat": 59.837639}}, {"id": 2670715, "name": "Sunn\u00e4s", "state": "", "country": "SE", "coord": {"lon": 17.116671, "lat": 61.116669}}, {"id": 2670776, "name": "Sundsvalls Kommun", "state": "", "country": "SE", "coord": {"lon": 17.299999, "lat": 62.383331}}, {"id": 2670781, "name": "Sundsvall", "state": "", "country": "SE", "coord": {"lon": 17.306299, "lat": 62.391289}}, {"id": 2670833, "name": "Sundsbruk", "state": "", "country": "SE", "coord": {"lon": 17.34889, "lat": 62.458061}}, {"id": 2670878, "name": "Sundbybergs Kommun", "state": "", "country": "SE", "coord": {"lon": 17.94067, "lat": 59.365391}}, {"id": 2670879, "name": "Sundbyberg", "state": "", "country": "SE", "coord": {"lon": 17.97114, "lat": 59.361279}}, {"id": 2670883, "name": "Sundby", "state": "", "country": "SE", "coord": {"lon": 17.033331, "lat": 59.383331}}, {"id": 2670995, "name": "Styrs\u00f6", "state": "", "country": "SE", "coord": {"lon": 11.78556, "lat": 57.61639}}, {"id": 2671055, "name": "Sturk\u00f6", "state": "", "country": "SE", "coord": {"lon": 15.7, "lat": 56.083328}}, {"id": 2671060, "name": "Sturefors", "state": "", "country": "SE", "coord": {"lon": 15.73333, "lat": 58.333328}}, {"id": 2671206, "name": "Str\u00f6velstorp", "state": "", "country": "SE", "coord": {"lon": 12.81667, "lat": 56.150002}}, {"id": 2671221, "name": "Str\u00f6msund", "state": "", "country": "SE", "coord": {"lon": 15.55583, "lat": 63.852058}}, {"id": 2671224, "name": "Str\u00f6mstad", "state": "", "country": "SE", "coord": {"lon": 11.1712, "lat": 58.939449}}, {"id": 2671230, "name": "Str\u00f6msn\u00e4sbruk", "state": "", "country": "SE", "coord": {"lon": 13.71667, "lat": 56.549999}}, {"id": 2671389, "name": "Str\u00e4ngn\u00e4s Kommun", "state": "", "country": "SE", "coord": {"lon": 17.033331, "lat": 59.349998}}, {"id": 2671392, "name": "Str\u00e4ngn\u00e4s", "state": "", "country": "SE", "coord": {"lon": 17.031191, "lat": 59.377411}}, {"id": 2671490, "name": "Storvreta", "state": "", "country": "SE", "coord": {"lon": 17.700001, "lat": 59.966671}}, {"id": 2671529, "name": "Storumans Kommun", "state": "", "country": "SE", "coord": {"lon": 16.41667, "lat": 65.400002}}, {"id": 2671530, "name": "Storuman", "state": "", "country": "SE", "coord": {"lon": 17.11731, "lat": 65.095901}}, {"id": 2672053, "name": "Storfors", "state": "", "country": "SE", "coord": {"lon": 14.27201, "lat": 59.53183}}, {"id": 2673076, "name": "Stora H\u00f6ga", "state": "", "country": "SE", "coord": {"lon": 11.83333, "lat": 58.01667}}, {"id": 2673146, "name": "Stora Hammar", "state": "", "country": "SE", "coord": {"lon": 12.96667, "lat": 55.424999}}, {"id": 2673621, "name": "Stor\u00e5", "state": "", "country": "SE", "coord": {"lon": 15.13333, "lat": 59.716671}}, {"id": 2673629, "name": "St\u00f6pen", "state": "", "country": "SE", "coord": {"lon": 13.86667, "lat": 58.466671}}, {"id": 2673693, "name": "Stockvik", "state": "", "country": "SE", "coord": {"lon": 17.365829, "lat": 62.33667}}, {"id": 2673722, "name": "Stockholm", "state": "", "country": "SE", "coord": {"lon": 18.0, "lat": 59.5}}, {"id": 2673723, "name": "Stockholms Kommun", "state": "", "country": "SE", "coord": {"lon": 18.06427, "lat": 59.32478}}, {"id": 2673730, "name": "Stockholm", "state": "", "country": "SE", "coord": {"lon": 18.064899, "lat": 59.332581}}, {"id": 2673758, "name": "Stockaryd", "state": "", "country": "SE", "coord": {"lon": 14.58333, "lat": 57.316669}}, {"id": 2673829, "name": "Stigtomta", "state": "", "country": "SE", "coord": {"lon": 16.783331, "lat": 58.799999}}, {"id": 2673875, "name": "Stenungsund", "state": "", "country": "SE", "coord": {"lon": 11.8181, "lat": 58.070461}}, {"id": 2673952, "name": "Stenstorp", "state": "", "country": "SE", "coord": {"lon": 15.06667, "lat": 58.48333}}, {"id": 2673969, "name": "Stensta", "state": "", "country": "SE", "coord": {"lon": 14.1, "lat": 59.333328}}, {"id": 2674181, "name": "Stenkullen", "state": "", "country": "SE", "coord": {"lon": 12.31667, "lat": 57.799999}}, {"id": 2674209, "name": "Stenhamra", "state": "", "country": "SE", "coord": {"lon": 17.66667, "lat": 59.333328}}, {"id": 2674326, "name": "Stehag", "state": "", "country": "SE", "coord": {"lon": 13.38333, "lat": 55.900002}}, {"id": 2674594, "name": "Stallarholmen", "state": "", "country": "SE", "coord": {"lon": 17.200001, "lat": 59.366669}}, {"id": 2674649, "name": "Staffanstorp", "state": "", "country": "SE", "coord": {"lon": 13.20638, "lat": 55.642769}}, {"id": 2674803, "name": "Spikarna", "state": "", "country": "SE", "coord": {"lon": 17.51972, "lat": 62.3675}}, {"id": 2674993, "name": "S\u00f6sdala", "state": "", "country": "SE", "coord": {"lon": 13.66667, "lat": 56.033329}}, {"id": 2675078, "name": "Sorsele Kommun", "state": "", "country": "SE", "coord": {"lon": 16.75, "lat": 65.75}}, {"id": 2675079, "name": "Sorsele", "state": "", "country": "SE", "coord": {"lon": 17.53702, "lat": 65.534843}}, {"id": 2675146, "name": "S\u00f6rforsa", "state": "", "country": "SE", "coord": {"lon": 16.98333, "lat": 61.73333}}, {"id": 2675175, "name": "S\u00f6rby", "state": "", "country": "SE", "coord": {"lon": 17.133329, "lat": 60.666672}}, {"id": 2675280, "name": "S\u00f6r\u00e5ker", "state": "", "country": "SE", "coord": {"lon": 17.51333, "lat": 62.505001}}, {"id": 2675365, "name": "S\u00f6lvesborg", "state": "", "country": "SE", "coord": {"lon": 14.57525, "lat": 56.052052}}, {"id": 2675382, "name": "Solsidan", "state": "", "country": "SE", "coord": {"lon": 18.299999, "lat": 59.283329}}, {"id": 2675396, "name": "Solna Kommun", "state": "", "country": "SE", "coord": {"lon": 18.00728, "lat": 59.365479}}, {"id": 2675397, "name": "Solna", "state": "", "country": "SE", "coord": {"lon": 18.00086, "lat": 59.360039}}, {"id": 2675406, "name": "Sollentuna Kommun", "state": "", "country": "SE", "coord": {"lon": 17.935181, "lat": 59.444988}}, {"id": 2675408, "name": "Sollentuna", "state": "", "country": "SE", "coord": {"lon": 17.95093, "lat": 59.42804}}, {"id": 2675416, "name": "Sollefte\u00e5", "state": "", "country": "SE", "coord": {"lon": 17.26667, "lat": 63.166672}}, {"id": 2675418, "name": "Sollebrunn", "state": "", "country": "SE", "coord": {"lon": 12.53333, "lat": 58.116669}}, {"id": 2675561, "name": "S\u00f6dra Vi", "state": "", "country": "SE", "coord": {"lon": 15.8, "lat": 57.75}}, {"id": 2675691, "name": "S\u00f6dra Sandby", "state": "", "country": "SE", "coord": {"lon": 16.616671, "lat": 56.566669}}, {"id": 2676174, "name": "S\u00f6dert\u00e4lje Kommun", "state": "", "country": "SE", "coord": {"lon": 17.62756, "lat": 59.18121}}, {"id": 2676176, "name": "S\u00f6dert\u00e4lje", "state": "", "country": "SE", "coord": {"lon": 17.62525, "lat": 59.195541}}, {"id": 2676207, "name": "S\u00f6dermanlands l\u00e4n", "state": "", "country": "SE", "coord": {"lon": 16.66667, "lat": 59.25}}, {"id": 2676214, "name": "S\u00f6derk\u00f6pings Kommun", "state": "", "country": "SE", "coord": {"lon": 16.33333, "lat": 58.450001}}, {"id": 2676215, "name": "S\u00f6derk\u00f6ping", "state": "", "country": "SE", "coord": {"lon": 16.32221, "lat": 58.480572}}, {"id": 2676222, "name": "S\u00f6derhamns Kommun", "state": "", "country": "SE", "coord": {"lon": 16.966669, "lat": 61.283329}}, {"id": 2676224, "name": "S\u00f6derhamn", "state": "", "country": "SE", "coord": {"lon": 17.05921, "lat": 61.30373}}, {"id": 2676238, "name": "S\u00f6derfors", "state": "", "country": "SE", "coord": {"lon": 18.049999, "lat": 64.816673}}, {"id": 2676488, "name": "Smygehamn", "state": "", "country": "SE", "coord": {"lon": 13.38333, "lat": 55.333328}}, {"id": 2676511, "name": "Sm\u00f6gen", "state": "", "country": "SE", "coord": {"lon": 11.22411, "lat": 58.35593}}, {"id": 2676586, "name": "Smedjebacken", "state": "", "country": "SE", "coord": {"lon": 15.41416, "lat": 60.141811}}, {"id": 2676591, "name": "Smedby", "state": "", "country": "SE", "coord": {"lon": 16.23333, "lat": 58.583328}}, {"id": 2676592, "name": "Smedby", "state": "", "country": "SE", "coord": {"lon": 15.05, "lat": 60.700001}}, {"id": 2676644, "name": "Sm\u00e5landsstenar", "state": "", "country": "SE", "coord": {"lon": 13.4, "lat": 57.166672}}, {"id": 2676700, "name": "Slottsbron", "state": "", "country": "SE", "coord": {"lon": 13.1, "lat": 59.333328}}, {"id": 2676731, "name": "Slite", "state": "", "country": "SE", "coord": {"lon": 18.803101, "lat": 57.704609}}, {"id": 2677019, "name": "Skutsk\u00e4r", "state": "", "country": "SE", "coord": {"lon": 17.409149, "lat": 60.641041}}, {"id": 2677025, "name": "Skurup", "state": "", "country": "SE", "coord": {"lon": 13.50186, "lat": 55.47839}}, {"id": 2677062, "name": "Skultuna", "state": "", "country": "SE", "coord": {"lon": 16.41667, "lat": 59.716671}}, {"id": 2677063, "name": "Skultorp", "state": "", "country": "SE", "coord": {"lon": 13.83333, "lat": 58.349998}}, {"id": 2677233, "name": "Sk\u00f6vde Kommun", "state": "", "country": "SE", "coord": {"lon": 13.91667, "lat": 58.416672}}, {"id": 2677234, "name": "Sk\u00f6vde", "state": "", "country": "SE", "coord": {"lon": 13.84506, "lat": 58.391178}}, {"id": 2677239, "name": "Skottsund", "state": "", "country": "SE", "coord": {"lon": 17.38694, "lat": 62.290562}}, {"id": 2677356, "name": "Sk\u00f6llersta", "state": "", "country": "SE", "coord": {"lon": 15.3394, "lat": 59.137379}}, {"id": 2677370, "name": "Skogstorp", "state": "", "country": "SE", "coord": {"lon": 16.466669, "lat": 59.333328}}, {"id": 2677456, "name": "Skoghall", "state": "", "country": "SE", "coord": {"lon": 13.46552, "lat": 59.323238}}, {"id": 2677548, "name": "Skivarp", "state": "", "country": "SE", "coord": {"lon": 13.56667, "lat": 55.416672}}, {"id": 2677593, "name": "Skinnskatteberg", "state": "", "country": "SE", "coord": {"lon": 15.69337, "lat": 59.83028}}, {"id": 2677644, "name": "Skillingaryd", "state": "", "country": "SE", "coord": {"lon": 14.08333, "lat": 57.433331}}, {"id": 2677719, "name": "Skepplanda", "state": "", "country": "SE", "coord": {"lon": 12.2, "lat": 57.98333}}, {"id": 2677869, "name": "Skattk\u00e4rr", "state": "", "country": "SE", "coord": {"lon": 13.63333, "lat": 59.416672}}, {"id": 2678129, "name": "Sk\u00e4rhamn", "state": "", "country": "SE", "coord": {"lon": 11.55742, "lat": 57.986649}}, {"id": 2678153, "name": "Sk\u00e5re", "state": "", "country": "SE", "coord": {"lon": 13.05, "lat": 55.383331}}, {"id": 2678173, "name": "Sk\u00e4rblacka", "state": "", "country": "SE", "coord": {"lon": 15.9, "lat": 58.566669}}, {"id": 2678205, "name": "Skara Kommun", "state": "", "country": "SE", "coord": {"lon": 13.43333, "lat": 58.366669}}, {"id": 2678210, "name": "Skara", "state": "", "country": "SE", "coord": {"lon": 13.43836, "lat": 58.386589}}, {"id": 2678265, "name": "Sk\u00e4nninge", "state": "", "country": "SE", "coord": {"lon": 18.48333, "lat": 59.933331}}, {"id": 2678528, "name": "Sk\u00e4lby", "state": "", "country": "SE", "coord": {"lon": 17.83333, "lat": 59.383331}}, {"id": 2678687, "name": "Sjuntorp", "state": "", "country": "SE", "coord": {"lon": 12.21667, "lat": 58.200001}}, {"id": 2678804, "name": "Sj\u00f6marken", "state": "", "country": "SE", "coord": {"lon": 12.83495, "lat": 57.715328}}, {"id": 2678913, "name": "Sj\u00f6bo", "state": "", "country": "SE", "coord": {"lon": 13.70622, "lat": 55.631351}}, {"id": 2678926, "name": "Sj\u00f6berg", "state": "", "country": "SE", "coord": {"lon": 16.25, "lat": 64.833328}}, {"id": 2679106, "name": "Simrishamns kommun", "state": "", "country": "SE", "coord": {"lon": 14.3, "lat": 55.566669}}, {"id": 2679107, "name": "Simrishamn", "state": "", "country": "SE", "coord": {"lon": 14.35037, "lat": 55.55653}}, {"id": 2679226, "name": "Siljansn\u00e4s", "state": "", "country": "SE", "coord": {"lon": 14.85, "lat": 60.783329}}, {"id": 2679300, "name": "Sigtuna Kommun", "state": "", "country": "SE", "coord": {"lon": 17.91667, "lat": 59.650002}}, {"id": 2679302, "name": "Sigtuna", "state": "", "country": "SE", "coord": {"lon": 17.72361, "lat": 59.61731}}, {"id": 2679397, "name": "Sibbhult", "state": "", "country": "SE", "coord": {"lon": 14.2, "lat": 56.26667}}, {"id": 2679567, "name": "Segeltorp", "state": "", "country": "SE", "coord": {"lon": 17.930719, "lat": 59.27597}}, {"id": 2679698, "name": "S\u00e4vsj\u00f6", "state": "", "country": "SE", "coord": {"lon": 14.66244, "lat": 57.403271}}, {"id": 2679721, "name": "S\u00e4vja", "state": "", "country": "SE", "coord": {"lon": 17.69899, "lat": 59.820831}}, {"id": 2679819, "name": "S\u00e4tofta", "state": "", "country": "SE", "coord": {"lon": 13.55, "lat": 55.916672}}, {"id": 2679832, "name": "S\u00e4ters Kommun", "state": "", "country": "SE", "coord": {"lon": 15.75, "lat": 60.316669}}, {"id": 2679855, "name": "S\u00e4ter", "state": "", "country": "SE", "coord": {"lon": 15.75051, "lat": 60.347778}}, {"id": 2679920, "name": "S\u00e4r\u00f6", "state": "", "country": "SE", "coord": {"lon": 11.9321, "lat": 57.505772}}, {"id": 2680068, "name": "Sandvikens Kommun", "state": "", "country": "SE", "coord": {"lon": 16.66667, "lat": 60.616669}}, {"id": 2680075, "name": "Sandviken", "state": "", "country": "SE", "coord": {"lon": 16.76667, "lat": 60.616669}}, {"id": 2680227, "name": "Sandseryd", "state": "", "country": "SE", "coord": {"lon": 14.08333, "lat": 57.75}}, {"id": 2680350, "name": "Sandarne", "state": "", "country": "SE", "coord": {"lon": 17.16667, "lat": 61.26667}}, {"id": 2680352, "name": "Sandared", "state": "", "country": "SE", "coord": {"lon": 12.79238, "lat": 57.709919}}, {"id": 2680460, "name": "Saltsj\u00f6baden", "state": "", "country": "SE", "coord": {"lon": 18.299999, "lat": 59.283329}}, {"id": 2680657, "name": "Sala kommun", "state": "", "country": "SE", "coord": {"lon": 16.6, "lat": 59.966671}}, {"id": 2680662, "name": "Sala", "state": "", "country": "SE", "coord": {"lon": 16.60655, "lat": 59.91993}}, {"id": 2680764, "name": "S\u00e4ffle", "state": "", "country": "SE", "coord": {"lon": 12.92888, "lat": 59.13229}}, {"id": 2680820, "name": "S\u00e4by", "state": "", "country": "SE", "coord": {"lon": 11.6, "lat": 58.01667}}, {"id": 2680959, "name": "Rydsg\u00e5rd", "state": "", "country": "SE", "coord": {"lon": 13.58333, "lat": 55.466671}}, {"id": 2680969, "name": "Rydeb\u00e4ck", "state": "", "country": "SE", "coord": {"lon": 12.76667, "lat": 55.966671}}, {"id": 2680977, "name": "Rydaholm", "state": "", "country": "SE", "coord": {"lon": 14.3, "lat": 56.98333}}, {"id": 2680985, "name": "Ryd", "state": "", "country": "SE", "coord": {"lon": 15.08333, "lat": 58.666672}}, {"id": 2681368, "name": "Rottne", "state": "", "country": "SE", "coord": {"lon": 14.9, "lat": 57.01667}}, {"id": 2681416, "name": "Roteberg", "state": "", "country": "SE", "coord": {"lon": 15.81667, "lat": 61.383331}}, {"id": 2681447, "name": "R\u00f6stebo", "state": "", "country": "SE", "coord": {"lon": 16.4, "lat": 61.383331}}, {"id": 2681576, "name": "Rosersberg", "state": "", "country": "SE", "coord": {"lon": 17.883329, "lat": 59.583328}}, {"id": 2681587, "name": "Rosenlund", "state": "", "country": "SE", "coord": {"lon": 14.2, "lat": 57.783329}}, {"id": 2681743, "name": "R\u00f6rberg", "state": "", "country": "SE", "coord": {"lon": 16.966669, "lat": 60.583328}}, {"id": 2681821, "name": "Ronneby Kommun", "state": "", "country": "SE", "coord": {"lon": 15.28333, "lat": 56.299999}}, {"id": 2681825, "name": "Ronneby", "state": "", "country": "SE", "coord": {"lon": 15.27602, "lat": 56.209991}}, {"id": 2681866, "name": "R\u00f6nn\u00e4ng", "state": "", "country": "SE", "coord": {"lon": 11.58333, "lat": 57.933331}}, {"id": 2682155, "name": "R\u00f6deby", "state": "", "country": "SE", "coord": {"lon": 15.6, "lat": 56.25}}, {"id": 2682487, "name": "Rinkabyholm", "state": "", "country": "SE", "coord": {"lon": 16.26667, "lat": 56.649719}}, {"id": 2682532, "name": "Ring\u00f6n", "state": "", "country": "SE", "coord": {"lon": 11.96667, "lat": 57.716671}}, {"id": 2682569, "name": "Rimforsa", "state": "", "country": "SE", "coord": {"lon": 15.6865, "lat": 58.136238}}, {"id": 2682570, "name": "Rimbo", "state": "", "country": "SE", "coord": {"lon": 18.366671, "lat": 59.75}}, {"id": 2682706, "name": "Resar\u00f6", "state": "", "country": "SE", "coord": {"lon": 18.33386, "lat": 59.4291}}, {"id": 2682776, "name": "Ren", "state": "", "country": "SE", "coord": {"lon": 16.41667, "lat": 61.366669}}, {"id": 2682834, "name": "Reftele", "state": "", "country": "SE", "coord": {"lon": 13.58333, "lat": 57.183331}}, {"id": 2682850, "name": "Rebbelberga", "state": "", "country": "SE", "coord": {"lon": 12.86667, "lat": 56.25}}, {"id": 2682913, "name": "R\u00e4vlanda", "state": "", "country": "SE", "coord": {"lon": 12.5, "lat": 57.650002}}, {"id": 2682977, "name": "Raus", "state": "", "country": "SE", "coord": {"lon": 12.76667, "lat": 56.0}}, {"id": 2682995, "name": "R\u00e4ttvik", "state": "", "country": "SE", "coord": {"lon": 15.11787, "lat": 60.886318}}, {"id": 2683371, "name": "Ramshult", "state": "", "country": "SE", "coord": {"lon": 15.3, "lat": 58.216671}}, {"id": 2683436, "name": "Ramn\u00e4s", "state": "", "country": "SE", "coord": {"lon": 16.200001, "lat": 59.76667}}, {"id": 2683709, "name": "Radbyn", "state": "", "country": "SE", "coord": {"lon": 13.8, "lat": 58.700001}}, {"id": 2683803, "name": "R\u00e5berga", "state": "", "country": "SE", "coord": {"lon": 15.03333, "lat": 59.216671}}, {"id": 2683835, "name": "R\u00e5\u00e5", "state": "", "country": "SE", "coord": {"lon": 12.73333, "lat": 56.0}}, {"id": 2684213, "name": "Perstorp", "state": "", "country": "SE", "coord": {"lon": 13.39476, "lat": 56.13829}}, {"id": 2684231, "name": "Pershagen", "state": "", "country": "SE", "coord": {"lon": 17.65, "lat": 59.166672}}, {"id": 2684386, "name": "P\u00e5skallavik", "state": "", "country": "SE", "coord": {"lon": 16.450001, "lat": 57.166672}}, {"id": 2684394, "name": "Partille Kommun", "state": "", "country": "SE", "coord": {"lon": 12.11667, "lat": 57.73333}}, {"id": 2684395, "name": "Partille", "state": "", "country": "SE", "coord": {"lon": 12.10642, "lat": 57.739498}}, {"id": 2684485, "name": "P\u00e5lsboda", "state": "", "country": "SE", "coord": {"lon": 15.33747, "lat": 59.065651}}, {"id": 2684593, "name": "P\u00e5arp", "state": "", "country": "SE", "coord": {"lon": 12.93333, "lat": 56.599998}}, {"id": 2684636, "name": "Oxie", "state": "", "country": "SE", "coord": {"lon": 13.1, "lat": 55.533329}}, {"id": 2684653, "name": "Oxel\u00f6sund", "state": "", "country": "SE", "coord": {"lon": 17.101521, "lat": 58.67057}}, {"id": 2684945, "name": "\u00d6verum", "state": "", "country": "SE", "coord": {"lon": 16.316669, "lat": 57.98333}}, {"id": 2685092, "name": "Ovan\u00e5kers Kommun", "state": "", "country": "SE", "coord": {"lon": 15.81667, "lat": 61.416672}}, {"id": 2685177, "name": "\u00d6stra Vi", "state": "", "country": "SE", "coord": {"lon": 18.316669, "lat": 57.633331}}, {"id": 2685699, "name": "\u00d6sthammar", "state": "", "country": "SE", "coord": {"lon": 18.374081, "lat": 60.25909}}, {"id": 2685724, "name": "\u00d6sterv\u00e5la", "state": "", "country": "SE", "coord": {"lon": 17.183331, "lat": 60.183331}}, {"id": 2685747, "name": "\u00d6stersunds Kommun", "state": "", "country": "SE", "coord": {"lon": 14.91667, "lat": 63.25}}, {"id": 2685750, "name": "\u00d6stersund", "state": "", "country": "SE", "coord": {"lon": 14.63566, "lat": 63.179199}}, {"id": 2685828, "name": "\u00d6stermalm", "state": "", "country": "SE", "coord": {"lon": 18.084869, "lat": 59.338791}}, {"id": 2685867, "name": "\u00d6sterg\u00f6tlands l\u00e4n", "state": "", "country": "SE", "coord": {"lon": 15.75, "lat": 58.416672}}, {"id": 2685900, "name": "\u00d6sterbymo", "state": "", "country": "SE", "coord": {"lon": 15.27357, "lat": 57.82465}}, {"id": 2685903, "name": "\u00d6sterbybruk", "state": "", "country": "SE", "coord": {"lon": 17.9, "lat": 60.200001}}, {"id": 2685915, "name": "\u00d6sterby", "state": "", "country": "SE", "coord": {"lon": 18.799999, "lat": 57.716671}}, {"id": 2685981, "name": "\u00d6ster\u00e5kers Kommun", "state": "", "country": "SE", "coord": {"lon": 18.299789, "lat": 59.483452}}, {"id": 2686087, "name": "\u00d6stanbo", "state": "", "country": "SE", "coord": {"lon": 17.133329, "lat": 61.26667}}, {"id": 2686153, "name": "\u00d6smo", "state": "", "country": "SE", "coord": {"lon": 17.9, "lat": 58.98333}}, {"id": 2686160, "name": "Oskarstr\u00f6m", "state": "", "country": "SE", "coord": {"lon": 12.96667, "lat": 56.799999}}, {"id": 2686161, "name": "Oskarshamns Kommun", "state": "", "country": "SE", "coord": {"lon": 16.33333, "lat": 57.366669}}, {"id": 2686162, "name": "Oskarshamn", "state": "", "country": "SE", "coord": {"lon": 16.44837, "lat": 57.264549}}, {"id": 2686209, "name": "Osby", "state": "", "country": "SE", "coord": {"lon": 13.99364, "lat": 56.381649}}, {"id": 2686286, "name": "\u00d6rsundsbro", "state": "", "country": "SE", "coord": {"lon": 17.299999, "lat": 59.73333}}, {"id": 2686380, "name": "Orsa", "state": "", "country": "SE", "coord": {"lon": 14.6155, "lat": 61.120338}}, {"id": 2686466, "name": "\u00d6rnsk\u00f6ldsviks Kommun", "state": "", "country": "SE", "coord": {"lon": 18.716669, "lat": 63.283329}}, {"id": 2686469, "name": "\u00d6rnsk\u00f6ldsvik", "state": "", "country": "SE", "coord": {"lon": 18.71525, "lat": 63.290909}}, {"id": 2686493, "name": "Orn\u00e4s", "state": "", "country": "SE", "coord": {"lon": 15.54128, "lat": 60.509441}}, {"id": 2686596, "name": "\u00d6rkelljunga", "state": "", "country": "SE", "coord": {"lon": 13.27773, "lat": 56.283379}}, {"id": 2686649, "name": "\u00d6regrund", "state": "", "country": "SE", "coord": {"lon": 18.433331, "lat": 60.333328}}, {"id": 2686655, "name": "\u00d6rebro l\u00e4n", "state": "", "country": "SE", "coord": {"lon": 15.0, "lat": 59.5}}, {"id": 2686656, "name": "\u00d6rebro Kommun", "state": "", "country": "SE", "coord": {"lon": 15.41667, "lat": 59.26667}}, {"id": 2686657, "name": "\u00d6rebro", "state": "", "country": "SE", "coord": {"lon": 15.2066, "lat": 59.27412}}, {"id": 2686674, "name": "\u00d6rbyhus", "state": "", "country": "SE", "coord": {"lon": 17.700001, "lat": 60.23333}}, {"id": 2686858, "name": "\u00d6nnestad", "state": "", "country": "SE", "coord": {"lon": 14.01667, "lat": 56.049999}}, {"id": 2686979, "name": "Olstorp", "state": "", "country": "SE", "coord": {"lon": 16.633329, "lat": 58.816669}}, {"id": 2687062, "name": "Olofstr\u00f6m", "state": "", "country": "SE", "coord": {"lon": 14.53402, "lat": 56.277302}}, {"id": 2687063, "name": "Olofstorp", "state": "", "country": "SE", "coord": {"lon": 14.0, "lat": 58.25}}, {"id": 2687272, "name": "\u00d6jersj\u00f6", "state": "", "country": "SE", "coord": {"lon": 12.11667, "lat": 57.700001}}, {"id": 2687420, "name": "\u00d6desh\u00f6g", "state": "", "country": "SE", "coord": {"lon": 14.65294, "lat": 58.229488}}, {"id": 2687444, "name": "Odensj\u00f6", "state": "", "country": "SE", "coord": {"lon": 14.16667, "lat": 57.716671}}, {"id": 2687454, "name": "Odensbacken", "state": "", "country": "SE", "coord": {"lon": 15.53333, "lat": 59.166672}}, {"id": 2687498, "name": "\u00d6d\u00e5kra", "state": "", "country": "SE", "coord": {"lon": 12.73333, "lat": 56.099998}}, {"id": 2687509, "name": "\u00d6cker\u00f6", "state": "", "country": "SE", "coord": {"lon": 11.65585, "lat": 57.708141}}, {"id": 2687517, "name": "Ockelbo", "state": "", "country": "SE", "coord": {"lon": 16.71846, "lat": 60.891201}}, {"id": 2687636, "name": "Nyn\u00e4shamn", "state": "", "country": "SE", "coord": {"lon": 17.947929, "lat": 58.90337}}, {"id": 2687690, "name": "Nykvarn", "state": "", "country": "SE", "coord": {"lon": 18.299999, "lat": 59.799999}}, {"id": 2687693, "name": "Nykvarn", "state": "", "country": "SE", "coord": {"lon": 17.433331, "lat": 59.183331}}, {"id": 2687698, "name": "Nyk\u00f6pings Kommun", "state": "", "country": "SE", "coord": {"lon": 17.16667, "lat": 58.916672}}, {"id": 2687700, "name": "Nyk\u00f6ping", "state": "", "country": "SE", "coord": {"lon": 17.007879, "lat": 58.752998}}, {"id": 2687897, "name": "Nybro Kommun", "state": "", "country": "SE", "coord": {"lon": 15.93333, "lat": 56.716671}}, {"id": 2687902, "name": "Nybro", "state": "", "country": "SE", "coord": {"lon": 15.90714, "lat": 56.74461}}, {"id": 2688131, "name": "Nossebro", "state": "", "country": "SE", "coord": {"lon": 12.71599, "lat": 58.18808}}, {"id": 2688172, "name": "Norsj\u00f6", "state": "", "country": "SE", "coord": {"lon": 19.481529, "lat": 64.912064}}, {"id": 2688188, "name": "Norsborg", "state": "", "country": "SE", "coord": {"lon": 17.81394, "lat": 59.24493}}, {"id": 2688248, "name": "Norrt\u00e4lje Kommun", "state": "", "country": "SE", "coord": {"lon": 18.700001, "lat": 59.76667}}, {"id": 2688250, "name": "Norrt\u00e4lje", "state": "", "country": "SE", "coord": {"lon": 18.70496, "lat": 59.757992}}, {"id": 2688255, "name": "Norrsundet", "state": "", "country": "SE", "coord": {"lon": 17.133329, "lat": 60.950001}}, {"id": 2688367, "name": "Norrk\u00f6pings Kommun", "state": "", "country": "SE", "coord": {"lon": 16.33333, "lat": 58.583328}}, {"id": 2688368, "name": "Norrk\u00f6ping", "state": "", "country": "SE", "coord": {"lon": 16.1826, "lat": 58.594189}}, {"id": 2689018, "name": "Norrahammar", "state": "", "country": "SE", "coord": {"lon": 14.1, "lat": 57.700001}}, {"id": 2689192, "name": "Norra \u00c5sum", "state": "", "country": "SE", "coord": {"lon": 14.15, "lat": 55.98333}}, {"id": 2689204, "name": "\u00c5s", "state": "", "country": "SE", "coord": {"lon": 14.98333, "lat": 59.533329}}, {"id": 2689287, "name": "Nordstaden", "state": "", "country": "SE", "coord": {"lon": 11.96889, "lat": 57.70694}}, {"id": 2689336, "name": "Nordmaling", "state": "", "country": "SE", "coord": {"lon": 19.502439, "lat": 63.56852}}, {"id": 2689344, "name": "Nordingr\u00e5", "state": "", "country": "SE", "coord": {"lon": 18.316669, "lat": 62.933331}}, {"id": 2689452, "name": "Norberg", "state": "", "country": "SE", "coord": {"lon": 15.92366, "lat": 60.065048}}, {"id": 2689471, "name": "Nora", "state": "", "country": "SE", "coord": {"lon": 15.03979, "lat": 59.51926}}, {"id": 2689513, "name": "Nolhaga", "state": "", "country": "SE", "coord": {"lon": 12.51746, "lat": 57.93367}}, {"id": 2689520, "name": "Nolby", "state": "", "country": "SE", "coord": {"lon": 17.369169, "lat": 62.287498}}, {"id": 2689570, "name": "N\u00f6bbele", "state": "", "country": "SE", "coord": {"lon": 14.7, "lat": 56.933331}}, {"id": 2689580, "name": "Njurundabommen", "state": "", "country": "SE", "coord": {"lon": 17.383539, "lat": 62.26339}}, {"id": 2689733, "name": "Nibble\u00e5sen", "state": "", "country": "SE", "coord": {"lon": 16.0, "lat": 60.26667}}, {"id": 2690055, "name": "Nausta", "state": "", "country": "SE", "coord": {"lon": 19.283331, "lat": 66.349998}}, {"id": 2690061, "name": "N\u00e4ttraby", "state": "", "country": "SE", "coord": {"lon": 15.51667, "lat": 56.200001}}, {"id": 2690101, "name": "N\u00e4sum", "state": "", "country": "SE", "coord": {"lon": 14.48333, "lat": 56.166672}}, {"id": 2690167, "name": "N\u00e4ssj\u00f6 Kommun", "state": "", "country": "SE", "coord": {"lon": 14.68333, "lat": 57.633331}}, {"id": 2690170, "name": "N\u00e4ssj\u00f6", "state": "", "country": "SE", "coord": {"lon": 14.69676, "lat": 57.653069}}, {"id": 2690283, "name": "N\u00e4sby", "state": "", "country": "SE", "coord": {"lon": 15.25, "lat": 59.26667}}, {"id": 2690478, "name": "N\u00e4mnsbo", "state": "", "country": "SE", "coord": {"lon": 15.75, "lat": 60.349998}}, {"id": 2690578, "name": "Nacka Kommun", "state": "", "country": "SE", "coord": {"lon": 18.17551, "lat": 59.310768}}, {"id": 2690580, "name": "Nacka", "state": "", "country": "SE", "coord": {"lon": 18.163719, "lat": 59.310532}}, {"id": 2690713, "name": "Myggen\u00e4s", "state": "", "country": "SE", "coord": {"lon": 11.74936, "lat": 58.06176}}, {"id": 2690829, "name": "Munkfors", "state": "", "country": "SE", "coord": {"lon": 13.54361, "lat": 59.838558}}, {"id": 2690843, "name": "Munkedal", "state": "", "country": "SE", "coord": {"lon": 11.66859, "lat": 58.472439}}, {"id": 2690866, "name": "Munka-Ljungby", "state": "", "country": "SE", "coord": {"lon": 12.96667, "lat": 56.25}}, {"id": 2690901, "name": "Mullsj\u00f6", "state": "", "country": "SE", "coord": {"lon": 19.700001, "lat": 63.700001}}, {"id": 2690902, "name": "Mullsj\u00f6", "state": "", "country": "SE", "coord": {"lon": 13.87831, "lat": 57.917099}}, {"id": 2690959, "name": "Motala Kommun", "state": "", "country": "SE", "coord": {"lon": 15.16667, "lat": 58.549999}}, {"id": 2690960, "name": "Motala", "state": "", "country": "SE", "coord": {"lon": 15.03649, "lat": 58.53706}}, {"id": 2690989, "name": "Mossle", "state": "", "country": "SE", "coord": {"lon": 14.03333, "lat": 57.166672}}, {"id": 2691230, "name": "M\u00f6rtn\u00e4s", "state": "", "country": "SE", "coord": {"lon": 18.450001, "lat": 59.316669}}, {"id": 2691271, "name": "M\u00f6rrum", "state": "", "country": "SE", "coord": {"lon": 14.75, "lat": 56.183331}}, {"id": 2691326, "name": "Morgong\u00e5va", "state": "", "country": "SE", "coord": {"lon": 16.950001, "lat": 59.933331}}, {"id": 2691348, "name": "M\u00f6rbyl\u00e5nga", "state": "", "country": "SE", "coord": {"lon": 16.378771, "lat": 56.524799}}, {"id": 2691387, "name": "M\u00f6rarp", "state": "", "country": "SE", "coord": {"lon": 12.86667, "lat": 56.066669}}, {"id": 2691395, "name": "Mora Kommun", "state": "", "country": "SE", "coord": {"lon": 14.53755, "lat": 61.006561}}, {"id": 2691400, "name": "Mora", "state": "", "country": "SE", "coord": {"lon": 14.54316, "lat": 61.007038}}, {"id": 2691407, "name": "M\u00f6nster\u00e5s", "state": "", "country": "SE", "coord": {"lon": 16.44463, "lat": 57.04134}}, {"id": 2691440, "name": "M\u00f6lnlycke", "state": "", "country": "SE", "coord": {"lon": 12.11792, "lat": 57.658932}}, {"id": 2691457, "name": "M\u00f6lndals kommun", "state": "", "country": "SE", "coord": {"lon": 12.08333, "lat": 57.616669}}, {"id": 2691459, "name": "M\u00f6lndal", "state": "", "country": "SE", "coord": {"lon": 12.01378, "lat": 57.655399}}, {"id": 2691462, "name": "M\u00f6lnbo", "state": "", "country": "SE", "coord": {"lon": 17.41667, "lat": 59.049999}}, {"id": 2691471, "name": "M\u00f6lltorp", "state": "", "country": "SE", "coord": {"lon": 14.4, "lat": 58.5}}, {"id": 2691510, "name": "Molkom", "state": "", "country": "SE", "coord": {"lon": 13.7, "lat": 59.599998}}, {"id": 2691542, "name": "Moheda", "state": "", "country": "SE", "coord": {"lon": 14.56667, "lat": 57.0}}, {"id": 2691602, "name": "Mockfj\u00e4rd", "state": "", "country": "SE", "coord": {"lon": 14.96667, "lat": 60.5}}, {"id": 2691742, "name": "Mj\u00f6lby Kommun", "state": "", "country": "SE", "coord": {"lon": 15.13333, "lat": 58.316669}}, {"id": 2691743, "name": "Mj\u00f6lby", "state": "", "country": "SE", "coord": {"lon": 15.12365, "lat": 58.325951}}, {"id": 2691792, "name": "Mj\u00e4llby", "state": "", "country": "SE", "coord": {"lon": 12.76667, "lat": 56.683331}}, {"id": 2691798, "name": "Mj\u00e4lga", "state": "", "country": "SE", "coord": {"lon": 15.43333, "lat": 60.48333}}, {"id": 2692049, "name": "Mellerud", "state": "", "country": "SE", "coord": {"lon": 12.45312, "lat": 58.699791}}, {"id": 2692059, "name": "Mellbystrand", "state": "", "country": "SE", "coord": {"lon": 12.93333, "lat": 56.51667}}, {"id": 2692349, "name": "Matfors", "state": "", "country": "SE", "coord": {"lon": 17.033331, "lat": 62.349998}}, {"id": 2692469, "name": "Marstrand", "state": "", "country": "SE", "coord": {"lon": 11.58218, "lat": 57.88699}}, {"id": 2692475, "name": "M\u00e4rsta", "state": "", "country": "SE", "coord": {"lon": 17.854759, "lat": 59.621571}}, {"id": 2692596, "name": "Markaryd", "state": "", "country": "SE", "coord": {"lon": 13.59644, "lat": 56.461349}}, {"id": 2692611, "name": "Mariestads Kommun", "state": "", "country": "SE", "coord": {"lon": 13.83333, "lat": 58.700001}}, {"id": 2692613, "name": "Mariestad", "state": "", "country": "SE", "coord": {"lon": 13.82367, "lat": 58.709709}}, {"id": 2692624, "name": "Marieholm", "state": "", "country": "SE", "coord": {"lon": 13.85, "lat": 57.383331}}, {"id": 2692630, "name": "Marieh\u00e4ll", "state": "", "country": "SE", "coord": {"lon": 17.950001, "lat": 59.366669}}, {"id": 2692633, "name": "Mariefred", "state": "", "country": "SE", "coord": {"lon": 17.216669, "lat": 59.26667}}, {"id": 2692637, "name": "Mariedal", "state": "", "country": "SE", "coord": {"lon": 13.18333, "lat": 58.466671}}, {"id": 2692644, "name": "Marieberg", "state": "", "country": "SE", "coord": {"lon": 18.01667, "lat": 59.333328}}, {"id": 2692661, "name": "Mariannelund", "state": "", "country": "SE", "coord": {"lon": 15.56667, "lat": 57.616669}}, {"id": 2692748, "name": "Mantorp", "state": "", "country": "SE", "coord": {"lon": 15.28333, "lat": 58.349998}}, {"id": 2692876, "name": "Malung", "state": "", "country": "SE", "coord": {"lon": 13.71542, "lat": 60.683289}}, {"id": 2692943, "name": "Malmsl\u00e4tt", "state": "", "country": "SE", "coord": {"lon": 15.51647, "lat": 58.411018}}, {"id": 2692965, "name": "Malm\u00f6", "state": "", "country": "SE", "coord": {"lon": 13.0, "lat": 55.583328}}, {"id": 2692969, "name": "Malm\u00f6", "state": "", "country": "SE", "coord": {"lon": 13.00073, "lat": 55.605869}}, {"id": 2692972, "name": "Malmk\u00f6ping", "state": "", "country": "SE", "coord": {"lon": 16.73333, "lat": 59.133331}}, {"id": 2693002, "name": "Malmb\u00e4ck", "state": "", "country": "SE", "coord": {"lon": 14.46667, "lat": 57.583328}}, {"id": 2693049, "name": "M\u00e5lilla", "state": "", "country": "SE", "coord": {"lon": 15.80675, "lat": 57.38773}}, {"id": 2693081, "name": "Malen", "state": "", "country": "SE", "coord": {"lon": 12.85, "lat": 56.433331}}, {"id": 2693152, "name": "Mal\u00e5", "state": "", "country": "SE", "coord": {"lon": 18.74243, "lat": 65.185013}}, {"id": 2693301, "name": "Lysekil", "state": "", "country": "SE", "coord": {"lon": 11.43576, "lat": 58.274288}}, {"id": 2693313, "name": "Lyngsj\u00f6", "state": "", "country": "SE", "coord": {"lon": 14.06667, "lat": 55.933331}}, {"id": 2693346, "name": "Lycksele kommun", "state": "", "country": "SE", "coord": {"lon": 18.16667, "lat": 64.599998}}, {"id": 2693347, "name": "Lycksele", "state": "", "country": "SE", "coord": {"lon": 18.67351, "lat": 64.595367}}, {"id": 2693524, "name": "Lunna", "state": "", "country": "SE", "coord": {"lon": 11.99306, "lat": 57.458328}}, {"id": 2693555, "name": "Lunds Kommun", "state": "", "country": "SE", "coord": {"lon": 13.2, "lat": 55.716671}}, {"id": 2693678, "name": "Lund", "state": "", "country": "SE", "coord": {"lon": 13.19321, "lat": 55.705841}}, {"id": 2693759, "name": "Ludvika", "state": "", "country": "SE", "coord": {"lon": 15.18776, "lat": 60.14959}}, {"id": 2694165, "name": "L\u00f6nsboda", "state": "", "country": "SE", "coord": {"lon": 14.31667, "lat": 56.400002}}, {"id": 2694264, "name": "Lomma", "state": "", "country": "SE", "coord": {"lon": 13.06849, "lat": 55.67244}}, {"id": 2694283, "name": "L\u00f6kn\u00e4s", "state": "", "country": "SE", "coord": {"lon": 18.66667, "lat": 59.366669}}, {"id": 2694366, "name": "L\u00f6d\u00f6se", "state": "", "country": "SE", "coord": {"lon": 12.13333, "lat": 58.033329}}, {"id": 2694375, "name": "L\u00f6ddek\u00f6pinge", "state": "", "country": "SE", "coord": {"lon": 13.01667, "lat": 55.76667}}, {"id": 2694417, "name": "L\u00f6ber\u00f6d", "state": "", "country": "SE", "coord": {"lon": 13.5, "lat": 55.783329}}, {"id": 2694475, "name": "Ljusne", "state": "", "country": "SE", "coord": {"lon": 17.133329, "lat": 61.216671}}, {"id": 2694502, "name": "Ljusdals Kommun", "state": "", "country": "SE", "coord": {"lon": 15.7, "lat": 61.866669}}, {"id": 2694503, "name": "Ljusdal", "state": "", "country": "SE", "coord": {"lon": 16.091261, "lat": 61.828831}}, {"id": 2694522, "name": "Ljungskile", "state": "", "country": "SE", "coord": {"lon": 11.92014, "lat": 58.224522}}, {"id": 2694529, "name": "Ljungsbro", "state": "", "country": "SE", "coord": {"lon": 15.5, "lat": 58.51667}}, {"id": 2694537, "name": "Ljunghusen", "state": "", "country": "SE", "coord": {"lon": 12.91667, "lat": 55.400002}}, {"id": 2694552, "name": "Ljungbyholm", "state": "", "country": "SE", "coord": {"lon": 16.16667, "lat": 56.633331}}, {"id": 2694554, "name": "Ljungbyhed", "state": "", "country": "SE", "coord": {"lon": 13.21667, "lat": 56.066669}}, {"id": 2694560, "name": "Ljungby", "state": "", "country": "SE", "coord": {"lon": 13.94082, "lat": 56.833241}}, {"id": 2694631, "name": "Lit", "state": "", "country": "SE", "coord": {"lon": 14.81667, "lat": 63.316669}}, {"id": 2694759, "name": "Link\u00f6pings Kommun", "state": "", "country": "SE", "coord": {"lon": 15.6187, "lat": 58.410461}}, {"id": 2694762, "name": "Link\u00f6ping", "state": "", "country": "SE", "coord": {"lon": 15.62157, "lat": 58.410858}}, {"id": 2694779, "name": "Linghem", "state": "", "country": "SE", "coord": {"lon": 15.78333, "lat": 58.433331}}, {"id": 2694808, "name": "Lindsdal", "state": "", "country": "SE", "coord": {"lon": 16.299999, "lat": 56.73333}}, {"id": 2694831, "name": "Lindome", "state": "", "country": "SE", "coord": {"lon": 12.08333, "lat": 57.566669}}, {"id": 2694838, "name": "Lind\u00f6", "state": "", "country": "SE", "coord": {"lon": 16.25, "lat": 58.616669}}, {"id": 2694893, "name": "Lindesberg", "state": "", "country": "SE", "coord": {"lon": 15.2304, "lat": 59.592018}}, {"id": 2695016, "name": "Limmared", "state": "", "country": "SE", "coord": {"lon": 13.35, "lat": 57.533329}}, {"id": 2695079, "name": "Lillsj\u00f6n\u00e4s", "state": "", "country": "SE", "coord": {"lon": 17.950001, "lat": 59.333328}}, {"id": 2696058, "name": "Lilla Edets Kommun", "state": "", "country": "SE", "coord": {"lon": 12.16667, "lat": 58.133331}}, {"id": 2696059, "name": "Lilla Edet", "state": "", "country": "SE", "coord": {"lon": 12.13333, "lat": 58.133331}}, {"id": 2696328, "name": "Lidk\u00f6pings Kommun", "state": "", "country": "SE", "coord": {"lon": 13.0, "lat": 58.5}}, {"id": 2696329, "name": "Lidk\u00f6ping", "state": "", "country": "SE", "coord": {"lon": 13.15765, "lat": 58.505169}}, {"id": 2696332, "name": "Liding\u00f6", "state": "", "country": "SE", "coord": {"lon": 18.183331, "lat": 59.366669}}, {"id": 2696334, "name": "Liding\u00f6", "state": "", "country": "SE", "coord": {"lon": 18.133329, "lat": 59.366669}}, {"id": 2696473, "name": "Lessebo", "state": "", "country": "SE", "coord": {"lon": 15.26969, "lat": 56.75185}}, {"id": 2696479, "name": "Lesj\u00f6fors", "state": "", "country": "SE", "coord": {"lon": 14.18333, "lat": 59.98333}}, {"id": 2696500, "name": "Lerums Kommun", "state": "", "country": "SE", "coord": {"lon": 12.26967, "lat": 57.774521}}, {"id": 2696503, "name": "Lerum", "state": "", "country": "SE", "coord": {"lon": 12.26904, "lat": 57.770512}}, {"id": 2696608, "name": "Lenhovda", "state": "", "country": "SE", "coord": {"lon": 15.28333, "lat": 57.0}}, {"id": 2696650, "name": "Leksand", "state": "", "country": "SE", "coord": {"lon": 15.00316, "lat": 60.733871}}, {"id": 2696804, "name": "Lax\u00e5", "state": "", "country": "SE", "coord": {"lon": 14.61904, "lat": 58.986301}}, {"id": 2697295, "name": "L\u00e5ngshyttan", "state": "", "country": "SE", "coord": {"lon": 16.01667, "lat": 60.450001}}, {"id": 2697455, "name": "L\u00e4nghem", "state": "", "country": "SE", "coord": {"lon": 13.23333, "lat": 57.599998}}, {"id": 2697703, "name": "Landvetter", "state": "", "country": "SE", "coord": {"lon": 12.21169, "lat": 57.686649}}, {"id": 2697719, "name": "Landskrona", "state": "", "country": "SE", "coord": {"lon": 12.83333, "lat": 55.883331}}, {"id": 2697720, "name": "Landskrona", "state": "", "country": "SE", "coord": {"lon": 12.83016, "lat": 55.8708}}, {"id": 2697727, "name": "Landsbro", "state": "", "country": "SE", "coord": {"lon": 14.9, "lat": 57.366669}}, {"id": 2697766, "name": "Lammhult", "state": "", "country": "SE", "coord": {"lon": 14.58333, "lat": 57.166672}}, {"id": 2697859, "name": "Laholms Kommun", "state": "", "country": "SE", "coord": {"lon": 13.23333, "lat": 56.5}}, {"id": 2697861, "name": "Laholm", "state": "", "country": "SE", "coord": {"lon": 13.04371, "lat": 56.51207}}, {"id": 2697944, "name": "Lagan", "state": "", "country": "SE", "coord": {"lon": 13.98333, "lat": 56.916672}}, {"id": 2698242, "name": "Kvissleby", "state": "", "country": "SE", "coord": {"lon": 17.375, "lat": 62.29361}}, {"id": 2698293, "name": "Kvidinge", "state": "", "country": "SE", "coord": {"lon": 13.06667, "lat": 56.133331}}, {"id": 2698295, "name": "Kvicksund", "state": "", "country": "SE", "coord": {"lon": 16.316669, "lat": 59.450001}}, {"id": 2698433, "name": "Kvarnholmen", "state": "", "country": "SE", "coord": {"lon": 16.366671, "lat": 56.666672}}, {"id": 2698520, "name": "Kv\u00e4num", "state": "", "country": "SE", "coord": {"lon": 13.18333, "lat": 58.299999}}, {"id": 2698681, "name": "Kungs\u00f6r", "state": "", "country": "SE", "coord": {"lon": 16.09656, "lat": 59.422451}}, {"id": 2698691, "name": "Kungsholmen", "state": "", "country": "SE", "coord": {"lon": 18.04118, "lat": 59.331829}}, {"id": 2698697, "name": "Kungshamn", "state": "", "country": "SE", "coord": {"lon": 11.25938, "lat": 58.363049}}, {"id": 2698726, "name": "Kungsbacka Kommun", "state": "", "country": "SE", "coord": {"lon": 12.16667, "lat": 57.466671}}, {"id": 2698729, "name": "Kungsbacka", "state": "", "country": "SE", "coord": {"lon": 12.07612, "lat": 57.48719}}, {"id": 2698733, "name": "Kungs\u00e4ngen", "state": "", "country": "SE", "coord": {"lon": 17.748341, "lat": 59.478569}}, {"id": 2698738, "name": "Kung\u00e4lvs Kommun", "state": "", "country": "SE", "coord": {"lon": 11.91667, "lat": 57.900002}}, {"id": 2698739, "name": "Kung\u00e4lv", "state": "", "country": "SE", "coord": {"lon": 11.98054, "lat": 57.87096}}, {"id": 2698745, "name": "Kummeln\u00e4s", "state": "", "country": "SE", "coord": {"lon": 18.283331, "lat": 59.349998}}, {"id": 2698753, "name": "Kumla Kommun", "state": "", "country": "SE", "coord": {"lon": 15.13333, "lat": 59.133331}}, {"id": 2698767, "name": "Kumla", "state": "", "country": "SE", "coord": {"lon": 15.14341, "lat": 59.127701}}, {"id": 2699050, "name": "Kronoberg", "state": "", "country": "SE", "coord": {"lon": 14.66667, "lat": 56.666672}}, {"id": 2699176, "name": "Krokom", "state": "", "country": "SE", "coord": {"lon": 14.44883, "lat": 63.32589}}, {"id": 2699206, "name": "Krokek", "state": "", "country": "SE", "coord": {"lon": 16.4, "lat": 58.666672}}, {"id": 2699281, "name": "Kristinehamns Kommun", "state": "", "country": "SE", "coord": {"lon": 14.13333, "lat": 59.299999}}, {"id": 2699282, "name": "Kristinehamn", "state": "", "country": "SE", "coord": {"lon": 14.10808, "lat": 59.30978}}, {"id": 2699308, "name": "Kristianstads kommun", "state": "", "country": "SE", "coord": {"lon": 14.15, "lat": 56.0}}, {"id": 2699310, "name": "Kristianstad", "state": "", "country": "SE", "coord": {"lon": 14.15242, "lat": 56.031288}}, {"id": 2699393, "name": "Kramfors Kommun", "state": "", "country": "SE", "coord": {"lon": 17.66667, "lat": 62.916672}}, {"id": 2699394, "name": "Kramfors", "state": "", "country": "SE", "coord": {"lon": 17.776461, "lat": 62.93161}}, {"id": 2699767, "name": "Dalarna", "state": "", "country": "SE", "coord": {"lon": 14.5, "lat": 61.0}}, {"id": 2699768, "name": "Kopparberg", "state": "", "country": "SE", "coord": {"lon": 14.99436, "lat": 59.875969}}, {"id": 2699777, "name": "K\u00f6pmanholmen", "state": "", "country": "SE", "coord": {"lon": 18.566669, "lat": 63.166672}}, {"id": 2699780, "name": "K\u00f6pings Kommun", "state": "", "country": "SE", "coord": {"lon": 16.0, "lat": 59.583328}}, {"id": 2699786, "name": "K\u00f6pingebro", "state": "", "country": "SE", "coord": {"lon": 13.93333, "lat": 55.466671}}, {"id": 2699791, "name": "K\u00f6ping", "state": "", "country": "SE", "coord": {"lon": 15.99255, "lat": 59.514042}}, {"id": 2699879, "name": "Kolsva", "state": "", "country": "SE", "coord": {"lon": 15.83333, "lat": 59.599998}}, {"id": 2699957, "name": "Kolla", "state": "", "country": "SE", "coord": {"lon": 12.06667, "lat": 57.48333}}, {"id": 2700011, "name": "Kolb\u00e4ck", "state": "", "country": "SE", "coord": {"lon": 16.25, "lat": 59.566669}}, {"id": 2700079, "name": "Kode", "state": "", "country": "SE", "coord": {"lon": 11.85, "lat": 57.933331}}, {"id": 2700162, "name": "Knoxhult", "state": "", "country": "SE", "coord": {"lon": 14.45, "lat": 56.51667}}, {"id": 2700199, "name": "Knivsta", "state": "", "country": "SE", "coord": {"lon": 17.787531, "lat": 59.725639}}, {"id": 2700218, "name": "Knislinge", "state": "", "country": "SE", "coord": {"lon": 14.08333, "lat": 56.183331}}, {"id": 2700279, "name": "Kn\u00e4red", "state": "", "country": "SE", "coord": {"lon": 13.31667, "lat": 56.533329}}, {"id": 2700487, "name": "Klippan", "state": "", "country": "SE", "coord": {"lon": 13.13086, "lat": 56.13559}}, {"id": 2700497, "name": "Klintehamn", "state": "", "country": "SE", "coord": {"lon": 18.203711, "lat": 57.386669}}, {"id": 2700509, "name": "Klinta", "state": "", "country": "SE", "coord": {"lon": 16.65, "lat": 59.599998}}, {"id": 2700597, "name": "Kl\u00e5ver\u00f6d", "state": "", "country": "SE", "coord": {"lon": 13.13333, "lat": 56.033329}}, {"id": 2700663, "name": "Kl\u00e4nkeberg", "state": "", "country": "SE", "coord": {"lon": 15.53333, "lat": 59.133331}}, {"id": 2700694, "name": "Kl\u00e5gerup", "state": "", "country": "SE", "coord": {"lon": 13.24574, "lat": 55.594158}}, {"id": 2700754, "name": "Kivik", "state": "", "country": "SE", "coord": {"lon": 14.25, "lat": 55.683331}}, {"id": 2700791, "name": "Kista", "state": "", "country": "SE", "coord": {"lon": 17.94479, "lat": 59.40316}}, {"id": 2700800, "name": "Kisa", "state": "", "country": "SE", "coord": {"lon": 15.63303, "lat": 57.987808}}, {"id": 2700801, "name": "Kiruna Kommun", "state": "", "country": "SE", "coord": {"lon": 19.5, "lat": 68.166672}}, {"id": 2700839, "name": "Kinna", "state": "", "country": "SE", "coord": {"lon": 12.69463, "lat": 57.507278}}, {"id": 2700854, "name": "Kinda Kommun", "state": "", "country": "SE", "coord": {"lon": 15.88333, "lat": 58.0}}, {"id": 2700858, "name": "Kimstad", "state": "", "country": "SE", "coord": {"lon": 15.96667, "lat": 58.533329}}, {"id": 2700947, "name": "Kilafors", "state": "", "country": "SE", "coord": {"lon": 16.566669, "lat": 61.23333}}, {"id": 2700960, "name": "Kil", "state": "", "country": "SE", "coord": {"lon": 13.31395, "lat": 59.507221}}, {"id": 2701078, "name": "Kaxholmen", "state": "", "country": "SE", "coord": {"lon": 14.3, "lat": 57.866669}}, {"id": 2701096, "name": "K\u00e4vlinge", "state": "", "country": "SE", "coord": {"lon": 13.11021, "lat": 55.791882}}, {"id": 2701123, "name": "K\u00e4ttsta", "state": "", "country": "SE", "coord": {"lon": 17.9, "lat": 59.650002}}, {"id": 2701154, "name": "Kattisavan", "state": "", "country": "SE", "coord": {"lon": 18.15, "lat": 64.75}}, {"id": 2701221, "name": "Katrineholms Kommun", "state": "", "country": "SE", "coord": {"lon": 16.200001, "lat": 59.0}}, {"id": 2701223, "name": "Katrineholm", "state": "", "country": "SE", "coord": {"lon": 16.207211, "lat": 58.995869}}, {"id": 2701590, "name": "K\u00e4rra", "state": "", "country": "SE", "coord": {"lon": 12.15, "lat": 58.083328}}, {"id": 2701640, "name": "K\u00e4rne", "state": "", "country": "SE", "coord": {"lon": 13.36667, "lat": 59.450001}}, {"id": 2701679, "name": "Karlstads Kommun", "state": "", "country": "SE", "coord": {"lon": 13.8, "lat": 59.51667}}, {"id": 2701680, "name": "Karlstad", "state": "", "country": "SE", "coord": {"lon": 13.50357, "lat": 59.379299}}, {"id": 2701712, "name": "Karlskrona Kommun", "state": "", "country": "SE", "coord": {"lon": 15.66667, "lat": 56.25}}, {"id": 2701713, "name": "Karlskrona", "state": "", "country": "SE", "coord": {"lon": 15.58661, "lat": 56.16156}}, {"id": 2701714, "name": "Karlskoga Kommun", "state": "", "country": "SE", "coord": {"lon": 14.55, "lat": 59.333328}}, {"id": 2701715, "name": "Karlskoga", "state": "", "country": "SE", "coord": {"lon": 14.52386, "lat": 59.326672}}, {"id": 2701725, "name": "Karlshamns kommun", "state": "", "country": "SE", "coord": {"lon": 14.86667, "lat": 56.25}}, {"id": 2701727, "name": "Karlshamn", "state": "", "country": "SE", "coord": {"lon": 14.86188, "lat": 56.170601}}, {"id": 2701757, "name": "Karlsborg", "state": "", "country": "SE", "coord": {"lon": 14.5047, "lat": 58.537239}}, {"id": 2701792, "name": "Karlholmsbruk", "state": "", "country": "SE", "coord": {"lon": 17.616671, "lat": 60.51667}}, {"id": 2701980, "name": "K\u00e4pplunda", "state": "", "country": "SE", "coord": {"lon": 13.83333, "lat": 58.400002}}, {"id": 2702259, "name": "Kalmar", "state": "", "country": "SE", "coord": {"lon": 16.0, "lat": 57.333328}}, {"id": 2702260, "name": "Kalmar Kommun", "state": "", "country": "SE", "coord": {"lon": 16.333059, "lat": 56.666672}}, {"id": 2702261, "name": "Kalmar", "state": "", "country": "SE", "coord": {"lon": 16.361629, "lat": 56.661572}}, {"id": 2702405, "name": "Kallinge", "state": "", "country": "SE", "coord": {"lon": 15.28333, "lat": 56.23333}}, {"id": 2702449, "name": "K\u00e5llered", "state": "", "country": "SE", "coord": {"lon": 12.05106, "lat": 57.609921}}, {"id": 2702469, "name": "K\u00e5lleboda", "state": "", "country": "SE", "coord": {"lon": 12.3, "lat": 59.366669}}, {"id": 2702489, "name": "K\u00e4llby", "state": "", "country": "SE", "coord": {"lon": 13.31667, "lat": 58.51667}}, {"id": 2702683, "name": "K\u00e5ger\u00f6d", "state": "", "country": "SE", "coord": {"lon": 13.1, "lat": 56.01667}}, {"id": 2702776, "name": "Jursla", "state": "", "country": "SE", "coord": {"lon": 16.183331, "lat": 58.666672}}, {"id": 2702908, "name": "Jordbro", "state": "", "country": "SE", "coord": {"lon": 18.116671, "lat": 59.149719}}, {"id": 2702923, "name": "Jonstorp", "state": "", "country": "SE", "coord": {"lon": 12.71667, "lat": 58.0}}, {"id": 2702976, "name": "J\u00f6nk\u00f6pings l\u00e4n", "state": "", "country": "SE", "coord": {"lon": 14.5, "lat": 57.5}}, {"id": 2702977, "name": "J\u00f6nk\u00f6pings Kommun", "state": "", "country": "SE", "coord": {"lon": 14.13333, "lat": 57.783329}}, {"id": 2702979, "name": "J\u00f6nk\u00f6ping", "state": "", "country": "SE", "coord": {"lon": 14.15618, "lat": 57.781448}}, {"id": 2702996, "name": "Jokkmokks Kommun", "state": "", "country": "SE", "coord": {"lon": 19.25, "lat": 66.666672}}, {"id": 2702997, "name": "Jokkmokk", "state": "", "country": "SE", "coord": {"lon": 19.82324, "lat": 66.606651}}, {"id": 2703038, "name": "Johannedal", "state": "", "country": "SE", "coord": {"lon": 17.371111, "lat": 62.433609}}, {"id": 2703145, "name": "J\u00e4rvs\u00f6", "state": "", "country": "SE", "coord": {"lon": 16.16667, "lat": 61.716671}}, {"id": 2703212, "name": "J\u00e4rpen", "state": "", "country": "SE", "coord": {"lon": 13.48333, "lat": 63.349998}}, {"id": 2703268, "name": "J\u00e4rna", "state": "", "country": "SE", "coord": {"lon": 14.36667, "lat": 60.533329}}, {"id": 2703292, "name": "J\u00e4rf\u00e4lla kommun", "state": "", "country": "SE", "coord": {"lon": 17.865141, "lat": 59.408749}}, {"id": 2703300, "name": "J\u00e4rbo", "state": "", "country": "SE", "coord": {"lon": 16.6, "lat": 60.716671}}, {"id": 2703321, "name": "Jannelund", "state": "", "country": "SE", "coord": {"lon": 14.43333, "lat": 59.23333}}, {"id": 2703330, "name": "J\u00e4mtlands l\u00e4n", "state": "", "country": "SE", "coord": {"lon": 14.66667, "lat": 63.0}}, {"id": 2703339, "name": "J\u00e4msh\u00f6g", "state": "", "country": "SE", "coord": {"lon": 14.51667, "lat": 56.23333}}, {"id": 2703348, "name": "J\u00e4mj\u00f6", "state": "", "country": "SE", "coord": {"lon": 16.683331, "lat": 56.799999}}, {"id": 2703396, "name": "Jakobsberg", "state": "", "country": "SE", "coord": {"lon": 17.835079, "lat": 59.42268}}, {"id": 2703525, "name": "Irsta", "state": "", "country": "SE", "coord": {"lon": 16.933331, "lat": 59.700001}}, {"id": 2703546, "name": "Insj\u00f6n", "state": "", "country": "SE", "coord": {"lon": 17.48333, "lat": 64.400002}}, {"id": 2703610, "name": "Inlag", "state": "", "country": "SE", "coord": {"lon": 12.08015, "lat": 57.48156}}, {"id": 2703684, "name": "Ingelstad", "state": "", "country": "SE", "coord": {"lon": 16.85, "lat": 57.0}}, {"id": 2703714, "name": "Ingebo", "state": "", "country": "SE", "coord": {"lon": 17.116671, "lat": 60.666672}}, {"id": 2703756, "name": "Indor", "state": "", "country": "SE", "coord": {"lon": 14.4, "lat": 61.133331}}, {"id": 2703827, "name": "Iggesund", "state": "", "country": "SE", "coord": {"lon": 17.083059, "lat": 61.64444}}, {"id": 2703935, "name": "Ickornetorp", "state": "", "country": "SE", "coord": {"lon": 15.83333, "lat": 57.533329}}, {"id": 2704008, "name": "Hyltebruk", "state": "", "country": "SE", "coord": {"lon": 13.23958, "lat": 56.99892}}, {"id": 2704042, "name": "Hyllinge", "state": "", "country": "SE", "coord": {"lon": 12.85, "lat": 56.099998}}, {"id": 2704114, "name": "Husum", "state": "", "country": "SE", "coord": {"lon": 19.16667, "lat": 63.333328}}, {"id": 2704136, "name": "Huskvarna", "state": "", "country": "SE", "coord": {"lon": 14.30214, "lat": 57.785961}}, {"id": 2704245, "name": "Hunnebostrand", "state": "", "country": "SE", "coord": {"lon": 11.3032, "lat": 58.441269}}, {"id": 2704327, "name": "Hummelsta", "state": "", "country": "SE", "coord": {"lon": 16.950001, "lat": 59.616669}}, {"id": 2704397, "name": "Hultsfreds Kommun", "state": "", "country": "SE", "coord": {"lon": 15.8, "lat": 57.400002}}, {"id": 2704398, "name": "Hultsfred", "state": "", "country": "SE", "coord": {"lon": 15.84357, "lat": 57.488152}}, {"id": 2704611, "name": "Hudiksvalls Kommun", "state": "", "country": "SE", "coord": {"lon": 17.16667, "lat": 61.666672}}, {"id": 2704613, "name": "Hudiksvall", "state": "", "country": "SE", "coord": {"lon": 17.10358, "lat": 61.72897}}, {"id": 2704619, "name": "Huddinge Kommun", "state": "", "country": "SE", "coord": {"lon": 18.0, "lat": 59.216671}}, {"id": 2704620, "name": "Huddinge", "state": "", "country": "SE", "coord": {"lon": 17.98192, "lat": 59.237049}}, {"id": 2704638, "name": "Hovsta", "state": "", "country": "SE", "coord": {"lon": 15.21667, "lat": 59.349998}}, {"id": 2704654, "name": "Hovmantorp", "state": "", "country": "SE", "coord": {"lon": 15.12654, "lat": 56.785271}}, {"id": 2704662, "name": "H\u00f6viksn\u00e4s", "state": "", "country": "SE", "coord": {"lon": 11.76667, "lat": 58.033329}}, {"id": 2704716, "name": "Hova", "state": "", "country": "SE", "coord": {"lon": 14.18333, "lat": 58.866669}}, {"id": 2704885, "name": "Horred", "state": "", "country": "SE", "coord": {"lon": 12.46667, "lat": 57.349998}}, {"id": 2704956, "name": "H\u00f6rnefors", "state": "", "country": "SE", "coord": {"lon": 19.90856, "lat": 63.623119}}, {"id": 2704962, "name": "Horndal", "state": "", "country": "SE", "coord": {"lon": 16.41667, "lat": 60.299999}}, {"id": 2705049, "name": "H\u00f6rby", "state": "", "country": "SE", "coord": {"lon": 13.66094, "lat": 55.852379}}, {"id": 2705055, "name": "H\u00f6\u00f6r", "state": "", "country": "SE", "coord": {"lon": 13.5385, "lat": 55.934441}}, {"id": 2705075, "name": "H\u00f6n\u00f6", "state": "", "country": "SE", "coord": {"lon": 11.64972, "lat": 57.68972}}, {"id": 2705085, "name": "H\u00f6nekulla", "state": "", "country": "SE", "coord": {"lon": 12.13333, "lat": 57.650002}}, {"id": 2705127, "name": "H\u00f6l\u00f6", "state": "", "country": "SE", "coord": {"lon": 18.66667, "lat": 59.283329}}, {"id": 2705294, "name": "Holmen", "state": "", "country": "SE", "coord": {"lon": 12.63333, "lat": 57.799999}}, {"id": 2705402, "name": "H\u00f6llviken", "state": "", "country": "SE", "coord": {"lon": 12.95, "lat": 55.416672}}, {"id": 2705562, "name": "H\u00f6k\u00e5sen", "state": "", "country": "SE", "coord": {"lon": 16.58333, "lat": 59.666672}}, {"id": 2705718, "name": "H\u00f6gsby", "state": "", "country": "SE", "coord": {"lon": 16.02562, "lat": 57.16597}}, {"id": 2706003, "name": "H\u00f6gan\u00e4s", "state": "", "country": "SE", "coord": {"lon": 12.55795, "lat": 56.199711}}, {"id": 2706040, "name": "H\u00f6ga", "state": "", "country": "SE", "coord": {"lon": 12.36443, "lat": 58.31805}}, {"id": 2706054, "name": "Hofterup", "state": "", "country": "SE", "coord": {"lon": 12.96667, "lat": 55.783329}}, {"id": 2706057, "name": "Hofors", "state": "", "country": "SE", "coord": {"lon": 16.28668, "lat": 60.545731}}, {"id": 2706100, "name": "Hjuvik", "state": "", "country": "SE", "coord": {"lon": 11.71639, "lat": 57.701672}}, {"id": 2706183, "name": "Hjo Kommun", "state": "", "country": "SE", "coord": {"lon": 14.21667, "lat": 58.299999}}, {"id": 2706184, "name": "Hjo", "state": "", "country": "SE", "coord": {"lon": 14.28784, "lat": 58.301331}}, {"id": 2706323, "name": "Hittarp", "state": "", "country": "SE", "coord": {"lon": 14.11667, "lat": 56.283329}}, {"id": 2706392, "name": "Hind\u00e5s", "state": "", "country": "SE", "coord": {"lon": 12.45, "lat": 57.700001}}, {"id": 2706435, "name": "Hillerstorp", "state": "", "country": "SE", "coord": {"lon": 13.86667, "lat": 57.316669}}, {"id": 2706448, "name": "Hille", "state": "", "country": "SE", "coord": {"lon": 17.17592, "lat": 60.730221}}, {"id": 2706483, "name": "Hestra", "state": "", "country": "SE", "coord": {"lon": 14.58333, "lat": 57.916672}}, {"id": 2706485, "name": "Hestra", "state": "", "country": "SE", "coord": {"lon": 15.07, "lat": 57.959999}}, {"id": 2706523, "name": "Herrljunga", "state": "", "country": "SE", "coord": {"lon": 13.02662, "lat": 58.077389}}, {"id": 2706543, "name": "Herrestad", "state": "", "country": "SE", "coord": {"lon": 14.8, "lat": 58.383331}}, {"id": 2706619, "name": "Hen\u00e5n", "state": "", "country": "SE", "coord": {"lon": 11.67598, "lat": 58.23848}}, {"id": 2706678, "name": "Hemse", "state": "", "country": "SE", "coord": {"lon": 18.37443, "lat": 57.237881}}, {"id": 2706713, "name": "Hemmesta", "state": "", "country": "SE", "coord": {"lon": 18.5, "lat": 59.316669}}, {"id": 2706766, "name": "Helsingborg", "state": "", "country": "SE", "coord": {"lon": 12.75, "lat": 56.083328}}, {"id": 2706767, "name": "Helsingborg", "state": "", "country": "SE", "coord": {"lon": 12.69437, "lat": 56.04673}}, {"id": 2706914, "name": "Hedesunda", "state": "", "country": "SE", "coord": {"lon": 17.0, "lat": 60.400002}}, {"id": 2706917, "name": "Hedentorp", "state": "", "country": "SE", "coord": {"lon": 14.15, "lat": 56.01667}}, {"id": 2706981, "name": "Hedemora Kommun", "state": "", "country": "SE", "coord": {"lon": 15.98333, "lat": 60.283329}}, {"id": 2706982, "name": "Hedemora", "state": "", "country": "SE", "coord": {"lon": 15.98855, "lat": 60.279732}}, {"id": 2707057, "name": "Heby", "state": "", "country": "SE", "coord": {"lon": 16.862169, "lat": 59.938148}}, {"id": 2707138, "name": "Haverdal", "state": "", "country": "SE", "coord": {"lon": 12.67194, "lat": 56.722221}}, {"id": 2707217, "name": "H\u00e4stveda", "state": "", "country": "SE", "coord": {"lon": 13.93333, "lat": 56.26667}}, {"id": 2707363, "name": "Hassl\u00f6sa", "state": "", "country": "SE", "coord": {"lon": 13.26667, "lat": 58.416672}}, {"id": 2707366, "name": "Hassl\u00f6", "state": "", "country": "SE", "coord": {"lon": 15.48333, "lat": 56.116669}}, {"id": 2707396, "name": "H\u00e4ssleholms Kommun", "state": "", "country": "SE", "coord": {"lon": 13.73333, "lat": 56.216671}}, {"id": 2707399, "name": "H\u00e4ssleholm", "state": "", "country": "SE", "coord": {"lon": 13.76638, "lat": 56.15905}}, {"id": 2707608, "name": "H\u00e4rryda Kommun", "state": "", "country": "SE", "coord": {"lon": 12.4, "lat": 57.683331}}, {"id": 2707664, "name": "Harplinge", "state": "", "country": "SE", "coord": {"lon": 12.71667, "lat": 56.75}}, {"id": 2707682, "name": "H\u00e4rn\u00f6sands Kommun", "state": "", "country": "SE", "coord": {"lon": 17.683331, "lat": 62.76667}}, {"id": 2707684, "name": "H\u00e4rn\u00f6sand", "state": "", "country": "SE", "coord": {"lon": 17.937941, "lat": 62.632278}}, {"id": 2707952, "name": "Haninge Kommun", "state": "", "country": "SE", "coord": {"lon": 18.154909, "lat": 59.17382}}, {"id": 2707953, "name": "Haninge", "state": "", "country": "SE", "coord": {"lon": 18.144779, "lat": 59.167751}}, {"id": 2708016, "name": "Handen", "state": "", "country": "SE", "coord": {"lon": 18.13796, "lat": 59.168091}}, {"id": 2708025, "name": "Hanaskog", "state": "", "country": "SE", "coord": {"lon": 14.11667, "lat": 56.150002}}, {"id": 2708152, "name": "Hammarstrand", "state": "", "country": "SE", "coord": {"lon": 16.353769, "lat": 63.110409}}, {"id": 2708326, "name": "H\u00e4lsingfors", "state": "", "country": "SE", "coord": {"lon": 18.700001, "lat": 64.550003}}, {"id": 2708363, "name": "Halmstads Kommun", "state": "", "country": "SE", "coord": {"lon": 12.86667, "lat": 56.700001}}, {"id": 2708365, "name": "Halmstad", "state": "", "country": "SE", "coord": {"lon": 12.85676, "lat": 56.674461}}, {"id": 2708366, "name": "Halmstad", "state": "", "country": "SE", "coord": {"lon": 13.03333, "lat": 55.950001}}, {"id": 2708426, "name": "Hallstavik", "state": "", "country": "SE", "coord": {"lon": 18.6, "lat": 60.049999}}, {"id": 2708429, "name": "Hallstahammar", "state": "", "country": "SE", "coord": {"lon": 16.22846, "lat": 59.613949}}, {"id": 2708511, "name": "Hallsberg", "state": "", "country": "SE", "coord": {"lon": 15.11174, "lat": 59.065701}}, {"id": 2708663, "name": "H\u00e4lleforsn\u00e4s", "state": "", "country": "SE", "coord": {"lon": 16.5, "lat": 59.166672}}, {"id": 2708665, "name": "H\u00e4llefors", "state": "", "country": "SE", "coord": {"lon": 14.52197, "lat": 59.783878}}, {"id": 2708710, "name": "H\u00e4llbybrunn", "state": "", "country": "SE", "coord": {"lon": 16.433331, "lat": 59.383331}}, {"id": 2708794, "name": "Halland", "state": "", "country": "SE", "coord": {"lon": 13.0, "lat": 56.75}}, {"id": 2708821, "name": "H\u00e4llabrottet", "state": "", "country": "SE", "coord": {"lon": 15.2, "lat": 59.116669}}, {"id": 2708889, "name": "H\u00e4ljarp", "state": "", "country": "SE", "coord": {"lon": 15.45, "lat": 57.633331}}, {"id": 2709196, "name": "H\u00e4ggatorp", "state": "", "country": "SE", "coord": {"lon": 15.28333, "lat": 56.26667}}, {"id": 2709214, "name": "Hagfors", "state": "", "country": "SE", "coord": {"lon": 13.67214, "lat": 60.023781}}, {"id": 2709494, "name": "Habo", "state": "", "country": "SE", "coord": {"lon": 14.07444, "lat": 57.91185}}, {"id": 2709600, "name": "Gusum", "state": "", "country": "SE", "coord": {"lon": 16.48333, "lat": 58.26667}}, {"id": 2709628, "name": "Gustavsberg", "state": "", "country": "SE", "coord": {"lon": 18.38975, "lat": 59.326839}}, {"id": 2709912, "name": "Gullsp\u00e5ng", "state": "", "country": "SE", "coord": {"lon": 14.09644, "lat": 58.986149}}, {"id": 2709969, "name": "Gullbrandstorp", "state": "", "country": "SE", "coord": {"lon": 12.73333, "lat": 56.700001}}, {"id": 2710205, "name": "Grycksbo", "state": "", "country": "SE", "coord": {"lon": 15.46667, "lat": 60.683331}}, {"id": 2710268, "name": "Grunnarp", "state": "", "country": "SE", "coord": {"lon": 12.35, "lat": 57.150002}}, {"id": 2710343, "name": "Grums", "state": "", "country": "SE", "coord": {"lon": 13.10906, "lat": 59.3466}}, {"id": 2710683, "name": "Grimsta", "state": "", "country": "SE", "coord": {"lon": 17.86935, "lat": 59.358398}}, {"id": 2710731, "name": "Grillby", "state": "", "country": "SE", "coord": {"lon": 17.25, "lat": 59.616669}}, {"id": 2710797, "name": "Grebbestad", "state": "", "country": "SE", "coord": {"lon": 11.25738, "lat": 58.70248}}, {"id": 2710885, "name": "Gr\u00e4storp", "state": "", "country": "SE", "coord": {"lon": 12.68122, "lat": 58.332191}}, {"id": 2711174, "name": "Gr\u00e4nna", "state": "", "country": "SE", "coord": {"lon": 14.46667, "lat": 58.01667}}, {"id": 2711256, "name": "Gr\u00e4ngesberg", "state": "", "country": "SE", "coord": {"lon": 14.98333, "lat": 60.083328}}, {"id": 2711451, "name": "Gr\u00e5bo", "state": "", "country": "SE", "coord": {"lon": 12.29954, "lat": 57.83625}}, {"id": 2711508, "name": "Gotland", "state": "", "country": "SE", "coord": {"lon": 18.5, "lat": 57.5}}, {"id": 2711509, "name": "Gotland", "state": "", "country": "SE", "coord": {"lon": 18.5, "lat": 57.5}}, {"id": 2711526, "name": "G\u00f6tene", "state": "", "country": "SE", "coord": {"lon": 13.49458, "lat": 58.52824}}, {"id": 2711533, "name": "G\u00f6teborgs stad", "state": "", "country": "SE", "coord": {"lon": 11.91667, "lat": 57.700001}}, {"id": 2711537, "name": "G\u00f6teborg", "state": "", "country": "SE", "coord": {"lon": 11.96679, "lat": 57.707161}}, {"id": 2711790, "name": "Gnosj\u00f6", "state": "", "country": "SE", "coord": {"lon": 13.73686, "lat": 57.358501}}, {"id": 2711798, "name": "Gnesta", "state": "", "country": "SE", "coord": {"lon": 17.311911, "lat": 59.047508}}, {"id": 2711820, "name": "Glumsl\u00f6v", "state": "", "country": "SE", "coord": {"lon": 12.81667, "lat": 55.950001}}, {"id": 2711896, "name": "Glim\u00e5kra", "state": "", "country": "SE", "coord": {"lon": 14.13333, "lat": 56.299999}}, {"id": 2712044, "name": "Gislaveds Kommun", "state": "", "country": "SE", "coord": {"lon": 13.45, "lat": 57.25}}, {"id": 2712045, "name": "Gislaved", "state": "", "country": "SE", "coord": {"lon": 13.54078, "lat": 57.304401}}, {"id": 2712190, "name": "Gidb\u00f6le", "state": "", "country": "SE", "coord": {"lon": 19.049999, "lat": 63.400002}}, {"id": 2712255, "name": "Getinge", "state": "", "country": "SE", "coord": {"lon": 12.73333, "lat": 56.816669}}, {"id": 2712373, "name": "Genarp", "state": "", "country": "SE", "coord": {"lon": 13.38333, "lat": 55.599998}}, {"id": 2712377, "name": "Gemla", "state": "", "country": "SE", "coord": {"lon": 14.63333, "lat": 56.866669}}, {"id": 2712409, "name": "G\u00e4vle Kommun", "state": "", "country": "SE", "coord": {"lon": 17.16667, "lat": 60.700001}}, {"id": 2712411, "name": "G\u00e4vleborgs l\u00e4n", "state": "", "country": "SE", "coord": {"lon": 16.25, "lat": 61.5}}, {"id": 2712414, "name": "G\u00e4vle", "state": "", "country": "SE", "coord": {"lon": 17.141741, "lat": 60.674519}}, {"id": 2712642, "name": "Garphyttan", "state": "", "country": "SE", "coord": {"lon": 14.94623, "lat": 59.304291}}, {"id": 2712651, "name": "Garnviken", "state": "", "country": "SE", "coord": {"lon": 12.16667, "lat": 58.283329}}, {"id": 2712859, "name": "Gantofta", "state": "", "country": "SE", "coord": {"lon": 12.8, "lat": 55.98333}}, {"id": 2712887, "name": "G\u00e5nghester", "state": "", "country": "SE", "coord": {"lon": 13.01667, "lat": 57.700001}}, {"id": 2712988, "name": "Gamleby", "state": "", "country": "SE", "coord": {"lon": 16.4, "lat": 57.900002}}, {"id": 2712995, "name": "Gamla Staden", "state": "", "country": "SE", "coord": {"lon": 13.0, "lat": 55.599998}}, {"id": 2713193, "name": "G\u00e5larp", "state": "", "country": "SE", "coord": {"lon": 13.11667, "lat": 56.066669}}, {"id": 2713219, "name": "Gagnef", "state": "", "country": "SE", "coord": {"lon": 15.07745, "lat": 60.59856}}, {"id": 2713350, "name": "Fyllinge", "state": "", "country": "SE", "coord": {"lon": 12.91667, "lat": 56.650002}}, {"id": 2713385, "name": "Furulund", "state": "", "country": "SE", "coord": {"lon": 12.13333, "lat": 57.716671}}, {"id": 2713509, "name": "Fruf\u00e4llan", "state": "", "country": "SE", "coord": {"lon": 12.96667, "lat": 57.783329}}, {"id": 2713516, "name": "Fr\u00f6vi", "state": "", "country": "SE", "coord": {"lon": 15.36667, "lat": 59.466671}}, {"id": 2713596, "name": "Fr\u00f6sakull", "state": "", "country": "SE", "coord": {"lon": 12.73333, "lat": 56.683331}}, {"id": 2713656, "name": "Fritsla", "state": "", "country": "SE", "coord": {"lon": 12.78333, "lat": 57.549999}}, {"id": 2713659, "name": "Fristad", "state": "", "country": "SE", "coord": {"lon": 16.716669, "lat": 65.199997}}, {"id": 2713679, "name": "Frilles\u00e5s", "state": "", "country": "SE", "coord": {"lon": 12.16667, "lat": 57.316669}}, {"id": 2713797, "name": "Fr\u00e4nsta", "state": "", "country": "SE", "coord": {"lon": 16.15, "lat": 62.5}}, {"id": 2713943, "name": "F\u00f6rsl\u00f6v", "state": "", "country": "SE", "coord": {"lon": 12.81667, "lat": 56.349998}}, {"id": 2713964, "name": "Forsheda", "state": "", "country": "SE", "coord": {"lon": 13.81667, "lat": 57.150002}}, {"id": 2713971, "name": "Forshaga", "state": "", "country": "SE", "coord": {"lon": 13.48127, "lat": 59.52541}}, {"id": 2713974, "name": "Forserum", "state": "", "country": "SE", "coord": {"lon": 16.466669, "lat": 57.950001}}, {"id": 2714327, "name": "Floby", "state": "", "country": "SE", "coord": {"lon": 13.33333, "lat": 58.133331}}, {"id": 2714401, "name": "Flen", "state": "", "country": "SE", "coord": {"lon": 16.587811, "lat": 59.058338}}, {"id": 2714618, "name": "Fjugesta", "state": "", "country": "SE", "coord": {"lon": 14.87227, "lat": 59.173752}}, {"id": 2714678, "name": "Fj\u00e4r\u00e5s kyrkby", "state": "", "country": "SE", "coord": {"lon": 12.17508, "lat": 57.459129}}, {"id": 2714727, "name": "Fj\u00e4llbon\u00e4s", "state": "", "country": "SE", "coord": {"lon": 19.366671, "lat": 65.583328}}, {"id": 2714765, "name": "Fj\u00e4lkinge", "state": "", "country": "SE", "coord": {"lon": 14.28333, "lat": 56.049999}}, {"id": 2714795, "name": "Fittja", "state": "", "country": "SE", "coord": {"lon": 17.859909, "lat": 59.24868}}, {"id": 2714903, "name": "Finsp\u00e5ng", "state": "", "country": "SE", "coord": {"lon": 15.76739, "lat": 58.70578}}, {"id": 2715081, "name": "Filipstad", "state": "", "country": "SE", "coord": {"lon": 14.16831, "lat": 59.71236}}, {"id": 2715164, "name": "Fellingsbro", "state": "", "country": "SE", "coord": {"lon": 15.58333, "lat": 59.433331}}, {"id": 2715324, "name": "F\u00e4rjestaden", "state": "", "country": "SE", "coord": {"lon": 16.450001, "lat": 56.650002}}, {"id": 2715329, "name": "F\u00e4rjen\u00e4s", "state": "", "country": "SE", "coord": {"lon": 11.90639, "lat": 57.697498}}, {"id": 2715341, "name": "F\u00e4rila", "state": "", "country": "SE", "coord": {"lon": 15.85, "lat": 61.799999}}, {"id": 2715351, "name": "F\u00e4rgelanda", "state": "", "country": "SE", "coord": {"lon": 11.99235, "lat": 58.568161}}, {"id": 2715458, "name": "Falu kommun", "state": "", "country": "SE", "coord": {"lon": 15.63492, "lat": 60.604832}}, {"id": 2715459, "name": "Falun", "state": "", "country": "SE", "coord": {"lon": 15.62597, "lat": 60.603569}}, {"id": 2715566, "name": "Falk\u00f6pings Kommun", "state": "", "country": "SE", "coord": {"lon": 13.51667, "lat": 58.200001}}, {"id": 2715568, "name": "Falk\u00f6ping", "state": "", "country": "SE", "coord": {"lon": 13.55068, "lat": 58.17347}}, {"id": 2715572, "name": "Falkenbergs Kommun", "state": "", "country": "SE", "coord": {"lon": 12.53333, "lat": 56.900002}}, {"id": 2715573, "name": "Falkenberg", "state": "", "country": "SE", "coord": {"lon": 12.49118, "lat": 56.905521}}, {"id": 2715656, "name": "Fagersta", "state": "", "country": "SE", "coord": {"lon": 15.79316, "lat": 60.004181}}, {"id": 2715658, "name": "Fagersl\u00e4tt", "state": "", "country": "SE", "coord": {"lon": 14.28333, "lat": 57.799999}}, {"id": 2715945, "name": "Esl\u00f6vs Kommun", "state": "", "country": "SE", "coord": {"lon": 13.31667, "lat": 55.849998}}, {"id": 2715946, "name": "Esl\u00f6v", "state": "", "country": "SE", "coord": {"lon": 13.30393, "lat": 55.839279}}, {"id": 2715951, "name": "Eskilstuna Kommun", "state": "", "country": "SE", "coord": {"lon": 16.48333, "lat": 59.333328}}, {"id": 2715953, "name": "Eskilstuna", "state": "", "country": "SE", "coord": {"lon": 16.5077, "lat": 59.366611}}, {"id": 2716080, "name": "Eriksberg", "state": "", "country": "SE", "coord": {"lon": 17.616671, "lat": 59.849998}}, {"id": 2716085, "name": "Eriksberg", "state": "", "country": "SE", "coord": {"lon": 17.816311, "lat": 59.242409}}, {"id": 2716165, "name": "Enk\u00f6pings Kommun", "state": "", "country": "SE", "coord": {"lon": 17.1, "lat": 59.666672}}, {"id": 2716166, "name": "Enk\u00f6ping", "state": "", "country": "SE", "coord": {"lon": 17.077681, "lat": 59.63607}}, {"id": 2716281, "name": "Emmaboda", "state": "", "country": "SE", "coord": {"lon": 15.53648, "lat": 56.632679}}, {"id": 2716296, "name": "Elversl\u00f6sa", "state": "", "country": "SE", "coord": {"lon": 16.299999, "lat": 56.700001}}, {"id": 2716437, "name": "Eksj\u00f6", "state": "", "country": "SE", "coord": {"lon": 14.97205, "lat": 57.666431}}, {"id": 2716443, "name": "Eksh\u00e4rad", "state": "", "country": "SE", "coord": {"lon": 13.49647, "lat": 60.172749}}, {"id": 2716586, "name": "Eker\u00f6", "state": "", "country": "SE", "coord": {"lon": 17.81212, "lat": 59.291}}, {"id": 2716601, "name": "Eken\u00e4ssj\u00f6n", "state": "", "country": "SE", "coord": {"lon": 15.0, "lat": 57.5}}, {"id": 2716668, "name": "Ekeby", "state": "", "country": "SE", "coord": {"lon": 17.52, "lat": 59.25}}, {"id": 2716758, "name": "Ek\u00e4ngen", "state": "", "country": "SE", "coord": {"lon": 15.63333, "lat": 58.466671}}, {"id": 2716825, "name": "Edsvalla", "state": "", "country": "SE", "coord": {"lon": 13.18333, "lat": 59.433331}}, {"id": 2716854, "name": "Edsg\u00e5rden", "state": "", "country": "SE", "coord": {"lon": 17.299999, "lat": 62.48333}}, {"id": 2716863, "name": "Edsbyn", "state": "", "country": "SE", "coord": {"lon": 15.81747, "lat": 61.376919}}, {"id": 2716968, "name": "Ed", "state": "", "country": "SE", "coord": {"lon": 11.92534, "lat": 58.912498}}, {"id": 2717126, "name": "Duvbo", "state": "", "country": "SE", "coord": {"lon": 17.961531, "lat": 59.368759}}, {"id": 2717266, "name": "Dr\u00e4ngsered", "state": "", "country": "SE", "coord": {"lon": 12.36667, "lat": 57.816669}}, {"id": 2717268, "name": "Dr\u00e4ngsbo", "state": "", "country": "SE", "coord": {"lon": 16.133329, "lat": 58.25}}, {"id": 2717400, "name": "Dorotea Kommun", "state": "", "country": "SE", "coord": {"lon": 16.0, "lat": 64.5}}, {"id": 2717401, "name": "Dorotea", "state": "", "country": "SE", "coord": {"lon": 16.413059, "lat": 64.261848}}, {"id": 2717412, "name": "Dons\u00f6", "state": "", "country": "SE", "coord": {"lon": 11.79917, "lat": 57.599998}}, {"id": 2717517, "name": "Djursholm", "state": "", "country": "SE", "coord": {"lon": 18.05619, "lat": 59.399261}}, {"id": 2717558, "name": "Djur\u00e5s", "state": "", "country": "SE", "coord": {"lon": 15.13333, "lat": 60.549999}}, {"id": 2717720, "name": "Diser\u00f6d", "state": "", "country": "SE", "coord": {"lon": 12.01667, "lat": 57.916672}}, {"id": 2717824, "name": "Delsbo", "state": "", "country": "SE", "coord": {"lon": 16.55571, "lat": 61.801041}}, {"id": 2717842, "name": "Deje", "state": "", "country": "SE", "coord": {"lon": 13.46667, "lat": 59.599998}}, {"id": 2717881, "name": "Degerfors Kommun", "state": "", "country": "SE", "coord": {"lon": 14.43333, "lat": 59.26667}}, {"id": 2717884, "name": "Degerfors", "state": "", "country": "SE", "coord": {"lon": 14.43077, "lat": 59.237968}}, {"id": 2717898, "name": "Degeberga", "state": "", "country": "SE", "coord": {"lon": 14.08333, "lat": 55.833328}}, {"id": 2718133, "name": "Dals L\u00e5nged", "state": "", "country": "SE", "coord": {"lon": 12.3, "lat": 58.916672}}, {"id": 2718144, "name": "Dalsj\u00f6fors", "state": "", "country": "SE", "coord": {"lon": 13.08333, "lat": 57.716671}}, {"id": 2718245, "name": "Dalby", "state": "", "country": "SE", "coord": {"lon": 17.35, "lat": 59.533329}}, {"id": 2718271, "name": "Dalar\u00f6", "state": "", "country": "SE", "coord": {"lon": 18.406389, "lat": 59.13306}}, {"id": 2718393, "name": "Charlottenberg", "state": "", "country": "SE", "coord": {"lon": 12.30398, "lat": 59.88422}}, {"id": 2718759, "name": "Bunkeflostrand", "state": "", "country": "SE", "coord": {"lon": 12.95, "lat": 55.533329}}, {"id": 2718836, "name": "Bua", "state": "", "country": "SE", "coord": {"lon": 12.66667, "lat": 57.566669}}, {"id": 2718839, "name": "Bua", "state": "", "country": "SE", "coord": {"lon": 12.13333, "lat": 57.23333}}, {"id": 2718975, "name": "Brunna", "state": "", "country": "SE", "coord": {"lon": 16.01034, "lat": 60.26255}}, {"id": 2718991, "name": "Brunflo", "state": "", "country": "SE", "coord": {"lon": 14.83203, "lat": 63.075859}}, {"id": 2719106, "name": "Brom\u00f6lla", "state": "", "country": "SE", "coord": {"lon": 14.46958, "lat": 56.075508}}, {"id": 2719111, "name": "Bromma", "state": "", "country": "SE", "coord": {"lon": 17.940001, "lat": 59.34}}, {"id": 2719212, "name": "Broby", "state": "", "country": "SE", "coord": {"lon": 14.07797, "lat": 56.255211}}, {"id": 2719245, "name": "Bro", "state": "", "country": "SE", "coord": {"lon": 17.633329, "lat": 59.51667}}, {"id": 2719312, "name": "Brevik", "state": "", "country": "SE", "coord": {"lon": 18.200001, "lat": 59.349998}}, {"id": 2719318, "name": "Brevik", "state": "", "country": "SE", "coord": {"lon": 18.383329, "lat": 59.216671}}, {"id": 2719466, "name": "Bredbyn", "state": "", "country": "SE", "coord": {"lon": 18.110189, "lat": 63.446548}}, {"id": 2719485, "name": "Bredaryd", "state": "", "country": "SE", "coord": {"lon": 13.73333, "lat": 57.166672}}, {"id": 2719609, "name": "Bratt\u00e5sen", "state": "", "country": "SE", "coord": {"lon": 14.3, "lat": 63.099998}}, {"id": 2719670, "name": "Brastad", "state": "", "country": "SE", "coord": {"lon": 11.48333, "lat": 58.383331}}, {"id": 2719757, "name": "Br\u00e4nningen", "state": "", "country": "SE", "coord": {"lon": 13.98333, "lat": 58.466671}}, {"id": 2719961, "name": "Br\u00e5landa", "state": "", "country": "SE", "coord": {"lon": 12.36667, "lat": 58.566669}}, {"id": 2719965, "name": "Br\u00e4kne-Hoby", "state": "", "country": "SE", "coord": {"lon": 15.11667, "lat": 56.23333}}, {"id": 2720004, "name": "Br\u00e4cke", "state": "", "country": "SE", "coord": {"lon": 15.42193, "lat": 62.750671}}, {"id": 2720028, "name": "Bra\u00e5s", "state": "", "country": "SE", "coord": {"lon": 15.05, "lat": 57.066669}}, {"id": 2720037, "name": "Boxholm", "state": "", "country": "SE", "coord": {"lon": 15.05376, "lat": 58.197189}}, {"id": 2720114, "name": "Botkyrka Kommun", "state": "", "country": "SE", "coord": {"lon": 17.816669, "lat": 59.200001}}, {"id": 2720382, "name": "Borl\u00e4nge Kommun", "state": "", "country": "SE", "coord": {"lon": 15.41667, "lat": 60.466671}}, {"id": 2720383, "name": "Borl\u00e4nge", "state": "", "country": "SE", "coord": {"lon": 15.43714, "lat": 60.485802}}, {"id": 2720437, "name": "Borgholm", "state": "", "country": "SE", "coord": {"lon": 16.65634, "lat": 56.879299}}, {"id": 2720485, "name": "Borensberg", "state": "", "country": "SE", "coord": {"lon": 15.28333, "lat": 58.566669}}, {"id": 2720496, "name": "Bor\u00e5s", "state": "", "country": "SE", "coord": {"lon": 12.96667, "lat": 57.75}}, {"id": 2720501, "name": "Bor\u00e5s", "state": "", "country": "SE", "coord": {"lon": 12.9401, "lat": 57.721008}}, {"id": 2720504, "name": "Bor", "state": "", "country": "SE", "coord": {"lon": 14.16667, "lat": 57.116669}}, {"id": 2720670, "name": "Bollstabruk", "state": "", "country": "SE", "coord": {"lon": 17.673479, "lat": 62.997768}}, {"id": 2720678, "name": "Bolln\u00e4s Kommun", "state": "", "country": "SE", "coord": {"lon": 16.433331, "lat": 61.349998}}, {"id": 2720679, "name": "Bolln\u00e4s", "state": "", "country": "SE", "coord": {"lon": 16.39464, "lat": 61.348171}}, {"id": 2720681, "name": "Bollmora", "state": "", "country": "SE", "coord": {"lon": 18.227619, "lat": 59.241959}}, {"id": 2720689, "name": "Bollebygd", "state": "", "country": "SE", "coord": {"lon": 12.57272, "lat": 57.668659}}, {"id": 2720793, "name": "Boksj\u00f6", "state": "", "country": "SE", "coord": {"lon": 15.8, "lat": 65.666672}}, {"id": 2721035, "name": "Bodafors", "state": "", "country": "SE", "coord": {"lon": 14.7, "lat": 57.5}}, {"id": 2721226, "name": "Boarp", "state": "", "country": "SE", "coord": {"lon": 13.78333, "lat": 55.933331}}, {"id": 2721259, "name": "Boo", "state": "", "country": "SE", "coord": {"lon": 18.283331, "lat": 59.333328}}, {"id": 2721285, "name": "Blomsterm\u00e5la", "state": "", "country": "SE", "coord": {"lon": 16.33333, "lat": 56.98333}}, {"id": 2721348, "name": "Blentarp", "state": "", "country": "SE", "coord": {"lon": 13.6, "lat": 55.583328}}, {"id": 2721357, "name": "Blekinge", "state": "", "country": "SE", "coord": {"lon": 15.33333, "lat": 56.333328}}, {"id": 2721505, "name": "Blacksta", "state": "", "country": "SE", "coord": {"lon": 16.9, "lat": 58.75}}, {"id": 2721518, "name": "Blackeberg", "state": "", "country": "SE", "coord": {"lon": 17.879049, "lat": 59.348572}}, {"id": 2721534, "name": "Bjuv", "state": "", "country": "SE", "coord": {"lon": 12.91914, "lat": 56.083721}}, {"id": 2721581, "name": "Bjurs\u00e5s", "state": "", "country": "SE", "coord": {"lon": 15.43333, "lat": 60.73333}}, {"id": 2721585, "name": "Bjurholm", "state": "", "country": "SE", "coord": {"lon": 19.21369, "lat": 63.930271}}, {"id": 2721828, "name": "Bj\u00f6rneborg", "state": "", "country": "SE", "coord": {"lon": 14.25, "lat": 59.25}}, {"id": 2722026, "name": "Bj\u00f6rk\u00f6", "state": "", "country": "SE", "coord": {"lon": 19.0, "lat": 59.75}}, {"id": 2722120, "name": "Bj\u00f6rkfors", "state": "", "country": "SE", "coord": {"lon": 15.08333, "lat": 65.816673}}, {"id": 2722320, "name": "Bj\u00e4sta", "state": "", "country": "SE", "coord": {"lon": 18.5, "lat": 63.200001}}, {"id": 2722362, "name": "Bj\u00e4rred", "state": "", "country": "SE", "coord": {"lon": 13.01667, "lat": 55.716671}}, {"id": 2722363, "name": "Bj\u00e4rnum", "state": "", "country": "SE", "coord": {"lon": 13.7, "lat": 56.283329}}, {"id": 2722545, "name": "Billingsfors", "state": "", "country": "SE", "coord": {"lon": 12.25, "lat": 58.98333}}, {"id": 2722563, "name": "Billesholm", "state": "", "country": "SE", "coord": {"lon": 13.0, "lat": 56.049999}}, {"id": 2722570, "name": "Billdal", "state": "", "country": "SE", "coord": {"lon": 11.93333, "lat": 57.566669}}, {"id": 2722734, "name": "Bergsj\u00f6", "state": "", "country": "SE", "coord": {"lon": 17.063681, "lat": 61.982529}}, {"id": 2722742, "name": "Bergshamra", "state": "", "country": "SE", "coord": {"lon": 18.034269, "lat": 59.380829}}, {"id": 2722751, "name": "Hoverberg", "state": "", "country": "SE", "coord": {"lon": 14.44735, "lat": 62.813808}}, {"id": 2722799, "name": "Bergholmen", "state": "", "country": "SE", "coord": {"lon": 13.51576, "lat": 59.36338}}, {"id": 2722836, "name": "Bergeforsen", "state": "", "country": "SE", "coord": {"lon": 17.383329, "lat": 62.533329}}, {"id": 2722932, "name": "Berga", "state": "", "country": "SE", "coord": {"lon": 16.25, "lat": 58.599998}}, {"id": 2722996, "name": "Berg", "state": "", "country": "SE", "coord": {"lon": 15.52969, "lat": 58.488312}}, {"id": 2723079, "name": "Bengtsfors", "state": "", "country": "SE", "coord": {"lon": 12.23207, "lat": 59.029121}}, {"id": 2723128, "name": "Beddinge L\u00e4ge", "state": "", "country": "SE", "coord": {"lon": 13.43333, "lat": 55.533329}}, {"id": 2723201, "name": "Bastutr\u00e4sk", "state": "", "country": "SE", "coord": {"lon": 17.683331, "lat": 65.0}}, {"id": 2723287, "name": "B\u00e5stad", "state": "", "country": "SE", "coord": {"lon": 12.85339, "lat": 56.426891}}, {"id": 2723350, "name": "B\u00e5rsl\u00f6v", "state": "", "country": "SE", "coord": {"lon": 12.81667, "lat": 56.0}}, {"id": 2723362, "name": "Barsele", "state": "", "country": "SE", "coord": {"lon": 17.466669, "lat": 65.050003}}, {"id": 2723440, "name": "Bark\u00e5kra", "state": "", "country": "SE", "coord": {"lon": 12.83333, "lat": 56.299999}}, {"id": 2723488, "name": "Bara", "state": "", "country": "SE", "coord": {"lon": 17.066669, "lat": 58.683331}}, {"id": 2723503, "name": "Bankeryd", "state": "", "country": "SE", "coord": {"lon": 14.11667, "lat": 57.849998}}, {"id": 2723567, "name": "B\u00e5lsta", "state": "", "country": "SE", "coord": {"lon": 17.527809, "lat": 59.567101}}, {"id": 2724134, "name": "Axvall", "state": "", "country": "SE", "coord": {"lon": 13.56667, "lat": 58.383331}}, {"id": 2724180, "name": "Axelvold", "state": "", "country": "SE", "coord": {"lon": 13.09178, "lat": 55.96854}}, {"id": 2724227, "name": "\u00c5vik", "state": "", "country": "SE", "coord": {"lon": 17.1, "lat": 61.73333}}, {"id": 2724231, "name": "Avesta", "state": "", "country": "SE", "coord": {"lon": 16.16785, "lat": 60.145451}}, {"id": 2724320, "name": "\u00c5tvidabergs Kommun", "state": "", "country": "SE", "coord": {"lon": 16.0, "lat": 58.166672}}, {"id": 2724321, "name": "\u00c5tvidaberg", "state": "", "country": "SE", "coord": {"lon": 15.9977, "lat": 58.201519}}, {"id": 2724327, "name": "Attsj\u00f6", "state": "", "country": "SE", "coord": {"lon": 15.08333, "lat": 56.900002}}, {"id": 2724410, "name": "\u00c5sundatorp", "state": "", "country": "SE", "coord": {"lon": 13.21667, "lat": 59.299999}}, {"id": 2724413, "name": "\u00c5sumtorp", "state": "", "country": "SE", "coord": {"lon": 14.15, "lat": 56.0}}, {"id": 2724435, "name": "\u00c5storp", "state": "", "country": "SE", "coord": {"lon": 12.9443, "lat": 56.135658}}, {"id": 2724472, "name": "Assmundtorp", "state": "", "country": "SE", "coord": {"lon": 12.28333, "lat": 57.683331}}, {"id": 2724621, "name": "Aspen\u00e4s", "state": "", "country": "SE", "coord": {"lon": 12.23333, "lat": 57.783329}}, {"id": 2724693, "name": "Asmundtorp", "state": "", "country": "SE", "coord": {"lon": 12.93333, "lat": 55.883331}}, {"id": 2724778, "name": "Askersund", "state": "", "country": "SE", "coord": {"lon": 14.9023, "lat": 58.879879}}, {"id": 2724956, "name": "\u00c5sele Kommun", "state": "", "country": "SE", "coord": {"lon": 17.33333, "lat": 64.166672}}, {"id": 2724958, "name": "\u00c5sele", "state": "", "country": "SE", "coord": {"lon": 17.33333, "lat": 64.166672}}, {"id": 2724962, "name": "\u00c5seda", "state": "", "country": "SE", "coord": {"lon": 15.3443, "lat": 57.170101}}, {"id": 2725003, "name": "\u00c5sbro", "state": "", "country": "SE", "coord": {"lon": 15.05, "lat": 59.0}}, {"id": 2725065, "name": "\u00c5sa", "state": "", "country": "SE", "coord": {"lon": 14.6, "lat": 58.01667}}, {"id": 2725073, "name": "\u00c5s", "state": "", "country": "SE", "coord": {"lon": 16.58333, "lat": 63.366669}}, {"id": 2725123, "name": "Arvika", "state": "", "country": "SE", "coord": {"lon": 12.58518, "lat": 59.655281}}, {"id": 2725134, "name": "Arvidsjaurs Kommun", "state": "", "country": "SE", "coord": {"lon": 19.25, "lat": 65.666672}}, {"id": 2725136, "name": "Arvidsjaur", "state": "", "country": "SE", "coord": {"lon": 19.166821, "lat": 65.590332}}, {"id": 2725192, "name": "\u00c5rsunda", "state": "", "country": "SE", "coord": {"lon": 16.73333, "lat": 60.533329}}, {"id": 2725194, "name": "\u00c5rstaskog", "state": "", "country": "SE", "coord": {"lon": 18.043329, "lat": 59.30262}}, {"id": 2725201, "name": "\u00c5rsta", "state": "", "country": "SE", "coord": {"lon": 18.051399, "lat": 59.297798}}, {"id": 2725271, "name": "Arn\u00f6", "state": "", "country": "SE", "coord": {"lon": 18.633329, "lat": 60.116669}}, {"id": 2725336, "name": "Arl\u00f6v", "state": "", "country": "SE", "coord": {"lon": 13.07141, "lat": 55.632481}}, {"id": 2725348, "name": "\u00c4rla", "state": "", "country": "SE", "coord": {"lon": 16.66667, "lat": 59.283329}}, {"id": 2725371, "name": "Arjeplogs Kommun", "state": "", "country": "SE", "coord": {"lon": 17.0, "lat": 66.416672}}, {"id": 2725372, "name": "Arjeplog", "state": "", "country": "SE", "coord": {"lon": 17.886061, "lat": 66.051727}}, {"id": 2725378, "name": "\u00c5rj\u00e4ngs Kommun", "state": "", "country": "SE", "coord": {"lon": 12.16667, "lat": 59.416672}}, {"id": 2725379, "name": "\u00c5rj\u00e4ng", "state": "", "country": "SE", "coord": {"lon": 12.13336, "lat": 59.39217}}, {"id": 2725422, "name": "\u00c5re kommun", "state": "", "country": "SE", "coord": {"lon": 13.08333, "lat": 63.416672}}, {"id": 2725432, "name": "Are", "state": "", "country": "SE", "coord": {"lon": 13.08019, "lat": 63.39835}}, {"id": 2725439, "name": "Ardala", "state": "", "country": "SE", "coord": {"lon": 13.33333, "lat": 58.349998}}, {"id": 2725456, "name": "Arbr\u00e5", "state": "", "country": "SE", "coord": {"lon": 16.383329, "lat": 61.466671}}, {"id": 2725469, "name": "Arboga Kommun", "state": "", "country": "SE", "coord": {"lon": 15.83333, "lat": 59.383331}}, {"id": 2725471, "name": "Arboga", "state": "", "country": "SE", "coord": {"lon": 15.83882, "lat": 59.393871}}, {"id": 2725722, "name": "Ankarsrum", "state": "", "country": "SE", "coord": {"lon": 16.316669, "lat": 57.700001}}, {"id": 2725898, "name": "\u00c4ngelholms Kommun", "state": "", "country": "SE", "coord": {"lon": 12.88333, "lat": 56.23333}}, {"id": 2725901, "name": "\u00c4ngelholm", "state": "", "country": "SE", "coord": {"lon": 12.86219, "lat": 56.242802}}, {"id": 2725924, "name": "\u00c5nge", "state": "", "country": "SE", "coord": {"lon": 15.65904, "lat": 62.524948}}, {"id": 2726005, "name": "Aneby", "state": "", "country": "SE", "coord": {"lon": 14.81016, "lat": 57.838951}}, {"id": 2726026, "name": "Anderstorp", "state": "", "country": "SE", "coord": {"lon": 14.28333, "lat": 58.883331}}, {"id": 2726049, "name": "Andersl\u00f6v", "state": "", "country": "SE", "coord": {"lon": 13.33333, "lat": 55.433331}}, {"id": 2726163, "name": "\u00c5motfors", "state": "", "country": "SE", "coord": {"lon": 12.36667, "lat": 59.76667}}, {"id": 2726240, "name": "\u00c5m\u00e5l", "state": "", "country": "SE", "coord": {"lon": 12.70492, "lat": 59.050999}}, {"id": 2726285, "name": "\u00c4lvkarleby", "state": "", "country": "SE", "coord": {"lon": 17.44895, "lat": 60.570808}}, {"id": 2726314, "name": "Alvesta", "state": "", "country": "SE", "coord": {"lon": 14.55559, "lat": 56.899349}}, {"id": 2726330, "name": "\u00c4lvdalens kommun", "state": "", "country": "SE", "coord": {"lon": 13.75, "lat": 61.333328}}, {"id": 2726332, "name": "\u00c4lvdalen", "state": "", "country": "SE", "coord": {"lon": 14.03935, "lat": 61.227741}}, {"id": 2726347, "name": "\u00c4lv\u00e4ngen", "state": "", "country": "SE", "coord": {"lon": 12.11667, "lat": 57.966671}}, {"id": 2726394, "name": "\u00c4lta", "state": "", "country": "SE", "coord": {"lon": 18.183331, "lat": 59.26667}}, {"id": 2726416, "name": "Alster", "state": "", "country": "SE", "coord": {"lon": 13.61369, "lat": 59.398529}}, {"id": 2726470, "name": "Alsike", "state": "", "country": "SE", "coord": {"lon": 17.75, "lat": 59.75}}, {"id": 2726568, "name": "\u00c4lmhults Kommun", "state": "", "country": "SE", "coord": {"lon": 14.11667, "lat": 56.549999}}, {"id": 2726576, "name": "\u00c4lmhult", "state": "", "country": "SE", "coord": {"lon": 14.13827, "lat": 56.55146}}, {"id": 2726615, "name": "Almby", "state": "", "country": "SE", "coord": {"lon": 15.25, "lat": 59.26667}}, {"id": 2726705, "name": "Alleby", "state": "", "country": "SE", "coord": {"lon": 11.86667, "lat": 57.76667}}, {"id": 2726755, "name": "Alings\u00e5s Kommun", "state": "", "country": "SE", "coord": {"lon": 12.5, "lat": 58.0}}, {"id": 2726756, "name": "Alings\u00e5s", "state": "", "country": "SE", "coord": {"lon": 12.53345, "lat": 57.930328}}, {"id": 2726939, "name": "Alfta", "state": "", "country": "SE", "coord": {"lon": 16.074989, "lat": 61.346748}}, {"id": 2726983, "name": "\u00c5led", "state": "", "country": "SE", "coord": {"lon": 12.93333, "lat": 56.75}}, {"id": 2727130, "name": "Alafors", "state": "", "country": "SE", "coord": {"lon": 12.07835, "lat": 57.925789}}, {"id": 2727222, "name": "\u00c5kers Styckebruk", "state": "", "country": "SE", "coord": {"lon": 17.08333, "lat": 59.25}}, {"id": 2727234, "name": "\u00c5kersberga", "state": "", "country": "SE", "coord": {"lon": 18.299669, "lat": 59.479439}}, {"id": 2727314, "name": "\u00c5karp", "state": "", "country": "SE", "coord": {"lon": 13.65, "lat": 58.23333}}, {"id": 2727363, "name": "\u00c5hus", "state": "", "country": "SE", "coord": {"lon": 14.28333, "lat": 55.916672}}, {"id": 2727594, "name": "\u00c5by", "state": "", "country": "SE", "coord": {"lon": 16.183331, "lat": 58.666672}}, {"id": 2727664, "name": "Abisko", "state": "", "country": "SE", "coord": {"lon": 18.82868, "lat": 68.349136}}, {"id": 2727731, "name": "Abborrberget", "state": "", "country": "SE", "coord": {"lon": 14.8, "lat": 60.150002}}, {"id": 2729456, "name": "Nybyen", "state": "", "country": "SJ", "coord": {"lon": 15.59119, "lat": 78.201851}}, {"id": 2729907, "name": "Longyearbyen", "state": "", "country": "SJ", "coord": {"lon": 15.64007, "lat": 78.218597}}, {"id": 2732223, "name": "Zambujal", "state": "", "country": "PT", "coord": {"lon": -8.44568, "lat": 40.05587}}, {"id": 2732240, "name": "Vizela", "state": "", "country": "PT", "coord": {"lon": -8.26389, "lat": 41.390961}}, {"id": 2732241, "name": "Vizela", "state": "", "country": "PT", "coord": {"lon": -8.24887, "lat": 41.38242}}, {"id": 2732242, "name": "Vizela", "state": "", "country": "PT", "coord": {"lon": -8.28376, "lat": 41.36591}}, {"id": 2732264, "name": "Distrito de Viseu", "state": "", "country": "PT", "coord": {"lon": -7.83333, "lat": 40.75}}, {"id": 2732265, "name": "Viseu", "state": "", "country": "PT", "coord": {"lon": -7.90971, "lat": 40.661011}}, {"id": 2732268, "name": "Virais", "state": "", "country": "PT", "coord": {"lon": -8.38522, "lat": 41.362049}}, {"id": 2732272, "name": "Vinh\u00f3s", "state": "", "country": "PT", "coord": {"lon": -7.95221, "lat": 41.100788}}, {"id": 2732275, "name": "Vinho", "state": "", "country": "PT", "coord": {"lon": -7.94339, "lat": 40.265961}}, {"id": 2732286, "name": "Vinhais", "state": "", "country": "PT", "coord": {"lon": -7.00501, "lat": 41.835091}}, {"id": 2732287, "name": "Vinha da Rainha", "state": "", "country": "PT", "coord": {"lon": -8.72934, "lat": 40.064522}}, {"id": 2732312, "name": "Vilela", "state": "", "country": "PT", "coord": {"lon": -7.60338, "lat": 41.225109}}, {"id": 2732322, "name": "Vila Verde da Raia", "state": "", "country": "PT", "coord": {"lon": -7.42381, "lat": 41.790859}}, {"id": 2732326, "name": "Vila Verde", "state": "", "country": "PT", "coord": {"lon": -8.43715, "lat": 41.647289}}, {"id": 2732340, "name": "Vila Soeiro", "state": "", "country": "PT", "coord": {"lon": -7.34216, "lat": 40.539711}}, {"id": 2732356, "name": "Vila Ruiva", "state": "", "country": "PT", "coord": {"lon": -7.77069, "lat": 40.541599}}, {"id": 2732379, "name": "Vilarinho de Cotas", "state": "", "country": "PT", "coord": {"lon": -7.52772, "lat": 41.21452}}, {"id": 2732390, "name": "Vilarinho das Cambas", "state": "", "country": "PT", "coord": {"lon": -8.5553, "lat": 41.386021}}, {"id": 2732404, "name": "Vilarinho", "state": "", "country": "PT", "coord": {"lon": -8.33123, "lat": 41.35955}}, {"id": 2732420, "name": "Vilar Formoso", "state": "", "country": "PT", "coord": {"lon": -6.83398, "lat": 40.61245}}, {"id": 2732434, "name": "Vilarelho", "state": "", "country": "PT", "coord": {"lon": -7.543, "lat": 41.503891}}, {"id": 2732435, "name": "Vilarelho", "state": "", "country": "PT", "coord": {"lon": -8.01366, "lat": 41.18362}}, {"id": 2732437, "name": "Distrito de Vila Real", "state": "", "country": "PT", "coord": {"lon": -7.58333, "lat": 41.583328}}, {"id": 2732438, "name": "Vila Real", "state": "", "country": "PT", "coord": {"lon": -7.74413, "lat": 41.300621}}, {"id": 2732442, "name": "Vilar do Pinheiro", "state": "", "country": "PT", "coord": {"lon": -8.66886, "lat": 41.269779}}, {"id": 2732443, "name": "Vilar do Peso", "state": "", "country": "PT", "coord": {"lon": -8.11427, "lat": 41.058949}}, {"id": 2732444, "name": "Vilar do Para\u00edso", "state": "", "country": "PT", "coord": {"lon": -8.6211, "lat": 41.089741}}, {"id": 2732448, "name": "Vilar do Monte", "state": "", "country": "PT", "coord": {"lon": -7.93622, "lat": 40.77264}}, {"id": 2732459, "name": "Vilar de Nantes", "state": "", "country": "PT", "coord": {"lon": -7.44994, "lat": 41.707062}}, {"id": 2732460, "name": "Vilar de Murteda", "state": "", "country": "PT", "coord": {"lon": -8.72205, "lat": 41.769878}}, {"id": 2732473, "name": "Vilar de Besteiros", "state": "", "country": "PT", "coord": {"lon": -8.08091, "lat": 40.586811}}, {"id": 2732475, "name": "Vilar de Andorinho", "state": "", "country": "PT", "coord": {"lon": -8.59632, "lat": 41.10751}}, {"id": 2732483, "name": "Vilarandelo", "state": "", "country": "PT", "coord": {"lon": -7.3219, "lat": 41.662899}}, {"id": 2732497, "name": "Vilar", "state": "", "country": "PT", "coord": {"lon": -7.73374, "lat": 41.669411}}, {"id": 2732514, "name": "Vilar", "state": "", "country": "PT", "coord": {"lon": -8.28649, "lat": 40.232361}}, {"id": 2732516, "name": "Vila Praia de \u00c2ncora", "state": "", "country": "PT", "coord": {"lon": -8.85255, "lat": 41.810982}}, {"id": 2732533, "name": "Vila Nune", "state": "", "country": "PT", "coord": {"lon": -7.95433, "lat": 41.46188}}, {"id": 2732542, "name": "Vila Nova de Monsarros", "state": "", "country": "PT", "coord": {"lon": -8.3993, "lat": 40.40823}}, {"id": 2732544, "name": "Vila Nova de Gaia", "state": "", "country": "PT", "coord": {"lon": -8.61742, "lat": 41.133629}}, {"id": 2732547, "name": "Vila Nova de Famalic\u00e3o", "state": "", "country": "PT", "coord": {"lon": -8.51978, "lat": 41.40797}}, {"id": 2732551, "name": "Vila Nova da Telha", "state": "", "country": "PT", "coord": {"lon": -8.64146, "lat": 41.071701}}, {"id": 2732554, "name": "Vila Nova da Rainha", "state": "", "country": "PT", "coord": {"lon": -8.08332, "lat": 40.466949}}, {"id": 2732566, "name": "Vila Nova", "state": "", "country": "PT", "coord": {"lon": -7.88565, "lat": 41.28759}}, {"id": 2732568, "name": "Vila Nova", "state": "", "country": "PT", "coord": {"lon": -8.39167, "lat": 41.18507}}, {"id": 2732597, "name": "Vila Me\u00e3", "state": "", "country": "PT", "coord": {"lon": -8.18397, "lat": 41.25116}}, {"id": 2732626, "name": "Vila Frescainha", "state": "", "country": "PT", "coord": {"lon": -8.63971, "lat": 41.53846}}, {"id": 2732630, "name": "Vila Franca da Serra", "state": "", "country": "PT", "coord": {"lon": -7.53738, "lat": 40.590858}}, {"id": 2732649, "name": "Vila do Conde", "state": "", "country": "PT", "coord": {"lon": -8.7434, "lat": 41.354809}}, {"id": 2732651, "name": "Vila de Punhe", "state": "", "country": "PT", "coord": {"lon": -8.73456, "lat": 41.6576}}, {"id": 2732665, "name": "Vila Cova de Alva", "state": "", "country": "PT", "coord": {"lon": -7.93886, "lat": 40.285179}}, {"id": 2732678, "name": "Vila Cova", "state": "", "country": "PT", "coord": {"lon": -7.60404, "lat": 40.925171}}, {"id": 2732681, "name": "Vila Cort\u00eas da Serra", "state": "", "country": "PT", "coord": {"lon": -7.52845, "lat": 40.55117}}, {"id": 2732685, "name": "Vila Ch\u00e3 de S\u00e1", "state": "", "country": "PT", "coord": {"lon": -7.94873, "lat": 40.613419}}, {"id": 2732705, "name": "Vila Ch\u00e3", "state": "", "country": "PT", "coord": {"lon": -8.46667, "lat": 40.866669}}, {"id": 2732713, "name": "Vila Boa do Bispo", "state": "", "country": "PT", "coord": {"lon": -8.2204, "lat": 41.130371}}, {"id": 2732714, "name": "Vila Boa de Quires", "state": "", "country": "PT", "coord": {"lon": -8.20332, "lat": 41.210011}}, {"id": 2732726, "name": "Vila Boa", "state": "", "country": "PT", "coord": {"lon": -8.63878, "lat": 41.298981}}, {"id": 2732728, "name": "Vila Boa", "state": "", "country": "PT", "coord": {"lon": -8.56332, "lat": 40.918781}}, {"id": 2732731, "name": "Vila Boa", "state": "", "country": "PT", "coord": {"lon": -7.76258, "lat": 40.700779}}, {"id": 2732733, "name": "Vila Boa", "state": "", "country": "PT", "coord": {"lon": -7.00443, "lat": 40.382469}}, {"id": 2732764, "name": "Vide", "state": "", "country": "PT", "coord": {"lon": -7.56748, "lat": 40.949669}}, {"id": 2732768, "name": "Vidago", "state": "", "country": "PT", "coord": {"lon": -7.57175, "lat": 41.640129}}, {"id": 2732770, "name": "Viatodos", "state": "", "country": "PT", "coord": {"lon": -8.56227, "lat": 41.452271}}, {"id": 2732771, "name": "Viariz", "state": "", "country": "PT", "coord": {"lon": -7.9628, "lat": 41.169418}}, {"id": 2732772, "name": "Distrito de Viana do Castelo", "state": "", "country": "PT", "coord": {"lon": -8.41667, "lat": 41.916672}},