[{"id": 2800439, "name": "Chaudfontaine", "state": "", "country": "BE", "coord": {"lon": 5.63333, "lat": 50.583328}}, {"id": 2800445, "name": "Ch\u00e2telineau", "state": "", "country": "BE", "coord": {"lon": 4.52016, "lat": 50.415001}}, {"id": 2800448, "name": "Ch\u00e2telet", "state": "", "country": "BE", "coord": {"lon": 4.52826, "lat": 50.403381}}, {"id": 2800449, "name": "Ch\u00e2telet", "state": "", "country": "BE", "coord": {"lon": 4.5298, "lat": 50.403049}}, {"id": 2800457, "name": "Chastre-Villeroux-Blanmont", "state": "", "country": "BE", "coord": {"lon": 4.64198, "lat": 50.60857}}, {"id": 2800458, "name": "Chastre", "state": "", "country": "BE", "coord": {"lon": 4.62988, "lat": 50.600891}}, {"id": 2800461, "name": "Chasse Royale", "state": "", "country": "BE", "coord": {"lon": 3.95001, "lat": 50.428421}}, {"id": 2800480, "name": "Arrondissement de Charleroi", "state": "", "country": "BE", "coord": {"lon": 4.44534, "lat": 50.413658}}, {"id": 2800481, "name": "Charleroi", "state": "", "country": "BE", "coord": {"lon": 4.44448, "lat": 50.411362}}, {"id": 2800482, "name": "Charleroi", "state": "", "country": "BE", "coord": {"lon": 4.44654, "lat": 50.412998}}, {"id": 2800500, "name": "Chapelle-lez-Herlaimont", "state": "", "country": "BE", "coord": {"lon": 4.28227, "lat": 50.471298}}, {"id": 2800501, "name": "Chapelle-lez-Herlaimont", "state": "", "country": "BE", "coord": {"lon": 4.28492, "lat": 50.464279}}, {"id": 2800540, "name": "Champ Laurent", "state": "", "country": "BE", "coord": {"lon": 4.62038, "lat": 50.686378}}, {"id": 2800558, "name": "Champ de Mai", "state": "", "country": "BE", "coord": {"lon": 4.38582, "lat": 50.712978}}, {"id": 2800560, "name": "Champ Blandais", "state": "", "country": "BE", "coord": {"lon": 5.58333, "lat": 49.916672}}, {"id": 2800575, "name": "Chaineux", "state": "", "country": "BE", "coord": {"lon": 5.83478, "lat": 50.631828}}, {"id": 2800591, "name": "Cerfontaine", "state": "", "country": "BE", "coord": {"lon": 4.41028, "lat": 50.170471}}, {"id": 2800592, "name": "Cerfontaine", "state": "", "country": "BE", "coord": {"lon": 4.41153, "lat": 50.170029}}, {"id": 2800605, "name": "Celles", "state": "", "country": "BE", "coord": {"lon": 3.45733, "lat": 50.712292}}, {"id": 2800608, "name": "Celles", "state": "", "country": "BE", "coord": {"lon": 3.4483, "lat": 50.703838}}, {"id": 2800609, "name": "Faimes", "state": "", "country": "BE", "coord": {"lon": 5.25902, "lat": 50.662682}}, {"id": 2800613, "name": "Cawette", "state": "", "country": "BE", "coord": {"lon": 5.48603, "lat": 49.5942}}, {"id": 2800688, "name": "Cacqhus", "state": "", "country": "BE", "coord": {"lon": 5.31667, "lat": 50.599998}}, {"id": 2800711, "name": "Butgenbach", "state": "", "country": "BE", "coord": {"lon": 6.20504, "lat": 50.426891}}, {"id": 2800712, "name": "Butgenbach", "state": "", "country": "BE", "coord": {"lon": 6.20556, "lat": 50.427441}}, {"id": 2800761, "name": "Burdinne", "state": "", "country": "BE", "coord": {"lon": 5.07663, "lat": 50.584541}}, {"id": 2800762, "name": "Burdinne", "state": "", "country": "BE", "coord": {"lon": 5.0756, "lat": 50.58226}}, {"id": 2800782, "name": "Bullange", "state": "", "country": "BE", "coord": {"lon": 6.25749, "lat": 50.40731}}, {"id": 2800783, "name": "Bullange", "state": "", "country": "BE", "coord": {"lon": 6.25929, "lat": 50.40781}}, {"id": 2800816, "name": "Buggenhout", "state": "", "country": "BE", "coord": {"lon": 4.20173, "lat": 51.0159}}, {"id": 2800817, "name": "Buggenhout", "state": "", "country": "BE", "coord": {"lon": 4.19943, "lat": 51.012691}}, {"id": 2800825, "name": "Bucquoi", "state": "", "country": "BE", "coord": {"lon": 3.23333, "lat": 50.666672}}, {"id": 2800865, "name": "Arrondissement Brussel-Hoofdstad", "state": "", "country": "BE", "coord": {"lon": 4.35, "lat": 50.849998}}, {"id": 2800866, "name": "Brussels", "state": "", "country": "BE", "coord": {"lon": 4.34878, "lat": 50.850449}}, {"id": 2800867, "name": "Bruxelles-Capitale", "state": "", "country": "BE", "coord": {"lon": 4.35144, "lat": 50.853321}}, {"id": 2800883, "name": "Brunehault", "state": "", "country": "BE", "coord": {"lon": 4.43209, "lat": 50.505241}}, {"id": 2800930, "name": "Arrondissement Brugge", "state": "", "country": "BE", "coord": {"lon": 3.21667, "lat": 51.200001}}, {"id": 2800931, "name": "Brugge", "state": "", "country": "BE", "coord": {"lon": 3.22424, "lat": 51.20892}}, {"id": 2800935, "name": "Brugge", "state": "", "country": "BE", "coord": {"lon": 3.21667, "lat": 51.25}}, {"id": 2800936, "name": "Brugelette", "state": "", "country": "BE", "coord": {"lon": 3.85363, "lat": 50.595772}}, {"id": 2800955, "name": "Brombais", "state": "", "country": "BE", "coord": {"lon": 4.78921, "lat": 50.695221}}, {"id": 2801008, "name": "Broek", "state": "", "country": "BE", "coord": {"lon": 4.28333, "lat": 50.833328}}, {"id": 2801093, "name": "Bree", "state": "", "country": "BE", "coord": {"lon": 5.5969, "lat": 51.141521}}, {"id": 2801094, "name": "Bree", "state": "", "country": "BE", "coord": {"lon": 5.59891, "lat": 51.141819}}, {"id": 2801103, "name": "Bredene", "state": "", "country": "BE", "coord": {"lon": 2.97559, "lat": 51.23489}}, {"id": 2801104, "name": "Bredene", "state": "", "country": "BE", "coord": {"lon": 2.9804, "lat": 51.23341}}, {"id": 2801106, "name": "Brecht", "state": "", "country": "BE", "coord": {"lon": 4.63829, "lat": 51.350239}}, {"id": 2801107, "name": "Brecht", "state": "", "country": "BE", "coord": {"lon": 4.63333, "lat": 51.349998}}, {"id": 2801117, "name": "Brasschaat", "state": "", "country": "BE", "coord": {"lon": 4.49182, "lat": 51.291199}}, {"id": 2801118, "name": "Brasschaat", "state": "", "country": "BE", "coord": {"lon": 4.49495, "lat": 51.291451}}, {"id": 2801147, "name": "Braives", "state": "", "country": "BE", "coord": {"lon": 5.13302, "lat": 50.617451}}, {"id": 2801148, "name": "Braives", "state": "", "country": "BE", "coord": {"lon": 5.13508, "lat": 50.617229}}, {"id": 2801150, "name": "Braine-le-Comte", "state": "", "country": "BE", "coord": {"lon": 4.14658, "lat": 50.609791}}, {"id": 2801151, "name": "Braine-le-Comte", "state": "", "country": "BE", "coord": {"lon": 4.14344, "lat": 50.60817}}, {"id": 2801152, "name": "Braine-le-Ch\u00e2teau", "state": "", "country": "BE", "coord": {"lon": 4.27385, "lat": 50.679901}}, {"id": 2801153, "name": "Braine-le-Ch\u00e2teau", "state": "", "country": "BE", "coord": {"lon": 4.2871, "lat": 50.680721}}, {"id": 2801154, "name": "Braine-l'Alleud", "state": "", "country": "BE", "coord": {"lon": 4.36784, "lat": 50.683632}}, {"id": 2801155, "name": "Braine-l'Alleud", "state": "", "country": "BE", "coord": {"lon": 4.35984, "lat": 50.675129}}, {"id": 2801201, "name": "Bouvy", "state": "", "country": "BE", "coord": {"lon": 4.17959, "lat": 50.469479}}, {"id": 2801215, "name": "Boutersem", "state": "", "country": "BE", "coord": {"lon": 4.8345, "lat": 50.83511}}, {"id": 2801216, "name": "Boutersem", "state": "", "country": "BE", "coord": {"lon": 4.83107, "lat": 50.83456}}, {"id": 2801226, "name": "Boussu", "state": "", "country": "BE", "coord": {"lon": 3.7944, "lat": 50.43417}}, {"id": 2801227, "name": "Boussu", "state": "", "country": "BE", "coord": {"lon": 3.79578, "lat": 50.43438}}, {"id": 2801283, "name": "Bouillon", "state": "", "country": "BE", "coord": {"lon": 5.06704, "lat": 49.79324}}, {"id": 2801284, "name": "Bouillon", "state": "", "country": "BE", "coord": {"lon": 5.06779, "lat": 49.79689}}, {"id": 2801285, "name": "Bouillenne", "state": "", "country": "BE", "coord": {"lon": 5.68333, "lat": 50.616669}}, {"id": 2801290, "name": "Bouge", "state": "", "country": "BE", "coord": {"lon": 4.89218, "lat": 50.471931}}, {"id": 2801348, "name": "Bossuit", "state": "", "country": "BE", "coord": {"lon": 3.40822, "lat": 50.748508}}, {"id": 2801423, "name": "Bos", "state": "", "country": "BE", "coord": {"lon": 4.71667, "lat": 51.066669}}, {"id": 2801438, "name": "Borsbeek", "state": "", "country": "BE", "coord": {"lon": 4.48543, "lat": 51.196609}}, {"id": 2801439, "name": "Borsbeek", "state": "", "country": "BE", "coord": {"lon": 4.48337, "lat": 51.195862}}, {"id": 2801447, "name": "Bornem", "state": "", "country": "BE", "coord": {"lon": 4.24364, "lat": 51.09716}}, {"id": 2801448, "name": "Bornem", "state": "", "country": "BE", "coord": {"lon": 4.24192, "lat": 51.09705}}, {"id": 2801463, "name": "Borgt Driesen", "state": "", "country": "BE", "coord": {"lon": 4.78333, "lat": 51.26667}}, {"id": 2801467, "name": "Borgloon", "state": "", "country": "BE", "coord": {"lon": 5.34366, "lat": 50.80505}}, {"id": 2801468, "name": "Borgloon", "state": "", "country": "BE", "coord": {"lon": 5.34365, "lat": 50.803982}}, {"id": 2801483, "name": "Boortmeerbeek", "state": "", "country": "BE", "coord": {"lon": 4.57443, "lat": 50.97929}}, {"id": 2801484, "name": "Boortmeerbeek", "state": "", "country": "BE", "coord": {"lon": 4.5728, "lat": 50.97961}}, {"id": 2801490, "name": "Boonmerkt", "state": "", "country": "BE", "coord": {"lon": 4.71602, "lat": 51.086281}}, {"id": 2801494, "name": "Boom", "state": "", "country": "BE", "coord": {"lon": 4.3717, "lat": 51.092419}}, {"id": 2801495, "name": "Boom", "state": "", "country": "BE", "coord": {"lon": 4.37153, "lat": 51.093281}}, {"id": 2801507, "name": "Bonvoisin", "state": "", "country": "BE", "coord": {"lon": 5.84661, "lat": 50.61467}}, {"id": 2801539, "name": "Bonheiden", "state": "", "country": "BE", "coord": {"lon": 4.54714, "lat": 51.02261}}, {"id": 2801540, "name": "Bonheiden", "state": "", "country": "BE", "coord": {"lon": 4.54868, "lat": 51.02293}}, {"id": 2801553, "name": "Bonance", "state": "", "country": "BE", "coord": {"lon": 5.38802, "lat": 49.921822}}, {"id": 2801612, "name": "Bosvoorde", "state": "", "country": "BE", "coord": {"lon": 4.4, "lat": 50.799999}}, {"id": 2801619, "name": "Bois Robert", "state": "", "country": "BE", "coord": {"lon": 4.21667, "lat": 50.5}}, {"id": 2801652, "name": "Bois de Nauwe", "state": "", "country": "BE", "coord": {"lon": 4.3059, "lat": 50.52457}}, {"id": 2801691, "name": "Boffereth", "state": "", "country": "BE", "coord": {"lon": 5.95, "lat": 50.73333}}, {"id": 2801743, "name": "Boechout", "state": "", "country": "BE", "coord": {"lon": 4.49195, "lat": 51.159592}}, {"id": 2801744, "name": "Boechout", "state": "", "country": "BE", "coord": {"lon": 4.49324, "lat": 51.159908}}, {"id": 2801754, "name": "Bocholt", "state": "", "country": "BE", "coord": {"lon": 5.57994, "lat": 51.17337}}, {"id": 2801755, "name": "Bocholt", "state": "", "country": "BE", "coord": {"lon": 5.57831, "lat": 51.174278}}, {"id": 2801779, "name": "Bloed Putteken", "state": "", "country": "BE", "coord": {"lon": 2.86667, "lat": 51.033329}}, {"id": 2801791, "name": "Blier", "state": "", "country": "BE", "coord": {"lon": 5.54809, "lat": 50.277321}}, {"id": 2801820, "name": "Bl\u00e9gny", "state": "", "country": "BE", "coord": {"lon": 5.72508, "lat": 50.67255}}, {"id": 2801858, "name": "Blankenberge", "state": "", "country": "BE", "coord": {"lon": 3.13227, "lat": 51.313061}}, {"id": 2801859, "name": "Blankenberge", "state": "", "country": "BE", "coord": {"lon": 3.14175, "lat": 51.301231}}, {"id": 2801922, "name": "Binche", "state": "", "country": "BE", "coord": {"lon": 4.16469, "lat": 50.411549}}, {"id": 2801923, "name": "Binche", "state": "", "country": "BE", "coord": {"lon": 4.16587, "lat": 50.416229}}, {"id": 2801924, "name": "Bilzen", "state": "", "country": "BE", "coord": {"lon": 5.5184, "lat": 50.873249}}, {"id": 2801925, "name": "Bilzen", "state": "", "country": "BE", "coord": {"lon": 5.51625, "lat": 50.872978}}, {"id": 2801949, "name": "Bi\u00e8vre", "state": "", "country": "BE", "coord": {"lon": 5.01592, "lat": 49.940861}}, {"id": 2801950, "name": "Bi\u00e8vre", "state": "", "country": "BE", "coord": {"lon": 5.01646, "lat": 49.94001}}, {"id": 2801958, "name": "Biest", "state": "", "country": "BE", "coord": {"lon": 4.82351, "lat": 50.947128}}, {"id": 2801998, "name": "Bierbeek", "state": "", "country": "BE", "coord": {"lon": 4.75949, "lat": 50.828758}}, {"id": 2801999, "name": "Bierbeek", "state": "", "country": "BE", "coord": {"lon": 4.76189, "lat": 50.828819}}, {"id": 2802015, "name": "Beyne-Heusay", "state": "", "country": "BE", "coord": {"lon": 5.66508, "lat": 50.622509}}, {"id": 2802016, "name": "Beyne-Heusay", "state": "", "country": "BE", "coord": {"lon": 5.6644, "lat": 50.62257}}, {"id": 2802031, "name": "Beveren", "state": "", "country": "BE", "coord": {"lon": 4.25633, "lat": 51.211868}}, {"id": 2802035, "name": "Beveren", "state": "", "country": "BE", "coord": {"lon": 4.23708, "lat": 51.255939}}, {"id": 2802051, "name": "Bever", "state": "", "country": "BE", "coord": {"lon": 4.31667, "lat": 50.916672}}, {"id": 2802106, "name": "Bertrix", "state": "", "country": "BE", "coord": {"lon": 5.25539, "lat": 49.855961}}, {"id": 2802107, "name": "Bertrix", "state": "", "country": "BE", "coord": {"lon": 5.25, "lat": 49.849998}}, {"id": 2802113, "name": "Bertogne", "state": "", "country": "BE", "coord": {"lon": 5.66689, "lat": 50.083641}}, {"id": 2802114, "name": "Bertogne", "state": "", "country": "BE", "coord": {"lon": 5.668, "lat": 50.083691}}, {"id": 2802123, "name": "Bertem", "state": "", "country": "BE", "coord": {"lon": 4.62918, "lat": 50.864029}}, {"id": 2802124, "name": "Bertem", "state": "", "country": "BE", "coord": {"lon": 4.61924, "lat": 50.85191}}, {"id": 2802135, "name": "Bernissart", "state": "", "country": "BE", "coord": {"lon": 3.64961, "lat": 50.474602}}, {"id": 2802136, "name": "Bernissart", "state": "", "country": "BE", "coord": {"lon": 3.65004, "lat": 50.47411}}, {"id": 2802143, "name": "Berloz", "state": "", "country": "BE", "coord": {"lon": 5.21236, "lat": 50.698292}}, {"id": 2802144, "name": "Berloz", "state": "", "country": "BE", "coord": {"lon": 5.2137, "lat": 50.699341}}, {"id": 2802154, "name": "Berlare", "state": "", "country": "BE", "coord": {"lon": 4.0, "lat": 51.033329}}, {"id": 2802155, "name": "Berlare", "state": "", "country": "BE", "coord": {"lon": 3.98172, "lat": 51.0364}}, {"id": 2802156, "name": "Berlaar", "state": "", "country": "BE", "coord": {"lon": 4.65835, "lat": 51.117599}}, {"id": 2802157, "name": "Berlaar", "state": "", "country": "BE", "coord": {"lon": 4.65752, "lat": 51.117859}}, {"id": 2802170, "name": "Beringen", "state": "", "country": "BE", "coord": {"lon": 5.22606, "lat": 51.049541}}, {"id": 2802172, "name": "Beringen", "state": "", "country": "BE", "coord": {"lon": 5.2216, "lat": 51.050678}}, {"id": 2802243, "name": "Berendrecht", "state": "", "country": "BE", "coord": {"lon": 4.31419, "lat": 51.342522}}, {"id": 2802247, "name": "Berchem-Sainte-Agathe", "state": "", "country": "BE", "coord": {"lon": 4.29557, "lat": 50.865669}}, {"id": 2802248, "name": "Sint-Agatha-Berchem", "state": "", "country": "BE", "coord": {"lon": 4.28333, "lat": 50.866669}}, {"id": 2802251, "name": "Berchem", "state": "", "country": "BE", "coord": {"lon": 3.51317, "lat": 50.790169}}, {"id": 2802253, "name": "Berceau", "state": "", "country": "BE", "coord": {"lon": 3.624, "lat": 50.653221}}, {"id": 2802275, "name": "Bemel", "state": "", "country": "BE", "coord": {"lon": 4.41747, "lat": 50.830959}}, {"id": 2802292, "name": "Beloeil", "state": "", "country": "BE", "coord": {"lon": 3.73484, "lat": 50.550468}}, {"id": 2802294, "name": "Beloeil", "state": "", "country": "BE", "coord": {"lon": 3.68759, "lat": 50.534222}}, {"id": 2802338, "name": "Belle Fontaine", "state": "", "country": "BE", "coord": {"lon": 4.31772, "lat": 50.416721}}, {"id": 2802359, "name": "Belgrade", "state": "", "country": "BE", "coord": {"lon": 4.82935, "lat": 50.471378}}, {"id": 2802361, "name": "Kingdom of Belgium", "state": "", "country": "BE", "coord": {"lon": 4.0, "lat": 50.833328}}, {"id": 2802374, "name": "Bekkevoort", "state": "", "country": "BE", "coord": {"lon": 4.969, "lat": 50.940739}}, {"id": 2802375, "name": "Bekkevoort", "state": "", "country": "BE", "coord": {"lon": 4.96668, "lat": 50.933609}}, {"id": 2802399, "name": "Begijnhof 's Wijk", "state": "", "country": "BE", "coord": {"lon": 3.75, "lat": 51.049999}}, {"id": 2802405, "name": "Begijnendijk", "state": "", "country": "BE", "coord": {"lon": 4.78377, "lat": 51.019421}}, {"id": 2802406, "name": "Begijnendijk", "state": "", "country": "BE", "coord": {"lon": 4.7848, "lat": 51.019371}}, {"id": 2802419, "name": "Beez", "state": "", "country": "BE", "coord": {"lon": 4.91175, "lat": 50.468601}}, {"id": 2802433, "name": "Beersel", "state": "", "country": "BE", "coord": {"lon": 4.3002, "lat": 50.765888}}, {"id": 2802434, "name": "Beersel", "state": "", "country": "BE", "coord": {"lon": 4.30029, "lat": 50.76339}}, {"id": 2802435, "name": "Beerse", "state": "", "country": "BE", "coord": {"lon": 4.85304, "lat": 51.319271}}, {"id": 2802436, "name": "Beerse", "state": "", "country": "BE", "coord": {"lon": 4.85596, "lat": 51.320641}}, {"id": 2802437, "name": "Beernem", "state": "", "country": "BE", "coord": {"lon": 3.33896, "lat": 51.139809}}, {"id": 2802438, "name": "Beernem", "state": "", "country": "BE", "coord": {"lon": 3.34196, "lat": 51.151489}}, {"id": 2802464, "name": "Beekhoek", "state": "", "country": "BE", "coord": {"lon": 4.48355, "lat": 51.137501}}, {"id": 2802483, "name": "Beauvechain", "state": "", "country": "BE", "coord": {"lon": 4.7718, "lat": 50.781952}}, {"id": 2802484, "name": "Beauvechain", "state": "", "country": "BE", "coord": {"lon": 4.76667, "lat": 50.783329}}, {"id": 2802501, "name": "Beauraing", "state": "", "country": "BE", "coord": {"lon": 4.95554, "lat": 50.11042}}, {"id": 2802502, "name": "Beauraing", "state": "", "country": "BE", "coord": {"lon": 4.95595, "lat": 50.109192}}, {"id": 2802510, "name": "Beaumont", "state": "", "country": "BE", "coord": {"lon": 4.23926, "lat": 50.236992}}, {"id": 2802511, "name": "Beaumont", "state": "", "country": "BE", "coord": {"lon": 4.23969, "lat": 50.236832}}, {"id": 2802582, "name": "Arrondissement de Bastogne", "state": "", "country": "BE", "coord": {"lon": 5.71667, "lat": 50.0}}, {"id": 2802583, "name": "Bastogne", "state": "", "country": "BE", "coord": {"lon": 5.71844, "lat": 50.003471}}, {"id": 2802584, "name": "Bastogne", "state": "", "country": "BE", "coord": {"lon": 5.71667, "lat": 50.0}}, {"id": 2802606, "name": "Bassenge", "state": "", "country": "BE", "coord": {"lon": 5.60989, "lat": 50.758831}}, {"id": 2802607, "name": "Bassenge", "state": "", "country": "BE", "coord": {"lon": 5.60921, "lat": 50.75948}}, {"id": 2802610, "name": "Basse Lasne", "state": "", "country": "BE", "coord": {"lon": 4.49218, "lat": 50.69503}}, {"id": 2802627, "name": "Basse Awirs", "state": "", "country": "BE", "coord": {"lon": 5.41524, "lat": 50.58654}}, {"id": 2802646, "name": "Bas Bois", "state": "", "country": "BE", "coord": {"lon": 5.75, "lat": 50.616669}}, {"id": 2802681, "name": "Bl\u00e9gny", "state": "", "country": "BE", "coord": {"lon": 5.72396, "lat": 50.672798}}, {"id": 2802713, "name": "Banet Sarts", "state": "", "country": "BE", "coord": {"lon": 5.11667, "lat": 50.01667}}, {"id": 2802743, "name": "Balen", "state": "", "country": "BE", "coord": {"lon": 5.17027, "lat": 51.168369}}, {"id": 2802744, "name": "Balen", "state": "", "country": "BE", "coord": {"lon": 5.17173, "lat": 51.168419}}, {"id": 2802787, "name": "Baelen", "state": "", "country": "BE", "coord": {"lon": 5.97433, "lat": 50.63131}}, {"id": 2802788, "name": "Baelen", "state": "", "country": "BE", "coord": {"lon": 5.97188, "lat": 50.631329}}, {"id": 2802789, "name": "Baegn\u00e9e", "state": "", "country": "BE", "coord": {"lon": 5.1424, "lat": 50.63026}}, {"id": 2802796, "name": "Baconfoy", "state": "", "country": "BE", "coord": {"lon": 5.53385, "lat": 50.08617}}, {"id": 2802815, "name": "Baarleveld", "state": "", "country": "BE", "coord": {"lon": 3.60624, "lat": 51.04525}}, {"id": 2802816, "name": "Baarle-Hertog", "state": "", "country": "BE", "coord": {"lon": 4.89226, "lat": 51.405041}}, {"id": 2802817, "name": "Baarle-Hertog", "state": "", "country": "BE", "coord": {"lon": 4.89158, "lat": 51.404079}}, {"id": 2802837, "name": "Aywaille", "state": "", "country": "BE", "coord": {"lon": 5.67684, "lat": 50.47411}}, {"id": 2802838, "name": "Aywaille", "state": "", "country": "BE", "coord": {"lon": 5.67976, "lat": 50.473789}}, {"id": 2802849, "name": "Awans", "state": "", "country": "BE", "coord": {"lon": 5.46329, "lat": 50.66774}}, {"id": 2802851, "name": "Awans", "state": "", "country": "BE", "coord": {"lon": 5.46667, "lat": 50.666672}}, {"id": 2802871, "name": "Avelgem", "state": "", "country": "BE", "coord": {"lon": 3.44502, "lat": 50.77618}}, {"id": 2802872, "name": "Avelgem", "state": "", "country": "BE", "coord": {"lon": 3.46012, "lat": 50.7812}}, {"id": 2802903, "name": "Sambreville", "state": "", "country": "BE", "coord": {"lon": 4.63383, "lat": 50.434662}}, {"id": 2802922, "name": "Au Pont", "state": "", "country": "BE", "coord": {"lon": 4.13333, "lat": 50.599998}}, {"id": 2802960, "name": "Auderghem", "state": "", "country": "BE", "coord": {"lon": 4.43333, "lat": 50.816669}}, {"id": 2802961, "name": "Oudergem", "state": "", "country": "BE", "coord": {"lon": 4.43333, "lat": 50.816669}}, {"id": 2802985, "name": "Aubel", "state": "", "country": "BE", "coord": {"lon": 5.85812, "lat": 50.701889}}, {"id": 2802986, "name": "Aubel", "state": "", "country": "BE", "coord": {"lon": 5.85872, "lat": 50.703201}}, {"id": 2802990, "name": "Aubange", "state": "", "country": "BE", "coord": {"lon": 5.80492, "lat": 49.566521}}, {"id": 2802991, "name": "Aubange", "state": "", "country": "BE", "coord": {"lon": 5.8, "lat": 49.583328}}, {"id": 2802996, "name": "Attert", "state": "", "country": "BE", "coord": {"lon": 5.78634, "lat": 49.750351}}, {"id": 2802997, "name": "Attert", "state": "", "country": "BE", "coord": {"lon": 5.78525, "lat": 49.75116}}, {"id": 2803003, "name": "Atrin", "state": "", "country": "BE", "coord": {"lon": 5.37258, "lat": 50.417198}}, {"id": 2803009, "name": "Arrondissement d'Ath", "state": "", "country": "BE", "coord": {"lon": 3.74816, "lat": 50.638889}}, {"id": 2803010, "name": "Ath", "state": "", "country": "BE", "coord": {"lon": 3.77801, "lat": 50.629372}}, {"id": 2803011, "name": "Ath", "state": "", "country": "BE", "coord": {"lon": 3.77938, "lat": 50.628288}}, {"id": 2803018, "name": "Assesse", "state": "", "country": "BE", "coord": {"lon": 5.02204, "lat": 50.369339}}, {"id": 2803019, "name": "Assesse", "state": "", "country": "BE", "coord": {"lon": 5.02058, "lat": 50.369339}}, {"id": 2803026, "name": "Assenede", "state": "", "country": "BE", "coord": {"lon": 3.75085, "lat": 51.225979}}, {"id": 2803027, "name": "Assenede", "state": "", "country": "BE", "coord": {"lon": 3.71517, "lat": 51.228001}}, {"id": 2803033, "name": "Asse", "state": "", "country": "BE", "coord": {"lon": 4.19836, "lat": 50.91011}}, {"id": 2803035, "name": "Asse", "state": "", "country": "BE", "coord": {"lon": 4.2, "lat": 50.916672}}, {"id": 2803053, "name": "As", "state": "", "country": "BE", "coord": {"lon": 5.58453, "lat": 51.007549}}, {"id": 2803054, "name": "As", "state": "", "country": "BE", "coord": {"lon": 5.58672, "lat": 51.00922}}, {"id": 2803072, "name": "Arrondissement d'Arlon", "state": "", "country": "BE", "coord": {"lon": 5.81778, "lat": 49.68351}}, {"id": 2803073, "name": "Arlon", "state": "", "country": "BE", "coord": {"lon": 5.81667, "lat": 49.683331}}, {"id": 2803074, "name": "Arlon", "state": "", "country": "BE", "coord": {"lon": 5.81667, "lat": 49.683331}}, {"id": 2803083, "name": "Arendonk", "state": "", "country": "BE", "coord": {"lon": 5.08289, "lat": 51.32267}}, {"id": 2803084, "name": "Arendonk", "state": "", "country": "BE", "coord": {"lon": 5.07826, "lat": 51.322239}}, {"id": 2803091, "name": "Ardooie", "state": "", "country": "BE", "coord": {"lon": 3.19736, "lat": 50.9757}}, {"id": 2803092, "name": "Ardooie", "state": "", "country": "BE", "coord": {"lon": 3.20318, "lat": 50.981419}}, {"id": 2803130, "name": "Anzegem", "state": "", "country": "BE", "coord": {"lon": 3.47786, "lat": 50.837002}}, {"id": 2803131, "name": "Anzegem", "state": "", "country": "BE", "coord": {"lon": 3.45475, "lat": 50.831402}}, {"id": 2803136, "name": "Provincie Antwerpen", "state": "", "country": "BE", "coord": {"lon": 4.83333, "lat": 51.166672}}, {"id": 2803137, "name": "Arrondissement Antwerpen", "state": "", "country": "BE", "coord": {"lon": 4.41667, "lat": 51.216671}}, {"id": 2803138, "name": "Antwerpen", "state": "", "country": "BE", "coord": {"lon": 4.40346, "lat": 51.219891}}, {"id": 2803139, "name": "Antwerpen", "state": "", "country": "BE", "coord": {"lon": 4.41667, "lat": 51.216671}}, {"id": 2803144, "name": "Antoing", "state": "", "country": "BE", "coord": {"lon": 3.4492, "lat": 50.56765}}, {"id": 2803145, "name": "Antoing", "state": "", "country": "BE", "coord": {"lon": 3.46532, "lat": 50.556}}, {"id": 2803148, "name": "Anthisnes", "state": "", "country": "BE", "coord": {"lon": 5.519, "lat": 50.483231}}, {"id": 2803149, "name": "Anthisnes", "state": "", "country": "BE", "coord": {"lon": 5.51667, "lat": 50.48333}}, {"id": 2803160, "name": "Ans", "state": "", "country": "BE", "coord": {"lon": 5.52029, "lat": 50.6623}}, {"id": 2803161, "name": "Ans", "state": "", "country": "BE", "coord": {"lon": 5.51908, "lat": 50.662361}}, {"id": 2803174, "name": "Anh\u00e9e", "state": "", "country": "BE", "coord": {"lon": 4.87827, "lat": 50.31039}}, {"id": 2803175, "name": "Anh\u00e9e", "state": "", "country": "BE", "coord": {"lon": 4.87887, "lat": 50.310059}}, {"id": 2803183, "name": "Angleur", "state": "", "country": "BE", "coord": {"lon": 5.59942, "lat": 50.611301}}, {"id": 2803195, "name": "Andoy", "state": "", "country": "BE", "coord": {"lon": 4.92669, "lat": 50.435249}}, {"id": 2803199, "name": "Anderlues", "state": "", "country": "BE", "coord": {"lon": 4.27136, "lat": 50.40704}}, {"id": 2803200, "name": "Anderlues", "state": "", "country": "BE", "coord": {"lon": 4.26982, "lat": 50.407261}}, {"id": 2803204, "name": "Andenne", "state": "", "country": "BE", "coord": {"lon": 5.09513, "lat": 50.48941}}, {"id": 2803205, "name": "Andenne", "state": "", "country": "BE", "coord": {"lon": 5.09834, "lat": 50.48951}}, {"id": 2803242, "name": "Ambl\u00e8ve", "state": "", "country": "BE", "coord": {"lon": 6.17002, "lat": 50.353569}}, {"id": 2803243, "name": "Ambl\u00e8ve", "state": "", "country": "BE", "coord": {"lon": 6.16814, "lat": 50.351379}}, {"id": 2803245, "name": "Sainte-Ode", "state": "", "country": "BE", "coord": {"lon": 5.52544, "lat": 50.026161}}, {"id": 2803246, "name": "Amay", "state": "", "country": "BE", "coord": {"lon": 5.30974, "lat": 50.54829}}, {"id": 2803247, "name": "Amay", "state": "", "country": "BE", "coord": {"lon": 5.3088, "lat": 50.54845}}, {"id": 2803252, "name": "Alveringem", "state": "", "country": "BE", "coord": {"lon": 2.71117, "lat": 51.012379}}, {"id": 2803253, "name": "Alveringem", "state": "", "country": "BE", "coord": {"lon": 2.67751, "lat": 50.979321}}, {"id": 2803285, "name": "Alken", "state": "", "country": "BE", "coord": {"lon": 5.30558, "lat": 50.875519}}, {"id": 2803286, "name": "Alken", "state": "", "country": "BE", "coord": {"lon": 5.30708, "lat": 50.875092}}, {"id": 2803315, "name": "Aix-sur-Cloix", "state": "", "country": "BE", "coord": {"lon": 5.78122, "lat": 49.57616}}, {"id": 2803319, "name": "Ais\u00e9mont", "state": "", "country": "BE", "coord": {"lon": 4.61667, "lat": 50.716671}}, {"id": 2803323, "name": "Aiseau", "state": "", "country": "BE", "coord": {"lon": 4.58671, "lat": 50.411579}}, {"id": 2803324, "name": "Aiseau-Presles", "state": "", "country": "BE", "coord": {"lon": 4.58104, "lat": 50.408298}}, {"id": 2803420, "name": "Aartselaar", "state": "", "country": "BE", "coord": {"lon": 4.38678, "lat": 51.134121}}, {"id": 2803421, "name": "Aartselaar", "state": "", "country": "BE", "coord": {"lon": 4.38269, "lat": 51.135422}}, {"id": 2803429, "name": "Aarschot", "state": "", "country": "BE", "coord": {"lon": 4.83695, "lat": 50.987148}}, {"id": 2803430, "name": "Aarschot", "state": "", "country": "BE", "coord": {"lon": 4.8333, "lat": 50.987499}}, {"id": 2803443, "name": "Aalter", "state": "", "country": "BE", "coord": {"lon": 3.44693, "lat": 51.090172}}, {"id": 2803444, "name": "Aalter", "state": "", "country": "BE", "coord": {"lon": 3.43333, "lat": 51.083328}}, {"id": 2803447, "name": "Arrondissement Aalst", "state": "", "country": "BE", "coord": {"lon": 3.95535, "lat": 50.868752}}, {"id": 2803448, "name": "Aalst", "state": "", "country": "BE", "coord": {"lon": 4.0355, "lat": 50.936039}}, {"id": 2803451, "name": "Aalst", "state": "", "country": "BE", "coord": {"lon": 4.07351, "lat": 50.943321}}, {"id": 2803460, "name": "M\u00e4rkischer Kreis", "state": "", "country": "DE", "coord": {"lon": 7.74167, "lat": 51.263889}}, {"id": 2803461, "name": "Landkreis Hildesheim", "state": "", "country": "DE", "coord": {"lon": 9.965, "lat": 52.126671}}, {"id": 2803463, "name": "Landkreis Aichach-Friedberg", "state": "", "country": "DE", "coord": {"lon": 11.05472, "lat": 48.417221}}, {"id": 2803468, "name": "Zyfflich", "state": "", "country": "DE", "coord": {"lon": 5.96667, "lat": 51.816669}}, {"id": 2803474, "name": "Zwota", "state": "", "country": "DE", "coord": {"lon": 12.43333, "lat": 50.383331}}, {"id": 2803475, "name": "Zwoschwitz", "state": "", "country": "DE", "coord": {"lon": 12.1, "lat": 50.51667}}, {"id": 2803476, "name": "Zw\u00f6nitz", "state": "", "country": "DE", "coord": {"lon": 12.8, "lat": 50.633331}}, {"id": 2803489, "name": "Zwochau", "state": "", "country": "DE", "coord": {"lon": 12.26667, "lat": 51.466671}}, {"id": 2803490, "name": "Zwochau", "state": "", "country": "DE", "coord": {"lon": 12.81667, "lat": 51.433331}}, {"id": 2803504, "name": "Zwischenahnerfeld", "state": "", "country": "DE", "coord": {"lon": 8.0, "lat": 53.183331}}, {"id": 2803510, "name": "Zwintsch\u00f6na", "state": "", "country": "DE", "coord": {"lon": 12.04462, "lat": 51.447109}}, {"id": 2803515, "name": "Zwingenberg", "state": "", "country": "DE", "coord": {"lon": 8.61861, "lat": 49.726391}}, {"id": 2803516, "name": "Zwingenberg", "state": "", "country": "DE", "coord": {"lon": 9.04056, "lat": 49.41917}}, {"id": 2803519, "name": "Zwinge", "state": "", "country": "DE", "coord": {"lon": 10.38333, "lat": 51.549999}}, {"id": 2803524, "name": "Zwietow", "state": "", "country": "DE", "coord": {"lon": 13.96667, "lat": 51.683331}}, {"id": 2803537, "name": "Zwiesel", "state": "", "country": "DE", "coord": {"lon": 13.23333, "lat": 49.01667}}, {"id": 2803543, "name": "Zwiefaltendorf", "state": "", "country": "DE", "coord": {"lon": 9.51764, "lat": 48.21484}}, {"id": 2803545, "name": "Zwiefalten", "state": "", "country": "DE", "coord": {"lon": 9.46232, "lat": 48.233959}}, {"id": 2803558, "name": "Zwickau", "state": "", "country": "DE", "coord": {"lon": 12.48333, "lat": 50.716671}}, {"id": 2803560, "name": "Zwickau", "state": "", "country": "DE", "coord": {"lon": 12.5, "lat": 50.73333}}, {"id": 2803562, "name": "Zwethau", "state": "", "country": "DE", "coord": {"lon": 13.04266, "lat": 51.582619}}, {"id": 2803564, "name": "Zwesten", "state": "", "country": "DE", "coord": {"lon": 9.18333, "lat": 51.049999}}, {"id": 2803573, "name": "Zwergen", "state": "", "country": "DE", "coord": {"lon": 9.3, "lat": 51.48333}}, {"id": 2803577, "name": "Zwergau", "state": "", "country": "DE", "coord": {"lon": 11.96667, "lat": 49.866669}}, {"id": 2803588, "name": "Zwenkau", "state": "", "country": "DE", "coord": {"lon": 12.31667, "lat": 51.216671}}, {"id": 2803604, "name": "Zweiflingen", "state": "", "country": "DE", "coord": {"lon": 9.51806, "lat": 49.25639}}, {"id": 2803606, "name": "Zweifelscheid", "state": "", "country": "DE", "coord": {"lon": 6.25, "lat": 50.033329}}, {"id": 2803614, "name": "Zweifall", "state": "", "country": "DE", "coord": {"lon": 6.25, "lat": 50.716671}}, {"id": 2803620, "name": "Zweibr\u00fccken", "state": "", "country": "DE", "coord": {"lon": 7.36667, "lat": 49.25}}, {"id": 2803624, "name": "Zweenfurth", "state": "", "country": "DE", "coord": {"lon": 12.55, "lat": 51.333328}}, {"id": 2803635, "name": "Zwebendorf", "state": "", "country": "DE", "coord": {"lon": 12.1, "lat": 51.5}}, {"id": 2803642, "name": "Zuzenhausen", "state": "", "country": "DE", "coord": {"lon": 8.82254, "lat": 49.29636}}, {"id": 2803646, "name": "Z\u00fctzschdorf", "state": "", "country": "DE", "coord": {"lon": 11.9, "lat": 51.299999}}, {"id": 2803648, "name": "Z\u00fctzen", "state": "", "country": "DE", "coord": {"lon": 13.63333, "lat": 51.933331}}, {"id": 2803650, "name": "Zustorf", "state": "", "country": "DE", "coord": {"lon": 11.93333, "lat": 48.416672}}, {"id": 2803651, "name": "Z\u00fcssow", "state": "", "country": "DE", "coord": {"lon": 13.54855, "lat": 53.977089}}, {"id": 2803654, "name": "Z\u00fcsow", "state": "", "country": "DE", "coord": {"lon": 11.68333, "lat": 53.916672}}, {"id": 2803655, "name": "Zusmarshausen", "state": "", "country": "DE", "coord": {"lon": 10.6, "lat": 48.400002}}, {"id": 2803657, "name": "Z\u00fcsedom", "state": "", "country": "DE", "coord": {"lon": 14.01667, "lat": 53.450001}}, {"id": 2803663, "name": "Z\u00fcschen", "state": "", "country": "DE", "coord": {"lon": 8.55, "lat": 51.150002}}, {"id": 2803664, "name": "Z\u00fcsch", "state": "", "country": "DE", "coord": {"lon": 7.0, "lat": 49.650002}}, {"id": 2803665, "name": "Zusamzell", "state": "", "country": "DE", "coord": {"lon": 10.6, "lat": 48.48333}}, {"id": 2803667, "name": "Zusamaltheim", "state": "", "country": "DE", "coord": {"lon": 10.63562, "lat": 48.53104}}, {"id": 2803670, "name": "Zurow", "state": "", "country": "DE", "coord": {"lon": 11.61667, "lat": 53.866669}}, {"id": 2803681, "name": "Z\u00fcrchel", "state": "", "country": "DE", "coord": {"lon": 13.85, "lat": 51.616669}}, {"id": 2803683, "name": "Z\u00fcrbach", "state": "", "country": "DE", "coord": {"lon": 7.81667, "lat": 50.566669}}, {"id": 2803686, "name": "Zunsweier", "state": "", "country": "DE", "coord": {"lon": 7.94689, "lat": 48.423851}}, {"id": 2803687, "name": "Zunschwitz", "state": "", "country": "DE", "coord": {"lon": 13.16667, "lat": 51.183331}}, {"id": 2803689, "name": "Zunham", "state": "", "country": "DE", "coord": {"lon": 12.32855, "lat": 47.946758}}, {"id": 2803722, "name": "Zultenberg", "state": "", "country": "DE", "coord": {"lon": 11.31667, "lat": 50.049999}}, {"id": 2803723, "name": "Zulpich", "state": "", "country": "DE", "coord": {"lon": 6.65, "lat": 50.700001}}, {"id": 2803727, "name": "Z\u00fclow", "state": "", "country": "DE", "coord": {"lon": 11.27146, "lat": 53.577419}}, {"id": 2803729, "name": "Z\u00fcllsdorf", "state": "", "country": "DE", "coord": {"lon": 13.11667, "lat": 51.633331}}, {"id": 2803733, "name": "Z\u00fchr", "state": "", "country": "DE", "coord": {"lon": 11.0277, "lat": 53.437462}}, {"id": 2803737, "name": "Z\u00fchlsdorf", "state": "", "country": "DE", "coord": {"lon": 13.38761, "lat": 52.73}}, {"id": 2803742, "name": "Z\u00fchlen", "state": "", "country": "DE", "coord": {"lon": 12.81667, "lat": 53.083328}}, {"id": 2803756, "name": "Zuffenhausen", "state": "", "country": "DE", "coord": {"lon": 9.17024, "lat": 48.832241}}, {"id": 2803758, "name": "Zudar", "state": "", "country": "DE", "coord": {"lon": 13.35, "lat": 54.26667}}, {"id": 2803760, "name": "Z\u00fcckshut", "state": "", "country": "DE", "coord": {"lon": 10.92616, "lat": 49.966911}}, {"id": 2803768, "name": "Zuckelhausen", "state": "", "country": "DE", "coord": {"lon": 12.45, "lat": 51.299999}}, {"id": 2803776, "name": "Zschortau", "state": "", "country": "DE", "coord": {"lon": 12.35893, "lat": 51.479301}}, {"id": 2803781, "name": "Zschornewitz", "state": "", "country": "DE", "coord": {"lon": 12.4, "lat": 51.716671}}, {"id": 2803786, "name": "Zschorlau", "state": "", "country": "DE", "coord": {"lon": 12.65, "lat": 50.566669}}, {"id": 2803790, "name": "Zsch\u00f6pperitz", "state": "", "country": "DE", "coord": {"lon": 11.3, "lat": 50.950001}}, {"id": 2803792, "name": "Zschoppelshain", "state": "", "country": "DE", "coord": {"lon": 12.83333, "lat": 51.0}}, {"id": 2803793, "name": "Zschoppach", "state": "", "country": "DE", "coord": {"lon": 12.88333, "lat": 51.216671}}, {"id": 2803798, "name": "Zschopau", "state": "", "country": "DE", "coord": {"lon": 13.06667, "lat": 50.75}}, {"id": 2803811, "name": "Zschiesewitz", "state": "", "country": "DE", "coord": {"lon": 12.41667, "lat": 51.75}}, {"id": 2803813, "name": "Zschieren", "state": "", "country": "DE", "coord": {"lon": 13.88333, "lat": 50.98333}}, {"id": 2803818, "name": "Zschernitz", "state": "", "country": "DE", "coord": {"lon": 12.23333, "lat": 51.533329}}, {"id": 2803821, "name": "Zscherneddel", "state": "", "country": "DE", "coord": {"lon": 12.11667, "lat": 51.349998}}, {"id": 2803823, "name": "Zscherndorf", "state": "", "country": "DE", "coord": {"lon": 12.26667, "lat": 51.616669}}, {"id": 2803825, "name": "Zscherben", "state": "", "country": "DE", "coord": {"lon": 11.96667, "lat": 51.333328}}, {"id": 2803827, "name": "Zschepplin", "state": "", "country": "DE", "coord": {"lon": 12.6, "lat": 51.5}}, {"id": 2803831, "name": "Zscheiplitz", "state": "", "country": "DE", "coord": {"lon": 11.73333, "lat": 51.216671}}, {"id": 2803837, "name": "Zschauitz", "state": "", "country": "DE", "coord": {"lon": 12.83333, "lat": 51.033329}}, {"id": 2803848, "name": "Zschadrass", "state": "", "country": "DE", "coord": {"lon": 12.81667, "lat": 51.133331}}, {"id": 2803857, "name": "Zotzenheim", "state": "", "country": "DE", "coord": {"lon": 7.96667, "lat": 49.866669}}, {"id": 2803859, "name": "Zotzenbach", "state": "", "country": "DE", "coord": {"lon": 8.76667, "lat": 49.603889}}, {"id": 2803870, "name": "Zossen", "state": "", "country": "DE", "coord": {"lon": 13.45, "lat": 52.216671}}, {"id": 2803874, "name": "Z\u00f6schingen", "state": "", "country": "DE", "coord": {"lon": 10.31667, "lat": 48.666672}}, {"id": 2803875, "name": "Z\u00f6schen", "state": "", "country": "DE", "coord": {"lon": 12.11667, "lat": 51.349998}}, {"id": 2803877, "name": "Zornow", "state": "", "country": "DE", "coord": {"lon": 12.65183, "lat": 54.193279}}, {"id": 2803879, "name": "Z\u00f6rnigall", "state": "", "country": "DE", "coord": {"lon": 12.75, "lat": 51.866669}}, {"id": 2803882, "name": "Zornheim", "state": "", "country": "DE", "coord": {"lon": 8.22472, "lat": 49.889999}}, {"id": 2803884, "name": "Zorneding", "state": "", "country": "DE", "coord": {"lon": 11.82446, "lat": 48.084332}}, {"id": 2803887, "name": "Zorn", "state": "", "country": "DE", "coord": {"lon": 7.91667, "lat": 50.166672}}, {"id": 2803889, "name": "Zorge", "state": "", "country": "DE", "coord": {"lon": 10.63333, "lat": 51.633331}}, {"id": 2803890, "name": "Z\u00f6rbitz", "state": "", "country": "DE", "coord": {"lon": 12.03333, "lat": 51.200001}}, {"id": 2803891, "name": "Z\u00f6rbig", "state": "", "country": "DE", "coord": {"lon": 12.11667, "lat": 51.633331}}, {"id": 2803892, "name": "Zorbau", "state": "", "country": "DE", "coord": {"lon": 12.01667, "lat": 51.200001}}, {"id": 2803893, "name": "Zopten", "state": "", "country": "DE", "coord": {"lon": 11.36667, "lat": 50.533329}}, {"id": 2803897, "name": "Zoppaten", "state": "", "country": "DE", "coord": {"lon": 11.7, "lat": 50.01667}}, {"id": 2803908, "name": "Zons", "state": "", "country": "DE", "coord": {"lon": 6.85, "lat": 51.116669}}, {"id": 2803917, "name": "Z\u00f6llnitz", "state": "", "country": "DE", "coord": {"lon": 11.63333, "lat": 50.866669}}, {"id": 2803923, "name": "Zolling", "state": "", "country": "DE", "coord": {"lon": 11.76667, "lat": 48.450001}}, {"id": 2803929, "name": "Zollhaus", "state": "", "country": "DE", "coord": {"lon": 8.06667, "lat": 50.283329}}, {"id": 2803953, "name": "Z\u00f6lkow", "state": "", "country": "DE", "coord": {"lon": 11.8206, "lat": 53.563251}}, {"id": 2803964, "name": "Zodel", "state": "", "country": "DE", "coord": {"lon": 15.01076, "lat": 51.23914}}, {"id": 2803972, "name": "Z\u00f6blitz", "state": "", "country": "DE", "coord": {"lon": 13.23333, "lat": 50.650002}}, {"id": 2803979, "name": "Z\u00f6beritz", "state": "", "country": "DE", "coord": {"lon": 12.03333, "lat": 51.51667}}, {"id": 2803983, "name": "Zobbenitz", "state": "", "country": "DE", "coord": {"lon": 11.36667, "lat": 52.400002}}, {"id": 2803984, "name": "Zizishausen", "state": "", "country": "DE", "coord": {"lon": 9.34825, "lat": 48.64119}}, {"id": 2803994, "name": "Zittow", "state": "", "country": "DE", "coord": {"lon": 11.52766, "lat": 53.677799}}, {"id": 2804008, "name": "Zittau", "state": "", "country": "DE", "coord": {"lon": 14.83333, "lat": 50.900002}}, {"id": 2804009, "name": "Ziswingen", "state": "", "country": "DE", "coord": {"lon": 10.58704, "lat": 48.78606}}, {"id": 2804018, "name": "Zislow", "state": "", "country": "DE", "coord": {"lon": 12.3131, "lat": 53.43214}}, {"id": 2804022, "name": "Zirzow", "state": "", "country": "DE", "coord": {"lon": 13.2, "lat": 53.583328}}, {"id": 2804034, "name": "Zirndorf", "state": "", "country": "DE", "coord": {"lon": 10.95414, "lat": 49.442402}}, {"id": 2804041, "name": "Zirkow", "state": "", "country": "DE", "coord": {"lon": 13.55, "lat": 54.383331}}, {"id": 2804042, "name": "Zirkow", "state": "", "country": "DE", "coord": {"lon": 13.31667, "lat": 54.366669}}, {"id": 2804051, "name": "Zirchow", "state": "", "country": "DE", "coord": {"lon": 14.13333, "lat": 53.883331}}, {"id": 2804073, "name": "Zipkeleben", "state": "", "country": "DE", "coord": {"lon": 11.71667, "lat": 52.099998}}, {"id": 2804089, "name": "Zinzenzell", "state": "", "country": "DE", "coord": {"lon": 12.58333, "lat": 49.083328}}, {"id": 2804091, "name": "Zintlhammer", "state": "", "country": "DE", "coord": {"lon": 11.91667, "lat": 49.76667}}, {"id": 2804093, "name": "Zinst", "state": "", "country": "DE", "coord": {"lon": 11.93333, "lat": 49.900002}}, {"id": 2804107, "name": "Zinnwald-Georgenfeld", "state": "", "country": "DE", "coord": {"lon": 13.76553, "lat": 50.73708}}, {"id": 2804109, "name": "Ostseebad Zinnowitz", "state": "", "country": "DE", "coord": {"lon": 13.9, "lat": 54.066669}}, {"id": 2804114, "name": "Zinndorf", "state": "", "country": "DE", "coord": {"lon": 13.91667, "lat": 52.5}}, {"id": 2804121, "name": "Zinna", "state": "", "country": "DE", "coord": {"lon": 12.95, "lat": 51.566669}}, {"id": 2804122, "name": "Zinna", "state": "", "country": "DE", "coord": {"lon": 11.73333, "lat": 50.916672}}, {"id": 2804133, "name": "Zinhain", "state": "", "country": "DE", "coord": {"lon": 7.92775, "lat": 50.643848}}, {"id": 2804135, "name": "Zingst", "state": "", "country": "DE", "coord": {"lon": 12.68333, "lat": 54.433331}}, {"id": 2804138, "name": "Zingsheim", "state": "", "country": "DE", "coord": {"lon": 6.65, "lat": 50.51667}}, {"id": 2804144, "name": "Zimpel", "state": "", "country": "DE", "coord": {"lon": 14.61667, "lat": 51.333328}}, {"id": 2804154, "name": "Zimmersdorf", "state": "", "country": "DE", "coord": {"lon": 10.48333, "lat": 49.166672}}, {"id": 2804155, "name": "Zimmerschied", "state": "", "country": "DE", "coord": {"lon": 7.78333, "lat": 50.349998}}, {"id": 2804157, "name": "Zimmern unter der Burg", "state": "", "country": "DE", "coord": {"lon": 8.71928, "lat": 48.220531}}, {"id": 2804158, "name": "Zimmernsupra", "state": "", "country": "DE", "coord": {"lon": 10.86667, "lat": 50.98333}}, {"id": 2804159, "name": "Zimmern ob Rottweil", "state": "", "country": "DE", "coord": {"lon": 8.59436, "lat": 48.166599}}, {"id": 2804161, "name": "Zimmern", "state": "", "country": "DE", "coord": {"lon": 11.63333, "lat": 51.0}}, {"id": 2804204, "name": "Zimkendorf", "state": "", "country": "DE", "coord": {"lon": 12.96667, "lat": 54.283329}}, {"id": 2804207, "name": "Ziltendorf", "state": "", "country": "DE", "coord": {"lon": 14.62411, "lat": 52.206081}}, {"id": 2804208, "name": "Zilshausen", "state": "", "country": "DE", "coord": {"lon": 7.38333, "lat": 50.116669}}, {"id": 2804210, "name": "Zilly", "state": "", "country": "DE", "coord": {"lon": 10.81667, "lat": 51.950001}}, {"id": 2804224, "name": "Zillenberg", "state": "", "country": "DE", "coord": {"lon": 11.06667, "lat": 48.283329}}, {"id": 2804225, "name": "Zillbeck", "state": "", "country": "DE", "coord": {"lon": 11.16667, "lat": 52.383331}}, {"id": 2804231, "name": "Ziggelmark", "state": "", "country": "DE", "coord": {"lon": 11.05, "lat": 53.51667}}, {"id": 2804254, "name": "Ziethen", "state": "", "country": "DE", "coord": {"lon": 13.68333, "lat": 53.883331}}, {"id": 2804255, "name": "Ziethen", "state": "", "country": "DE", "coord": {"lon": 10.81667, "lat": 53.700001}}, {"id": 2804268, "name": "Ziesendorf", "state": "", "country": "DE", "coord": {"lon": 12.03333, "lat": 54.0}}, {"id": 2804279, "name": "Ziesar", "state": "", "country": "DE", "coord": {"lon": 12.28333, "lat": 52.26667}}, {"id": 2804282, "name": "Zierzow", "state": "", "country": "DE", "coord": {"lon": 11.68333, "lat": 53.283329}}, {"id": 2804283, "name": "Ziertheim", "state": "", "country": "DE", "coord": {"lon": 10.38333, "lat": 48.650002}}, {"id": 2804285, "name": "Zierow", "state": "", "country": "DE", "coord": {"lon": 11.36667, "lat": 53.933331}}, {"id": 2804297, "name": "Zierenberg", "state": "", "country": "DE", "coord": {"lon": 9.30164, "lat": 51.36948}}, {"id": 2804303, "name": "Ziepel", "state": "", "country": "DE", "coord": {"lon": 11.86667, "lat": 52.150002}}, {"id": 2804313, "name": "Ziemetshausen", "state": "", "country": "DE", "coord": {"lon": 10.53503, "lat": 48.292439}}, {"id": 2804315, "name": "Ziemendorf", "state": "", "country": "DE", "coord": {"lon": 11.48333, "lat": 52.916672}}, {"id": 2804316, "name": "Zielow", "state": "", "country": "DE", "coord": {"lon": 12.68921, "lat": 53.354912}}, {"id": 2804318, "name": "Zielitz", "state": "", "country": "DE", "coord": {"lon": 11.67572, "lat": 52.289581}}, {"id": 2804337, "name": "Zieglhof", "state": "", "country": "DE", "coord": {"lon": 11.96754, "lat": 49.06813}}, {"id": 2804368, "name": "Ziegenr\u00fcck", "state": "", "country": "DE", "coord": {"lon": 11.65, "lat": 50.616669}}, {"id": 2804391, "name": "Ziegenhain", "state": "", "country": "DE", "coord": {"lon": 7.53333, "lat": 50.683331}}, {"id": 2804394, "name": "Ziegenhagen", "state": "", "country": "DE", "coord": {"lon": 9.75, "lat": 51.366669}}, {"id": 2804399, "name": "Ziegendorf", "state": "", "country": "DE", "coord": {"lon": 11.81667, "lat": 53.283329}}, {"id": 2804400, "name": "Ziegendorf", "state": "", "country": "DE", "coord": {"lon": 10.75, "lat": 49.299999}}, {"id": 2804401, "name": "Ziegenburg", "state": "", "country": "DE", "coord": {"lon": 11.65, "lat": 50.116669}}, {"id": 2804405, "name": "Ziegenberg", "state": "", "country": "DE", "coord": {"lon": 10.01667, "lat": 52.033329}}, {"id": 2804461, "name": "Ziegelviehbig", "state": "", "country": "DE", "coord": {"lon": 14.76667, "lat": 50.883331}}, {"id": 2804483, "name": "Ziegelrode", "state": "", "country": "DE", "coord": {"lon": 11.46667, "lat": 51.549999}}, {"id": 2804524, "name": "Ziegelhof", "state": "", "country": "DE", "coord": {"lon": 7.71667, "lat": 47.849998}}, {"id": 2804549, "name": "Ziegelheim", "state": "", "country": "DE", "coord": {"lon": 12.55, "lat": 50.933331}}, {"id": 2804554, "name": "Ziegelhausen", "state": "", "country": "DE", "coord": {"lon": 8.74889, "lat": 49.425282}}, {"id": 2804560, "name": "Ziegelerden", "state": "", "country": "DE", "coord": {"lon": 11.30613, "lat": 50.23172}}, {"id": 2804602, "name": "Ziegel", "state": "", "country": "DE", "coord": {"lon": 9.66522, "lat": 50.510368}}, {"id": 2804616, "name": "Zickhusen", "state": "", "country": "DE", "coord": {"lon": 11.41394, "lat": 53.758862}}, {"id": 2804622, "name": "Zickeritz", "state": "", "country": "DE", "coord": {"lon": 11.73333, "lat": 51.633331}}, {"id": 2804628, "name": "Zichtau", "state": "", "country": "DE", "coord": {"lon": 11.3, "lat": 52.599998}}, {"id": 2804630, "name": "Zichow", "state": "", "country": "DE", "coord": {"lon": 14.03847, "lat": 53.18927}}, {"id": 2804634, "name": "Zibberick", "state": "", "country": "DE", "coord": {"lon": 11.76667, "lat": 52.366669}}, {"id": 2804642, "name": "Zeven", "state": "", "country": "DE", "coord": {"lon": 9.28333, "lat": 53.299999}}, {"id": 2804643, "name": "Zeuzleben", "state": "", "country": "DE", "coord": {"lon": 10.06667, "lat": 49.98333}}, {"id": 2804646, "name": "Zeuthen", "state": "", "country": "DE", "coord": {"lon": 13.61667, "lat": 52.366669}}, {"id": 2804654, "name": "Zeulenroda", "state": "", "country": "DE", "coord": {"lon": 11.98333, "lat": 50.650002}}, {"id": 2804664, "name": "Zeuchfeld", "state": "", "country": "DE", "coord": {"lon": 11.83333, "lat": 51.23333}}, {"id": 2804674, "name": "Zettlitz", "state": "", "country": "DE", "coord": {"lon": 12.83333, "lat": 51.066669}}, {"id": 2804684, "name": "Zettingen", "state": "", "country": "DE", "coord": {"lon": 7.2, "lat": 50.23333}}, {"id": 2804686, "name": "Zettemin", "state": "", "country": "DE", "coord": {"lon": 12.83333, "lat": 53.650002}}, {"id": 2804689, "name": "Zetta", "state": "", "country": "DE", "coord": {"lon": 13.33333, "lat": 51.116669}}, {"id": 2804692, "name": "Zethlingen", "state": "", "country": "DE", "coord": {"lon": 11.3, "lat": 52.700001}}, {"id": 2804697, "name": "Zetel", "state": "", "country": "DE", "coord": {"lon": 7.98333, "lat": 53.416672}}, {"id": 2804700, "name": "Zessau", "state": "", "country": "DE", "coord": {"lon": 11.91667, "lat": 49.799999}}, {"id": 2804715, "name": "Zerrenthin", "state": "", "country": "DE", "coord": {"lon": 14.08979, "lat": 53.49366}}, {"id": 2804724, "name": "Zernitz", "state": "", "country": "DE", "coord": {"lon": 12.36667, "lat": 52.883331}}, {"id": 2804727, "name": "Zernin", "state": "", "country": "DE", "coord": {"lon": 11.93333, "lat": 53.799999}}, {"id": 2804729, "name": "Zernien", "state": "", "country": "DE", "coord": {"lon": 10.88325, "lat": 53.068451}}, {"id": 2804732, "name": "Zernickow", "state": "", "country": "DE", "coord": {"lon": 14.37964, "lat": 52.521858}}, {"id": 2804737, "name": "Zerm\u00fcllen", "state": "", "country": "DE", "coord": {"lon": 6.91667, "lat": 50.299999}}, {"id": 2804745, "name": "Zerf", "state": "", "country": "DE", "coord": {"lon": 6.68333, "lat": 49.599998}}, {"id": 2804748, "name": "Zerbst", "state": "", "country": "DE", "coord": {"lon": 12.08333, "lat": 51.966671}}, {"id": 2804751, "name": "Zeppernick", "state": "", "country": "DE", "coord": {"lon": 12.01667, "lat": 52.116669}}, {"id": 2804752, "name": "Zeppenheim", "state": "", "country": "DE", "coord": {"lon": 6.75771, "lat": 51.3018}}, {"id": 2804756, "name": "Zepkow", "state": "", "country": "DE", "coord": {"lon": 12.49128, "lat": 53.30175}}, {"id": 2804757, "name": "Zepfenhan", "state": "", "country": "DE", "coord": {"lon": 8.71409, "lat": 48.19138}}, {"id": 2804759, "name": "Zepernick", "state": "", "country": "DE", "coord": {"lon": 13.54091, "lat": 52.650871}}, {"id": 2804761, "name": "Zepelin", "state": "", "country": "DE", "coord": {"lon": 12.04599, "lat": 53.834801}}, {"id": 2804764, "name": "Zenting", "state": "", "country": "DE", "coord": {"lon": 13.26667, "lat": 48.799999}}, {"id": 2804765, "name": "Zentendorf", "state": "", "country": "DE", "coord": {"lon": 15.03333, "lat": 51.283329}}, {"id": 2804766, "name": "Zentbechhofen", "state": "", "country": "DE", "coord": {"lon": 10.9, "lat": 49.76667}}, {"id": 2804768, "name": "Zens", "state": "", "country": "DE", "coord": {"lon": 11.71667, "lat": 51.933331}}, {"id": 2804773, "name": "Zennern", "state": "", "country": "DE", "coord": {"lon": 9.3, "lat": 51.099998}}, {"id": 2804784, "name": "Zendscheid", "state": "", "country": "DE", "coord": {"lon": 6.6, "lat": 50.099998}}, {"id": 2804785, "name": "Zenching", "state": "", "country": "DE", "coord": {"lon": 12.83333, "lat": 49.25}}, {"id": 2804787, "name": "Zempin", "state": "", "country": "DE", "coord": {"lon": 13.96667, "lat": 54.066669}}, {"id": 2804788, "name": "Zemnick", "state": "", "country": "DE", "coord": {"lon": 12.85, "lat": 51.866669}}, {"id": 2804790, "name": "Zemmin", "state": "", "country": "DE", "coord": {"lon": 13.2593, "lat": 53.92223}}, {"id": 2804791, "name": "Zemmer", "state": "", "country": "DE", "coord": {"lon": 6.7, "lat": 49.900002}}, {"id": 2804792, "name": "Zemitz", "state": "", "country": "DE", "coord": {"lon": 13.75, "lat": 53.98333}}, {"id": 2804793, "name": "Zembschen", "state": "", "country": "DE", "coord": {"lon": 12.1, "lat": 51.150002}}, {"id": 2804796, "name": "Zeltingen", "state": "", "country": "DE", "coord": {"lon": 7.01667, "lat": 49.950001}}, {"id": 2804803, "name": "Zell unter Aichelberg", "state": "", "country": "DE", "coord": {"lon": 9.57137, "lat": 48.648819}}, {"id": 2804808, "name": "Zellingen", "state": "", "country": "DE", "coord": {"lon": 9.81722, "lat": 49.897781}}, {"id": 2804810, "name": "Zell im Wiesental", "state": "", "country": "DE", "coord": {"lon": 7.85248, "lat": 47.705551}}, {"id": 2804815, "name": "Mainhausen", "state": "", "country": "DE", "coord": {"lon": 8.98333, "lat": 50.01667}}, {"id": 2804860, "name": "Zellberg", "state": "", "country": "DE", "coord": {"lon": 10.53333, "lat": 52.383331}}, {"id": 2804865, "name": "Zell am Main", "state": "", "country": "DE", "coord": {"lon": 9.86972, "lat": 49.810001}}, {"id": 2804867, "name": "Zella-Mehlis", "state": "", "country": "DE", "coord": {"lon": 10.65, "lat": 50.650002}}, {"id": 2804876, "name": "Zella", "state": "", "country": "DE", "coord": {"lon": 10.11667, "lat": 50.666672}}, {"id": 2804877, "name": "Zell", "state": "", "country": "DE", "coord": {"lon": 8.64917, "lat": 49.674999}}, {"id": 2804880, "name": "Zell im Fichtelgebirge", "state": "", "country": "DE", "coord": {"lon": 11.82266, "lat": 50.135319}}, {"id": 2804882, "name": "Zell", "state": "", "country": "DE", "coord": {"lon": 7.18333, "lat": 50.033329}}, {"id": 2804883, "name": "Zell", "state": "", "country": "DE", "coord": {"lon": 10.56667, "lat": 49.966671}}, {"id": 2804885, "name": "Zell", "state": "", "country": "DE", "coord": {"lon": 8.13972, "lat": 49.64917}}, {"id": 2804895, "name": "Zell", "state": "", "country": "DE", "coord": {"lon": 8.06667, "lat": 48.700001}}, {"id": 2804904, "name": "Zell", "state": "", "country": "DE", "coord": {"lon": 11.44732, "lat": 47.981071}}, {"id": 2804922, "name": "Zeitz", "state": "", "country": "DE", "coord": {"lon": 12.15, "lat": 51.049999}}, {"id": 2804925, "name": "Zeitlofs", "state": "", "country": "DE", "coord": {"lon": 9.66667, "lat": 50.26667}}, {"id": 2804932, "name": "Zeitlarn", "state": "", "country": "DE", "coord": {"lon": 12.4, "lat": 49.333328}}, {"id": 2804933, "name": "Zeitlarn", "state": "", "country": "DE", "coord": {"lon": 12.1, "lat": 49.083328}}, {"id": 2804939, "name": "Zeithain", "state": "", "country": "DE", "coord": {"lon": 13.33809, "lat": 51.333561}}, {"id": 2804942, "name": "Zeitenbach", "state": "", "country": "DE", "coord": {"lon": 7.91667, "lat": 50.883331}}, {"id": 2804951, "name": "Zeiskam", "state": "", "country": "DE", "coord": {"lon": 8.24722, "lat": 49.23278}}, {"id": 2804963, "name": "Zeisertsweiler", "state": "", "country": "DE", "coord": {"lon": 9.73333, "lat": 47.583328}}, {"id": 2804979, "name": "Zeilsheim", "state": "", "country": "DE", "coord": {"lon": 8.5, "lat": 50.099998}}, {"id": 2804993, "name": "Zeilern", "state": "", "country": "DE", "coord": {"lon": 11.92317, "lat": 48.20763}}, {"id": 2805003, "name": "Zeilbach", "state": "", "country": "DE", "coord": {"lon": 9.15, "lat": 50.633331}}, {"id": 2805006, "name": "Zeilarn", "state": "", "country": "DE", "coord": {"lon": 12.83333, "lat": 48.299999}}, {"id": 2805008, "name": "Zeil", "state": "", "country": "DE", "coord": {"lon": 10.6, "lat": 50.01667}}, {"id": 2805028, "name": "Zehren", "state": "", "country": "DE", "coord": {"lon": 13.4, "lat": 51.200001}}, {"id": 2805038, "name": "Zehnruthenplan", "state": "", "country": "DE", "coord": {"lon": 13.28333, "lat": 52.400002}}, {"id": 2805041, "name": "Zehnhausen bei Wallmerod", "state": "", "country": "DE", "coord": {"lon": 7.93333, "lat": 50.466671}}, {"id": 2805042, "name": "Zehnhausen bei Rennerod", "state": "", "country": "DE", "coord": {"lon": 8.06667, "lat": 50.650002}}, {"id": 2805050, "name": "Zehna", "state": "", "country": "DE", "coord": {"lon": 12.15, "lat": 53.716671}}, {"id": 2805051, "name": "Zehmitz", "state": "", "country": "DE", "coord": {"lon": 12.11667, "lat": 51.666672}}, {"id": 2805053, "name": "Zehmigkau", "state": "", "country": "DE", "coord": {"lon": 12.08333, "lat": 51.73333}}, {"id": 2805062, "name": "Zehlendorf", "state": "", "country": "DE", "coord": {"lon": 13.38778, "lat": 52.783821}}, {"id": 2805075, "name": "Zehdenick", "state": "", "country": "DE", "coord": {"lon": 13.33165, "lat": 52.978519}}, {"id": 2805076, "name": "Zehbitz", "state": "", "country": "DE", "coord": {"lon": 12.13333, "lat": 51.683331}}, {"id": 2805086, "name": "Zeestow", "state": "", "country": "DE", "coord": {"lon": 12.95923, "lat": 52.573009}}, {"id": 2805088, "name": "Zeesen", "state": "", "country": "DE", "coord": {"lon": 13.63333, "lat": 52.26667}}, {"id": 2805092, "name": "Zedtlitz", "state": "", "country": "DE", "coord": {"lon": 12.51667, "lat": 51.099998}}, {"id": 2805095, "name": "Zedlitz", "state": "", "country": "DE", "coord": {"lon": 12.03333, "lat": 50.816669}}, {"id": 2805103, "name": "Zeckern", "state": "", "country": "DE", "coord": {"lon": 10.93637, "lat": 49.693951}}, {"id": 2805105, "name": "Zeckendorf", "state": "", "country": "DE", "coord": {"lon": 11.06667, "lat": 49.950001}}, {"id": 2805106, "name": "Zeckenberg", "state": "", "country": "DE", "coord": {"lon": 11.93333, "lat": 49.950001}}, {"id": 2805114, "name": "Zechlinerh\u00fctte", "state": "", "country": "DE", "coord": {"lon": 12.87357, "lat": 53.15593}}, {"id": 2805119, "name": "Zechin", "state": "", "country": "DE", "coord": {"lon": 14.45251, "lat": 52.608421}}, {"id": 2805138, "name": "Zavelstein", "state": "", "country": "DE", "coord": {"lon": 8.68907, "lat": 48.693958}}, {"id": 2805169, "name": "Zauche", "state": "", "country": "DE", "coord": {"lon": 13.7, "lat": 51.933331}}, {"id": 2805176, "name": "Zaschwitz", "state": "", "country": "DE", "coord": {"lon": 11.81667, "lat": 51.583328}}, {"id": 2805182, "name": "Zaschendorf", "state": "", "country": "DE", "coord": {"lon": 13.91391, "lat": 51.017429}}, {"id": 2805193, "name": "Zarrentin", "state": "", "country": "DE", "coord": {"lon": 10.91667, "lat": 53.549999}}, {"id": 2805195, "name": "Zarrendorf", "state": "", "country": "DE", "coord": {"lon": 13.10094, "lat": 54.236889}}, {"id": 2805198, "name": "Zarpen", "state": "", "country": "DE", "coord": {"lon": 10.51667, "lat": 53.866669}}, {"id": 2805205, "name": "Zarnitz", "state": "", "country": "DE", "coord": {"lon": 13.73333, "lat": 54.01667}}, {"id": 2805208, "name": "Zarnewanz", "state": "", "country": "DE", "coord": {"lon": 12.49223, "lat": 54.057831}}, {"id": 2805223, "name": "Zappendorf", "state": "", "country": "DE", "coord": {"lon": 11.8, "lat": 51.5}}, {"id": 2805228, "name": "Zapfendorf", "state": "", "country": "DE", "coord": {"lon": 10.93243, "lat": 50.01783}}, {"id": 2805231, "name": "Zapel", "state": "", "country": "DE", "coord": {"lon": 11.66667, "lat": 53.549999}}, {"id": 2805261, "name": "Zangberg", "state": "", "country": "DE", "coord": {"lon": 12.43333, "lat": 48.283329}}, {"id": 2805264, "name": "Zandt", "state": "", "country": "DE", "coord": {"lon": 12.73333, "lat": 49.150002}}, {"id": 2805265, "name": "Zandt", "state": "", "country": "DE", "coord": {"lon": 11.5, "lat": 48.916672}}, {"id": 2805278, "name": "Zaisertshofen", "state": "", "country": "DE", "coord": {"lon": 10.53333, "lat": 48.116669}}, {"id": 2805283, "name": "Zaisenhausen", "state": "", "country": "DE", "coord": {"lon": 8.81278, "lat": 49.10667}}, {"id": 2805297, "name": "Zahsow", "state": "", "country": "DE", "coord": {"lon": 14.26667, "lat": 51.76667}}, {"id": 2805303, "name": "Zahrensdorf", "state": "", "country": "DE", "coord": {"lon": 11.66667, "lat": 53.75}}, {"id": 2805313, "name": "Zahna", "state": "", "country": "DE", "coord": {"lon": 12.78333, "lat": 51.916672}}, {"id": 2805320, "name": "Zahlbach", "state": "", "country": "DE", "coord": {"lon": 10.0, "lat": 50.26667}}, {"id": 2805329, "name": "Zadelsdorf", "state": "", "country": "DE", "coord": {"lon": 11.94081, "lat": 50.666}}, {"id": 2805330, "name": "Zadels", "state": "", "country": "DE", "coord": {"lon": 10.38333, "lat": 47.900002}}, {"id": 2805334, "name": "Zacking", "state": "", "country": "DE", "coord": {"lon": 12.31667, "lat": 47.866669}}, {"id": 2805346, "name": "Zachow", "state": "", "country": "DE", "coord": {"lon": 12.78333, "lat": 52.48333}}, {"id": 2805347, "name": "Zachersdorf", "state": "", "country": "DE", "coord": {"lon": 12.66667, "lat": 49.0}}, {"id": 2805354, "name": "Zachenberg", "state": "", "country": "DE", "coord": {"lon": 13.0, "lat": 48.966671}}, {"id": 2805361, "name": "Zaberfeld", "state": "", "country": "DE", "coord": {"lon": 8.92694, "lat": 49.05611}}, {"id": 2805365, "name": "Zabeltitz", "state": "", "country": "DE", "coord": {"lon": 13.5, "lat": 51.349998}}, {"id": 2805370, "name": "Zabakuck", "state": "", "country": "DE", "coord": {"lon": 12.21667, "lat": 52.450001}}, {"id": 2805385, "name": "Xanten", "state": "", "country": "DE", "coord": {"lon": 6.45, "lat": 51.666672}}, {"id": 2805388, "name": "Wymeer", "state": "", "country": "DE", "coord": {"lon": 7.21667, "lat": 53.133331}}, {"id": 2805396, "name": "Wyk auf F\u00f6hr", "state": "", "country": "DE", "coord": {"lon": 8.56702, "lat": 54.691399}}, {"id": 2805400, "name": "Wyhl", "state": "", "country": "DE", "coord": {"lon": 7.65, "lat": 48.166672}}, {"id": 2805419, "name": "Wut\u00f6schingen", "state": "", "country": "DE", "coord": {"lon": 8.36667, "lat": 47.666672}}, {"id": 2805448, "name": "Wustrow", "state": "", "country": "DE", "coord": {"lon": 13.15, "lat": 53.48333}}, {"id": 2805449, "name": "Wustrow", "state": "", "country": "DE", "coord": {"lon": 12.9697, "lat": 53.228031}}, {"id": 2805451, "name": "Wustrow", "state": "", "country": "DE", "coord": {"lon": 11.12846, "lat": 52.923698}}, {"id": 2805463, "name": "W\u00fcstheuterode", "state": "", "country": "DE", "coord": {"lon": 10.06667, "lat": 51.316669}}, {"id": 2805475, "name": "Wusterwitz", "state": "", "country": "DE", "coord": {"lon": 12.4, "lat": 52.383331}}, {"id": 2805480, "name": "Wustermark", "state": "", "country": "DE", "coord": {"lon": 12.95, "lat": 52.549999}}, {"id": 2805481, "name": "Wusterhusen", "state": "", "country": "DE", "coord": {"lon": 13.61667, "lat": 54.116669}}, {"id": 2805483, "name": "Wusterhausen", "state": "", "country": "DE", "coord": {"lon": 12.46021, "lat": 52.891201}}, {"id": 2805494, "name": "W\u00fcstenselbitz", "state": "", "country": "DE", "coord": {"lon": 11.7, "lat": 50.216671}}, {"id": 2805496, "name": "W\u00fcstensachsen", "state": "", "country": "DE", "coord": {"lon": 10.00382, "lat": 50.500381}}, {"id": 2805497, "name": "W\u00fcstenrot", "state": "", "country": "DE", "coord": {"lon": 9.46056, "lat": 49.08083}}, {"id": 2805499, "name": "W\u00fcstenmark", "state": "", "country": "DE", "coord": {"lon": 11.25, "lat": 53.76667}}, {"id": 2805522, "name": "W\u00fcstenfelde", "state": "", "country": "DE", "coord": {"lon": 13.14514, "lat": 53.944172}}, {"id": 2805548, "name": "W\u00fcsten", "state": "", "country": "DE", "coord": {"lon": 8.78949, "lat": 52.101601}}, {"id": 2805568, "name": "Wust", "state": "", "country": "DE", "coord": {"lon": 12.61667, "lat": 52.416672}}, {"id": 2805579, "name": "Wuschlaub", "state": "", "country": "DE", "coord": {"lon": 12.13333, "lat": 51.183331}}, {"id": 2805580, "name": "W\u00fcschheim", "state": "", "country": "DE", "coord": {"lon": 6.81667, "lat": 50.700001}}, {"id": 2805581, "name": "W\u00fcschheim", "state": "", "country": "DE", "coord": {"lon": 7.41667, "lat": 50.01667}}, {"id": 2805586, "name": "W\u00fcrzweiler", "state": "", "country": "DE", "coord": {"lon": 7.86667, "lat": 49.650002}}, {"id": 2805597, "name": "Wurzen", "state": "", "country": "DE", "coord": {"lon": 12.73333, "lat": 51.366669}}, {"id": 2805615, "name": "W\u00fcrzburg", "state": "", "country": "DE", "coord": {"lon": 9.93611, "lat": 49.787781}}, {"id": 2805618, "name": "W\u00fcrzberg", "state": "", "country": "DE", "coord": {"lon": 9.08111, "lat": 49.652779}}, {"id": 2805623, "name": "Wurzbach", "state": "", "country": "DE", "coord": {"lon": 11.53333, "lat": 50.466671}}, {"id": 2805641, "name": "Wursterheide", "state": "", "country": "DE", "coord": {"lon": 8.63333, "lat": 53.76667}}, {"id": 2805644, "name": "W\u00fcrselen", "state": "", "country": "DE", "coord": {"lon": 6.13333, "lat": 50.816669}}, {"id": 2805645, "name": "W\u00fcrschwitz", "state": "", "country": "DE", "coord": {"lon": 12.80903, "lat": 51.267391}}, {"id": 2805649, "name": "Wurschen", "state": "", "country": "DE", "coord": {"lon": 14.58333, "lat": 51.183331}}, {"id": 2805652, "name": "W\u00fcrrich", "state": "", "country": "DE", "coord": {"lon": 7.3, "lat": 49.98333}}, {"id": 2805653, "name": "Wurp", "state": "", "country": "DE", "coord": {"lon": 12.05, "lat": 51.566669}}, {"id": 2805657, "name": "Wurmsham", "state": "", "country": "DE", "coord": {"lon": 12.33333, "lat": 48.349998}}, {"id": 2805666, "name": "Wurmlingen", "state": "", "country": "DE", "coord": {"lon": 8.9633, "lat": 48.503639}}, {"id": 2805667, "name": "Wurmlingen", "state": "", "country": "DE", "coord": {"lon": 8.78333, "lat": 48.0}}, {"id": 2805677, "name": "Wurmberg", "state": "", "country": "DE", "coord": {"lon": 8.81667, "lat": 48.866669}}, {"id": 2805694, "name": "Wurmannsquick", "state": "", "country": "DE", "coord": {"lon": 12.78333, "lat": 48.349998}}, {"id": 2805708, "name": "W\u00fcrges", "state": "", "country": "DE", "coord": {"lon": 8.28333, "lat": 50.283329}}, {"id": 2805722, "name": "W\u00fcrding", "state": "", "country": "DE", "coord": {"lon": 13.3495, "lat": 48.353909}}, {"id": 2805727, "name": "W\u00fcrchwitz", "state": "", "country": "DE", "coord": {"lon": 12.22744, "lat": 51.019051}}, {"id": 2805728, "name": "W\u00fcrchhausen", "state": "", "country": "DE", "coord": {"lon": 11.68333, "lat": 51.033329}}, {"id": 2805753, "name": "Wuppertal", "state": "", "country": "DE", "coord": {"lon": 7.18333, "lat": 51.26667}}, {"id": 2805761, "name": "Wunstorf", "state": "", "country": "DE", "coord": {"lon": 9.41667, "lat": 52.433331}}, {"id": 2805762, "name": "Wunsiedel", "state": "", "country": "DE", "coord": {"lon": 12.01667, "lat": 50.033329}}, {"id": 2805773, "name": "W\u00fcnschendorf", "state": "", "country": "DE", "coord": {"lon": 12.1, "lat": 50.799999}}, {"id": 2805776, "name": "Wunschenberg", "state": "", "country": "DE", "coord": {"lon": 11.95, "lat": 49.900002}}, {"id": 2805785, "name": "W\u00fcnnenberg", "state": "", "country": "DE", "coord": {"lon": 8.7, "lat": 51.51667}}, {"id": 2805793, "name": "Wundersleben", "state": "", "country": "DE", "coord": {"lon": 11.03333, "lat": 51.150002}}, {"id": 2805814, "name": "W\u00fcmbach", "state": "", "country": "DE", "coord": {"lon": 10.98333, "lat": 50.700001}}, {"id": 2805825, "name": "Wulsb\u00fcttel", "state": "", "country": "DE", "coord": {"lon": 8.66667, "lat": 53.316669}}, {"id": 2805844, "name": "Wullenstetten", "state": "", "country": "DE", "coord": {"lon": 10.06667, "lat": 48.316669}}, {"id": 2805853, "name": "Wulksfelde", "state": "", "country": "DE", "coord": {"lon": 10.11096, "lat": 53.718319}}, {"id": 2805861, "name": "W\u00fclknitz", "state": "", "country": "DE", "coord": {"lon": 13.4, "lat": 51.366669}}, {"id": 2805865, "name": "Wulkenzin", "state": "", "country": "DE", "coord": {"lon": 13.16667, "lat": 53.533329}}, {"id": 2805866, "name": "Wulkau", "state": "", "country": "DE", "coord": {"lon": 12.07415, "lat": 52.761021}}, {"id": 2805870, "name": "Wulften", "state": "", "country": "DE", "coord": {"lon": 10.17437, "lat": 51.659988}}, {"id": 2805874, "name": "Wulfstorf", "state": "", "country": "DE", "coord": {"lon": 10.52396, "lat": 53.179859}}, {"id": 2805877, "name": "Wulfsmoor", "state": "", "country": "DE", "coord": {"lon": 9.72402, "lat": 53.912331}}, {"id": 2805891, "name": "Wulfsen", "state": "", "country": "DE", "coord": {"lon": 10.15, "lat": 53.299999}}, {"id": 2805895, "name": "Wulfsdorf", "state": "", "country": "DE", "coord": {"lon": 10.21667, "lat": 53.666672}}, {"id": 2805910, "name": "W\u00fclfrath", "state": "", "country": "DE", "coord": {"lon": 7.05, "lat": 51.283329}}, {"id": 2805913, "name": "W\u00fclfingerode", "state": "", "country": "DE", "coord": {"lon": 10.51667, "lat": 51.400002}}, {"id": 2805916, "name": "Wulfing", "state": "", "country": "DE", "coord": {"lon": 12.56667, "lat": 49.216671}}, {"id": 2805921, "name": "Wulfhagen", "state": "", "country": "DE", "coord": {"lon": 9.18333, "lat": 52.349998}}, {"id": 2805923, "name": "Wulfeshohl", "state": "", "country": "DE", "coord": {"lon": 7.25, "lat": 51.26667}}, {"id": 2805925, "name": "Wulferstedt", "state": "", "country": "DE", "coord": {"lon": 11.13333, "lat": 52.01667}}, {"id": 2805927, "name": "W\u00fclfershausen", "state": "", "country": "DE", "coord": {"lon": 11.08333, "lat": 50.849998}}, {"id": 2805929, "name": "W\u00fclfershausen", "state": "", "country": "DE", "coord": {"lon": 9.99902, "lat": 50.054161}}, {"id": 2805933, "name": "W\u00fclferode", "state": "", "country": "DE", "coord": {"lon": 9.85, "lat": 52.333328}}, {"id": 2805945, "name": "Wulfen", "state": "", "country": "DE", "coord": {"lon": 11.93333, "lat": 51.816669}}, {"id": 2805988, "name": "Wrohm", "state": "", "country": "DE", "coord": {"lon": 9.4, "lat": 54.216671}}, {"id": 2805992, "name": "Wrixum", "state": "", "country": "DE", "coord": {"lon": 8.54856, "lat": 54.699928}}, {"id": 2805994, "name": "Wrist", "state": "", "country": "DE", "coord": {"lon": 9.76667, "lat": 53.933331}}, {"id": 2805998, "name": "Wrisbergholzen", "state": "", "country": "DE", "coord": {"lon": 9.91667, "lat": 52.049999}}, {"id": 2805999, "name": "Wriezen", "state": "", "country": "DE", "coord": {"lon": 14.13425, "lat": 52.720909}}, {"id": 2806002, "name": "Wriedel", "state": "", "country": "DE", "coord": {"lon": 10.29848, "lat": 53.0313}}, {"id": 2806004, "name": "Wrexen", "state": "", "country": "DE", "coord": {"lon": 8.99849, "lat": 51.509602}}, {"id": 2806007, "name": "Wrestedt", "state": "", "country": "DE", "coord": {"lon": 10.57494, "lat": 52.90435}}, {"id": 2806010, "name": "Wremerb\u00fcttel", "state": "", "country": "DE", "coord": {"lon": 8.51667, "lat": 53.650002}}, {"id": 2806011, "name": "Wremen", "state": "", "country": "DE", "coord": {"lon": 8.51667, "lat": 53.650002}}, {"id": 2806015, "name": "Wredenhagen", "state": "", "country": "DE", "coord": {"lon": 12.5172, "lat": 53.29026}}, {"id": 2806023, "name": "Wrangelsburg", "state": "", "country": "DE", "coord": {"lon": 13.6, "lat": 54.01667}}, {"id": 2806066, "name": "Woserin", "state": "", "country": "DE", "coord": {"lon": 12.00497, "lat": 53.66814}}, {"id": 2806070, "name": "Worzeldorf", "state": "", "country": "DE", "coord": {"lon": 11.1, "lat": 49.366669}}, {"id": 2806072, "name": "W\u00f6rthsee", "state": "", "country": "DE", "coord": {"lon": 11.20176, "lat": 48.063049}}, {"id": 2806079, "name": "W\u00f6rth an der Isar", "state": "", "country": "DE", "coord": {"lon": 12.35, "lat": 48.616669}}, {"id": 2806080, "name": "W\u00f6rth an der Donau", "state": "", "country": "DE", "coord": {"lon": 12.4, "lat": 49.01667}}, {"id": 2806081, "name": "W\u00f6rth am Rhein", "state": "", "country": "DE", "coord": {"lon": 8.24861, "lat": 49.05806}}, {"id": 2806082, "name": "W\u00f6rth am Main", "state": "", "country": "DE", "coord": {"lon": 9.15389, "lat": 49.79472}}, {"id": 2806083, "name": "Worth", "state": "", "country": "DE", "coord": {"lon": 10.41667, "lat": 53.466671}}, {"id": 2806085, "name": "Worth", "state": "", "country": "DE", "coord": {"lon": 7.65, "lat": 51.216671}}, {"id": 2806095, "name": "Wortelstetten", "state": "", "country": "DE", "coord": {"lon": 10.75, "lat": 48.583328}}, {"id": 2806097, "name": "W\u00f6rt", "state": "", "country": "DE", "coord": {"lon": 10.27239, "lat": 49.030472}}, {"id": 2806099, "name": "W\u00f6rsdorf", "state": "", "country": "DE", "coord": {"lon": 7.95, "lat": 50.533329}}, {"id": 2806105, "name": "W\u00f6rrstadt", "state": "", "country": "DE", "coord": {"lon": 8.12417, "lat": 49.84861}}, {"id": 2806108, "name": "Worpswede", "state": "", "country": "DE", "coord": {"lon": 8.93333, "lat": 53.216671}}, {"id": 2806127, "name": "W\u00f6rnersberg", "state": "", "country": "DE", "coord": {"lon": 8.56667, "lat": 48.566669}}, {"id": 2806134, "name": "Wormsthal", "state": "", "country": "DE", "coord": {"lon": 9.26667, "lat": 52.25}}, {"id": 2806135, "name": "Wormstedt", "state": "", "country": "DE", "coord": {"lon": 11.6, "lat": 51.033329}}, {"id": 2806136, "name": "Wormsleben", "state": "", "country": "DE", "coord": {"lon": 11.63333, "lat": 51.51667}}, {"id": 2806141, "name": "Wormsdorf", "state": "", "country": "DE", "coord": {"lon": 11.19335, "lat": 52.133701}}, {"id": 2806142, "name": "Worms", "state": "", "country": "DE", "coord": {"lon": 8.35972, "lat": 49.635559}}, {"id": 2806144, "name": "W\u00f6rmlitz", "state": "", "country": "DE", "coord": {"lon": 11.85, "lat": 52.166672}}, {"id": 2806148, "name": "Wormersdorf", "state": "", "country": "DE", "coord": {"lon": 6.98911, "lat": 50.604382}}, {"id": 2806149, "name": "W\u00f6rmersdorf", "state": "", "country": "DE", "coord": {"lon": 11.2, "lat": 48.950001}}, {"id": 2806162, "name": "W\u00f6rlitz", "state": "", "country": "DE", "coord": {"lon": 12.41667, "lat": 51.833328}}, {"id": 2806165, "name": "W\u00f6rleschwang", "state": "", "country": "DE", "coord": {"lon": 10.6, "lat": 48.433331}}, {"id": 2806173, "name": "Woringen", "state": "", "country": "DE", "coord": {"lon": 10.2, "lat": 47.916672}}, {"id": 2806174, "name": "Worin", "state": "", "country": "DE", "coord": {"lon": 14.26667, "lat": 52.51667}}, {"id": 2806176, "name": "Worfelden", "state": "", "country": "DE", "coord": {"lon": 8.54861, "lat": 49.928059}}, {"id": 2806187, "name": "W\u00f6rbzig", "state": "", "country": "DE", "coord": {"lon": 11.9, "lat": 51.716671}}, {"id": 2806190, "name": "Worblingen", "state": "", "country": "DE", "coord": {"lon": 8.86667, "lat": 47.73333}}, {"id": 2806192, "name": "Worbis", "state": "", "country": "DE", "coord": {"lon": 10.36667, "lat": 51.416672}}, {"id": 2806194, "name": "Woquard", "state": "", "country": "DE", "coord": {"lon": 7.1, "lat": 53.433331}}, {"id": 2806201, "name": "W\u00f6pplinsberg", "state": "", "country": "DE", "coord": {"lon": 7.85419, "lat": 48.135738}}, {"id": 2806205, "name": "Woppenroth", "state": "", "country": "DE", "coord": {"lon": 7.41667, "lat": 49.866669}}, {"id": 2806207, "name": "Woppenrieth", "state": "", "country": "DE", "coord": {"lon": 12.3, "lat": 49.566669}}, {"id": 2806216, "name": "Wootz", "state": "", "country": "DE", "coord": {"lon": 11.35351, "lat": 53.066292}}, {"id": 2806231, "name": "Wonsheim", "state": "", "country": "DE", "coord": {"lon": 7.96667, "lat": 49.783329}}, {"id": 2806232, "name": "Wonsees", "state": "", "country": "DE", "coord": {"lon": 11.3, "lat": 49.98333}}, {"id": 2806239, "name": "Wonfurt", "state": "", "country": "DE", "coord": {"lon": 10.46667, "lat": 50.01667}}, {"id": 2806244, "name": "Womrath", "state": "", "country": "DE", "coord": {"lon": 7.45, "lat": 49.916672}}, {"id": 2806251, "name": "W\u00f6lzow", "state": "", "country": "DE", "coord": {"lon": 11.12044, "lat": 53.498932}}, {"id": 2806255, "name": "Wolzhausen", "state": "", "country": "DE", "coord": {"lon": 8.46667, "lat": 50.866669}}, {"id": 2806275, "name": "Woltershausen", "state": "", "country": "DE", "coord": {"lon": 9.96667, "lat": 51.966671}}, {"id": 2806276, "name": "Woltershausen", "state": "", "country": "DE", "coord": {"lon": 9.95, "lat": 51.98333}}, {"id": 2806283, "name": "Woltersdorf", "state": "", "country": "DE", "coord": {"lon": 10.63333, "lat": 53.583328}}, {"id": 2806285, "name": "Woltersdorf", "state": "", "country": "DE", "coord": {"lon": 11.21667, "lat": 52.950001}}, {"id": 2806287, "name": "Woltersdorf", "state": "", "country": "DE", "coord": {"lon": 13.76667, "lat": 52.450001}}, {"id": 2806295, "name": "Wolteritz", "state": "", "country": "DE", "coord": {"lon": 12.33333, "lat": 51.450001}}, {"id": 2806304, "name": "Wolsier", "state": "", "country": "DE", "coord": {"lon": 12.26769, "lat": 52.71545}}, {"id": 2806307, "name": "Wolsfeld", "state": "", "country": "DE", "coord": {"lon": 6.46597, "lat": 49.907021}}, {"id": 2806310, "name": "Wolsdorf", "state": "", "country": "DE", "coord": {"lon": 10.93878, "lat": 52.190979}}, {"id": 2806320, "name": "W\u00f6lpinghausen", "state": "", "country": "DE", "coord": {"lon": 9.23333, "lat": 52.416672}}, {"id": 2806322, "name": "Wolpertswende", "state": "", "country": "DE", "coord": {"lon": 9.61667, "lat": 47.900002}}, {"id": 2806323, "name": "Wolpertstetten", "state": "", "country": "DE", "coord": {"lon": 10.61667, "lat": 48.666672}}, {"id": 2806325, "name": "Wolpertshausen", "state": "", "country": "DE", "coord": {"lon": 9.84472, "lat": 49.1675}}, {"id": 2806331, "name": "W\u00f6lpern", "state": "", "country": "DE", "coord": {"lon": 12.58175, "lat": 51.43914}}, {"id": 2806333, "name": "Wolperath", "state": "", "country": "DE", "coord": {"lon": 7.31667, "lat": 50.833328}}, {"id": 2806339, "name": "Wolnzach", "state": "", "country": "DE", "coord": {"lon": 11.62568, "lat": 48.603802}}, {"id": 2806342, "name": "Wolmirstedt", "state": "", "country": "DE", "coord": {"lon": 11.63333, "lat": 52.25}}, {"id": 2806343, "name": "Wolmirsleben", "state": "", "country": "DE", "coord": {"lon": 11.48333, "lat": 51.950001}}, {"id": 2806345, "name": "W\u00f6lmersen", "state": "", "country": "DE", "coord": {"lon": 7.6, "lat": 50.716671}}, {"id": 2806346, "name": "Wolmersdorf", "state": "", "country": "DE", "coord": {"lon": 9.11667, "lat": 54.083328}}, {"id": 2806353, "name": "W\u00f6llstein", "state": "", "country": "DE", "coord": {"lon": 7.96667, "lat": 49.816669}}, {"id": 2806358, "name": "W\u00f6llsdorf", "state": "", "country": "DE", "coord": {"lon": 13.03333, "lat": 51.133331}}, {"id": 2806371, "name": "W\u00f6llnau", "state": "", "country": "DE", "coord": {"lon": 12.70466, "lat": 51.54377}}, {"id": 2806377, "name": "Wollmerschied", "state": "", "country": "DE", "coord": {"lon": 7.85, "lat": 50.116669}}, {"id": 2806380, "name": "Wollmerath", "state": "", "country": "DE", "coord": {"lon": 6.98333, "lat": 50.150002}}, {"id": 2806382, "name": "Wollmatingen", "state": "", "country": "DE", "coord": {"lon": 9.14595, "lat": 47.692261}}, {"id": 2806385, "name": "Wollmar", "state": "", "country": "DE", "coord": {"lon": 8.68333, "lat": 50.966671}}, {"id": 2806392, "name": "Wollishausen", "state": "", "country": "DE", "coord": {"lon": 10.70661, "lat": 48.320251}}, {"id": 2806399, "name": "Wollin", "state": "", "country": "DE", "coord": {"lon": 12.46667, "lat": 52.283329}}, {"id": 2806409, "name": "Wollersleben", "state": "", "country": "DE", "coord": {"lon": 10.71667, "lat": 51.433331}}, {"id": 2806414, "name": "Wollershausen", "state": "", "country": "DE", "coord": {"lon": 10.25, "lat": 51.599998}}, {"id": 2806439, "name": "Wollbrandshausen", "state": "", "country": "DE", "coord": {"lon": 10.16667, "lat": 51.583328}}, {"id": 2806442, "name": "Wollbach", "state": "", "country": "DE", "coord": {"lon": 10.23333, "lat": 50.366669}}, {"id": 2806451, "name": "Wolkshausen", "state": "", "country": "DE", "coord": {"lon": 9.9775, "lat": 49.627499}}, {"id": 2806453, "name": "Wolkramshausen", "state": "", "country": "DE", "coord": {"lon": 10.75, "lat": 51.416672}}, {"id": 2806458, "name": "W\u00f6lkham", "state": "", "country": "DE", "coord": {"lon": 12.55, "lat": 48.116669}}, {"id": 2806471, "name": "Wolkering", "state": "", "country": "DE", "coord": {"lon": 12.18573, "lat": 47.879688}}, {"id": 2806474, "name": "Wolkenstein", "state": "", "country": "DE", "coord": {"lon": 13.08333, "lat": 50.650002}}, {"id": 2806489, "name": "Wolken", "state": "", "country": "DE", "coord": {"lon": 7.46667, "lat": 50.333328}}, {"id": 2806501, "name": "Wolgast", "state": "", "country": "DE", "coord": {"lon": 13.76667, "lat": 54.049999}}, {"id": 2806523, "name": "Wolfstein", "state": "", "country": "DE", "coord": {"lon": 7.6, "lat": 49.583328}}, {"id": 2806548, "name": "Wolfsm\u00fcnster", "state": "", "country": "DE", "coord": {"lon": 9.73333, "lat": 50.083328}}, {"id": 2806559, "name": "Wolfskuhle", "state": "", "country": "DE", "coord": {"lon": 7.20033, "lat": 51.237049}}, {"id": 2806575, "name": "Wolfskofen", "state": "", "country": "DE", "coord": {"lon": 12.25, "lat": 48.98333}}, {"id": 2806576, "name": "Wolfskehlen", "state": "", "country": "DE", "coord": {"lon": 8.50056, "lat": 49.853062}}, {"id": 2806596, "name": "Wolfsheim", "state": "", "country": "DE", "coord": {"lon": 8.03944, "lat": 49.872219}}, {"id": 2806607, "name": "Wolfshagen", "state": "", "country": "DE", "coord": {"lon": 12.8425, "lat": 54.22691}}, {"id": 2806610, "name": "Wolfshagen", "state": "", "country": "DE", "coord": {"lon": 10.31951, "lat": 51.909279}}, {"id": 2806629, "name": "Wolfsfelde", "state": "", "country": "DE", "coord": {"lon": 11.63555, "lat": 52.079079}}, {"id": 2806633, "name": "Wolfsegg", "state": "", "country": "DE", "coord": {"lon": 11.9781, "lat": 49.107311}}, {"id": 2806646, "name": "Wolfschlugen", "state": "", "country": "DE", "coord": {"lon": 9.28333, "lat": 48.650002}}, {"id": 2806650, "name": "Wolfsburg-Unkeroda", "state": "", "country": "DE", "coord": {"lon": 10.26667, "lat": 50.933331}}, {"id": 2806654, "name": "Wolfsburg", "state": "", "country": "DE", "coord": {"lon": 10.8, "lat": 52.433331}}, {"id": 2806655, "name": "Wolfsburg", "state": "", "country": "DE", "coord": {"lon": 10.26667, "lat": 50.933331}}, {"id": 2806674, "name": "Wolfsbronn", "state": "", "country": "DE", "coord": {"lon": 10.8, "lat": 49.01667}}, {"id": 2806686, "name": "Wolfsberg", "state": "", "country": "DE", "coord": {"lon": 10.36667, "lat": 50.783329}}, {"id": 2806746, "name": "Wolfsbehringen", "state": "", "country": "DE", "coord": {"lon": 10.48333, "lat": 51.0}}, {"id": 2806768, "name": "Wolfratshausen", "state": "", "country": "DE", "coord": {"lon": 11.42166, "lat": 47.912891}}, {"id": 2806769, "name": "Wolframshof", "state": "", "country": "DE", "coord": {"lon": 11.88333, "lat": 49.833328}}, {"id": 2806770, "name": "Wolframs-Eschenbach", "state": "", "country": "DE", "coord": {"lon": 10.73333, "lat": 49.23333}}, {"id": 2806775, "name": "Wolfmannshausen", "state": "", "country": "DE", "coord": {"lon": 10.46667, "lat": 50.433331}}, {"id": 2806788, "name": "W\u00f6lfis", "state": "", "country": "DE", "coord": {"lon": 10.78333, "lat": 50.816669}}, {"id": 2806790, "name": "W\u00f6lfing", "state": "", "country": "DE", "coord": {"lon": 11.71667, "lat": 48.48333}}, {"id": 2806793, "name": "Wolfholz", "state": "", "country": "DE", "coord": {"lon": 10.5, "lat": 47.849998}}, {"id": 2806799, "name": "Wolfhagen", "state": "", "country": "DE", "coord": {"lon": 9.17015, "lat": 51.326111}}, {"id": 2806802, "name": "Wolfgruben", "state": "", "country": "DE", "coord": {"lon": 8.53333, "lat": 50.866669}}, {"id": 2806831, "name": "Wolfertschwenden", "state": "", "country": "DE", "coord": {"lon": 10.26667, "lat": 47.883331}}, {"id": 2806846, "name": "Wolferstedt", "state": "", "country": "DE", "coord": {"lon": 11.43333, "lat": 51.433331}}, {"id": 2806847, "name": "Wolferstadt", "state": "", "country": "DE", "coord": {"lon": 10.78333, "lat": 48.916672}}, {"id": 2806849, "name": "Wolfersreut", "state": "", "country": "DE", "coord": {"lon": 13.48333, "lat": 48.816669}}, {"id": 2806852, "name": "W\u00f6lfersheim", "state": "", "country": "DE", "coord": {"lon": 8.81667, "lat": 50.400002}}, {"id": 2806855, "name": "W\u00f6lfershausen", "state": "", "country": "DE", "coord": {"lon": 9.99121, "lat": 50.873692}}, {"id": 2806856, "name": "W\u00f6lfershausen", "state": "", "country": "DE", "coord": {"lon": 10.43333, "lat": 50.48333}}, {"id": 2806861, "name": "Wolfersdorf", "state": "", "country": "DE", "coord": {"lon": 11.16667, "lat": 50.783329}}, {"id": 2806869, "name": "Wolfersdorf", "state": "", "country": "DE", "coord": {"lon": 11.76667, "lat": 48.549999}}, {"id": 2806870, "name": "Wolfersdorf", "state": "", "country": "DE", "coord": {"lon": 11.71667, "lat": 48.48333}}, {"id": 2806872, "name": "Wolferschwenda", "state": "", "country": "DE", "coord": {"lon": 10.8, "lat": 51.23333}}, {"id": 2806884, "name": "Wolferode", "state": "", "country": "DE", "coord": {"lon": 11.51299, "lat": 51.5065}}, {"id": 2806890, "name": "W\u00f6lferlingen", "state": "", "country": "DE", "coord": {"lon": 7.85, "lat": 50.566669}}, {"id": 2806898, "name": "W\u00f6lferb\u00fctt", "state": "", "country": "DE", "coord": {"lon": 10.05, "lat": 50.76667}}, {"id": 2806903, "name": "Wolfenweiler", "state": "", "country": "DE", "coord": {"lon": 7.76667, "lat": 47.950001}}, {"id": 2806914, "name": "Wolfenb\u00fcttel", "state": "", "country": "DE", "coord": {"lon": 10.55, "lat": 52.166672}}, {"id": 2806919, "name": "Wolfen", "state": "", "country": "DE", "coord": {"lon": 12.28333, "lat": 51.666672}}, {"id": 2806923, "name": "Wolfegg", "state": "", "country": "DE", "coord": {"lon": 9.79491, "lat": 47.820301}}, {"id": 2806926, "name": "Wolfbusch", "state": "", "country": "DE", "coord": {"lon": 9.10526, "lat": 48.80619}}, {"id": 2806940, "name": "Wolfartsweier", "state": "", "country": "DE", "coord": {"lon": 8.45673, "lat": 48.976501}}, {"id": 2806946, "name": "Wolfach", "state": "", "country": "DE", "coord": {"lon": 8.21667, "lat": 48.299999}}, {"id": 2806959, "name": "Woldert", "state": "", "country": "DE", "coord": {"lon": 7.65, "lat": 50.599998}}, {"id": 2806963, "name": "Woldegk", "state": "", "country": "DE", "coord": {"lon": 13.58333, "lat": 53.466671}}, {"id": 2806968, "name": "Wolde", "state": "", "country": "DE", "coord": {"lon": 13.08333, "lat": 53.683331}}, {"id": 2806971, "name": "Wold", "state": "", "country": "DE", "coord": {"lon": 7.6, "lat": 53.650002}}, {"id": 2806972, "name": "W\u00f6lchingen", "state": "", "country": "DE", "coord": {"lon": 9.63333, "lat": 49.48333}}, {"id": 2806979, "name": "Wolbeck", "state": "", "country": "DE", "coord": {"lon": 7.73333, "lat": 51.933331}}, {"id": 2807001, "name": "W\u00f6hrden", "state": "", "country": "DE", "coord": {"lon": 9.0, "lat": 54.166672}}, {"id": 2807005, "name": "Wohra", "state": "", "country": "DE", "coord": {"lon": 8.95, "lat": 50.933331}}, {"id": 2807008, "name": "W\u00f6hr", "state": "", "country": "DE", "coord": {"lon": 11.35864, "lat": 48.35347}}, {"id": 2807010, "name": "Wohnste", "state": "", "country": "DE", "coord": {"lon": 9.53333, "lat": 53.349998}}, {"id": 2807015, "name": "Wohnroth", "state": "", "country": "DE", "coord": {"lon": 7.38333, "lat": 50.049999}}, {"id": 2807020, "name": "Wohnbach", "state": "", "country": "DE", "coord": {"lon": 8.82923, "lat": 50.428638}}, {"id": 2807021, "name": "Wohnbach", "state": "", "country": "DE", "coord": {"lon": 10.25, "lat": 49.299999}}, {"id": 2807022, "name": "Wohnau", "state": "", "country": "DE", "coord": {"lon": 10.46667, "lat": 49.966671}}, {"id": 2807023, "name": "Wohmbrechts", "state": "", "country": "DE", "coord": {"lon": 9.85, "lat": 47.650002}}, {"id": 2807025, "name": "Wohltorf", "state": "", "country": "DE", "coord": {"lon": 10.28333, "lat": 53.51667}}, {"id": 2807032, "name": "W\u00f6hlsdorf", "state": "", "country": "DE", "coord": {"lon": 11.54423, "lat": 50.65229}}, {"id": 2807033, "name": "Wohlsborn", "state": "", "country": "DE", "coord": {"lon": 11.36667, "lat": 51.033329}}, {"id": 2807040, "name": "Wohlmuthausen", "state": "", "country": "DE", "coord": {"lon": 10.21667, "lat": 50.583328}}, {"id": 2807042, "name": "Wohlmirstedt", "state": "", "country": "DE", "coord": {"lon": 11.46667, "lat": 51.25}}, {"id": 2807046, "name": "Wohlgemuth", "state": "", "country": "DE", "coord": {"lon": 11.06667, "lat": 52.683331}}, {"id": 2807051, "name": "Wohlerst", "state": "", "country": "DE", "coord": {"lon": 9.4, "lat": 53.416672}}, {"id": 2807058, "name": "Wohlenhagen", "state": "", "country": "DE", "coord": {"lon": 11.25, "lat": 53.933331}}, {"id": 2807068, "name": "Wohldorf-Ohlstedt", "state": "", "country": "DE", "coord": {"lon": 10.13117, "lat": 53.692822}}, {"id": 2807075, "name": "Wohlde", "state": "", "country": "DE", "coord": {"lon": 9.2989, "lat": 54.406139}}, {"id": 2807090, "name": "Wohlbach", "state": "", "country": "DE", "coord": {"lon": 12.31667, "lat": 50.349998}}, {"id": 2807098, "name": "Woggersin", "state": "", "country": "DE", "coord": {"lon": 13.23333, "lat": 53.599998}}, {"id": 2807100, "name": "Woffleben", "state": "", "country": "DE", "coord": {"lon": 10.72025, "lat": 51.558609}}, {"id": 2807106, "name": "Woez", "state": "", "country": "DE", "coord": {"lon": 11.08744, "lat": 53.591381}}, {"id": 2807127, "name": "Wochenend West", "state": "", "country": "DE", "coord": {"lon": 13.11667, "lat": 52.466671}}, {"id": 2807136, "name": "Wobbenb\u00fcll", "state": "", "country": "DE", "coord": {"lon": 9.0, "lat": 54.533329}}, {"id": 2807138, "name": "W\u00f6bbelin", "state": "", "country": "DE", "coord": {"lon": 11.5, "lat": 53.400002}}, {"id": 2807141, "name": "Wixhausen", "state": "", "country": "DE", "coord": {"lon": 8.66111, "lat": 49.93528}}, {"id": 2807143, "name": "Witzwort", "state": "", "country": "DE", "coord": {"lon": 8.98333, "lat": 54.400002}}, {"id": 2807145, "name": "Witzschdorf", "state": "", "country": "DE", "coord": {"lon": 13.08333, "lat": 50.76667}}, {"id": 2807153, "name": "Witzmannsberg", "state": "", "country": "DE", "coord": {"lon": 13.41667, "lat": 48.716671}}, {"id": 2807154, "name": "Witzmannsberg", "state": "", "country": "DE", "coord": {"lon": 13.5, "lat": 48.616669}}, {"id": 2807161, "name": "Witzlhof", "state": "", "country": "DE", "coord": {"lon": 11.83333, "lat": 49.466671}}, {"id": 2807163, "name": "Witzleben", "state": "", "country": "DE", "coord": {"lon": 11.11667, "lat": 50.816669}}, {"id": 2807171, "name": "Witzin", "state": "", "country": "DE", "coord": {"lon": 11.91667, "lat": 53.716671}}, {"id": 2807177, "name": "Witzhave", "state": "", "country": "DE", "coord": {"lon": 10.33333, "lat": 53.566669}}, {"id": 2807184, "name": "Witzenhausen", "state": "", "country": "DE", "coord": {"lon": 9.86667, "lat": 51.333328}}, {"id": 2807194, "name": "Witzeeze", "state": "", "country": "DE", "coord": {"lon": 10.61667, "lat": 53.450001}}, {"id": 2807201, "name": "Wittstock", "state": "", "country": "DE", "coord": {"lon": 12.48287, "lat": 53.161179}}, {"id": 2807203, "name": "Wittstedt", "state": "", "country": "DE", "coord": {"lon": 8.66667, "lat": 53.400002}}, {"id": 2807212, "name": "Wittorf", "state": "", "country": "DE", "coord": {"lon": 9.96667, "lat": 54.049999}}, {"id": 2807213, "name": "Wittorf", "state": "", "country": "DE", "coord": {"lon": 10.38333, "lat": 53.333328}}, {"id": 2807215, "name": "Wittnau", "state": "", "country": "DE", "coord": {"lon": 7.81667, "lat": 47.950001}}, {"id": 2807218, "name": "Wittmund", "state": "", "country": "DE", "coord": {"lon": 7.78333, "lat": 53.566669}}, {"id": 2807224, "name": "Wittmoldt", "state": "", "country": "DE", "coord": {"lon": 10.36667, "lat": 54.166672}}, {"id": 2807229, "name": "Wittmar", "state": "", "country": "DE", "coord": {"lon": 10.64, "lat": 52.129688}}, {"id": 2807238, "name": "Wittlingen", "state": "", "country": "DE", "coord": {"lon": 7.65, "lat": 47.650002}}, {"id": 2807240, "name": "Wittlich", "state": "", "country": "DE", "coord": {"lon": 6.88333, "lat": 49.98333}}, {"id": 2807243, "name": "Wittland", "state": "", "country": "DE", "coord": {"lon": 10.08333, "lat": 54.333328}}, {"id": 2807245, "name": "Wittlaer", "state": "", "country": "DE", "coord": {"lon": 6.73333, "lat": 51.316669}}, {"id": 2807247, "name": "Wittkopsbostel", "state": "", "country": "DE", "coord": {"lon": 9.41667, "lat": 53.200001}}, {"id": 2807254, "name": "Wittislingen", "state": "", "country": "DE", "coord": {"lon": 10.41667, "lat": 48.616669}}, {"id": 2807257, "name": "Wittingen", "state": "", "country": "DE", "coord": {"lon": 10.73613, "lat": 52.72694}}, {"id": 2807263, "name": "Wittigenhagen", "state": "", "country": "DE", "coord": {"lon": 8.85, "lat": 52.049999}}, {"id": 2807265, "name": "Wittichenau", "state": "", "country": "DE", "coord": {"lon": 14.24403, "lat": 51.38496}}, {"id": 2807267, "name": "Wittibreut", "state": "", "country": "DE", "coord": {"lon": 12.98704, "lat": 48.329208}}, {"id": 2807275, "name": "Wittges", "state": "", "country": "DE", "coord": {"lon": 9.87319, "lat": 50.587318}}, {"id": 2807276, "name": "Wittgert", "state": "", "country": "DE", "coord": {"lon": 7.7, "lat": 50.5}}, {"id": 2807278, "name": "Wittgensdorf", "state": "", "country": "DE", "coord": {"lon": 13.79642, "lat": 50.939831}}, {"id": 2807279, "name": "Wittgensdorf", "state": "", "country": "DE", "coord": {"lon": 12.87031, "lat": 50.88316}}, {"id": 2807285, "name": "Wittgendorf", "state": "", "country": "DE", "coord": {"lon": 11.23333, "lat": 50.599998}}, {"id": 2807298, "name": "Witterschlick", "state": "", "country": "DE", "coord": {"lon": 7.01667, "lat": 50.700001}}, {"id": 2807300, "name": "Witterda", "state": "", "country": "DE", "coord": {"lon": 10.88333, "lat": 51.033329}}, {"id": 2807301, "name": "Wittenwurth", "state": "", "country": "DE", "coord": {"lon": 9.05, "lat": 54.26667}}, {"id": 2807304, "name": "Wittenweier", "state": "", "country": "DE", "coord": {"lon": 7.75, "lat": 48.333328}}, {"id": 2807325, "name": "Wittenhagen", "state": "", "country": "DE", "coord": {"lon": 13.07133, "lat": 54.183788}}, {"id": 2807327, "name": "Wittenf\u00f6rden", "state": "", "country": "DE", "coord": {"lon": 11.32982, "lat": 53.629169}}, {"id": 2807335, "name": "Wittenburg", "state": "", "country": "DE", "coord": {"lon": 11.06667, "lat": 53.51667}}, {"id": 2807337, "name": "Wittenborn", "state": "", "country": "DE", "coord": {"lon": 10.21667, "lat": 53.933331}}, {"id": 2807340, "name": "Wittenbergen", "state": "", "country": "DE", "coord": {"lon": 9.68608, "lat": 53.933449}}, {"id": 2807344, "name": "Wittenberge", "state": "", "country": "DE", "coord": {"lon": 11.75, "lat": 53.0}}, {"id": 2807345, "name": "Landkreis Wittenberg", "state": "", "country": "DE", "coord": {"lon": 12.80528, "lat": 51.812222}}, {"id": 2807355, "name": "Wittenbeck", "state": "", "country": "DE", "coord": {"lon": 11.78333, "lat": 54.116669}}, {"id": 2807363, "name": "Witten", "state": "", "country": "DE", "coord": {"lon": 7.33333, "lat": 51.433331}}, {"id": 2807365, "name": "Wittelshofen", "state": "", "country": "DE", "coord": {"lon": 10.48333, "lat": 49.066669}}, {"id": 2807366, "name": "Wittelsberg", "state": "", "country": "DE", "coord": {"lon": 8.85344, "lat": 50.758942}}, {"id": 2807381, "name": "Wittd\u00fcn", "state": "", "country": "DE", "coord": {"lon": 8.38935, "lat": 54.626949}}, {"id": 2807388, "name": "Wittbek", "state": "", "country": "DE", "coord": {"lon": 9.2, "lat": 54.466671}}, {"id": 2807395, "name": "Witsum", "state": "", "country": "DE", "coord": {"lon": 8.43887, "lat": 54.699532}}, {"id": 2807407, "name": "Wiswedel", "state": "", "country": "DE", "coord": {"lon": 10.86667, "lat": 52.616669}}, {"id": 2807411, "name": "Wistedt", "state": "", "country": "DE", "coord": {"lon": 9.68333, "lat": 53.26667}}, {"id": 2807424, "name": "Wi\u00dfmannsdorf", "state": "", "country": "DE", "coord": {"lon": 6.45, "lat": 49.98333}}, {"id": 2807430, "name": "Wissing", "state": "", "country": "DE", "coord": {"lon": 12.43333, "lat": 48.783329}}, {"id": 2807439, "name": "Wissenbach", "state": "", "country": "DE", "coord": {"lon": 8.33333, "lat": 50.783329}}, {"id": 2807440, "name": "Wissen", "state": "", "country": "DE", "coord": {"lon": 7.75, "lat": 50.783329}}, {"id": 2807442, "name": "Wisselsrod", "state": "", "country": "DE", "coord": {"lon": 9.77826, "lat": 50.53651}}, {"id": 2807446, "name": "Wisselsdorf", "state": "", "country": "DE", "coord": {"lon": 12.81667, "lat": 48.666672}}, {"id": 2807452, "name": "Wissel", "state": "", "country": "DE", "coord": {"lon": 6.28333, "lat": 51.76667}}, {"id": 2807458, "name": "Wisper", "state": "", "country": "DE", "coord": {"lon": 7.98333, "lat": 50.150002}}, {"id": 2807465, "name": "Wismar", "state": "", "country": "DE", "coord": {"lon": 11.46667, "lat": 53.900002}}, {"id": 2807471, "name": "Wischuer", "state": "", "country": "DE", "coord": {"lon": 11.7, "lat": 54.099998}}, {"id": 2807474, "name": "Wischroda", "state": "", "country": "DE", "coord": {"lon": 11.55, "lat": 51.166672}}, {"id": 2807484, "name": "Wischhafen", "state": "", "country": "DE", "coord": {"lon": 9.31667, "lat": 53.783329}}, {"id": 2807488, "name": "Wischer", "state": "", "country": "DE", "coord": {"lon": 11.96154, "lat": 52.640461}}, {"id": 2807489, "name": "Wischenhofen", "state": "", "country": "DE", "coord": {"lon": 11.91667, "lat": 49.116669}}, {"id": 2807496, "name": "Wisch", "state": "", "country": "DE", "coord": {"lon": 10.35, "lat": 54.416672}}, {"id": 2807497, "name": "Wisch", "state": "", "country": "DE", "coord": {"lon": 9.15, "lat": 54.416672}}, {"id": 2807499, "name": "Wisch", "state": "", "country": "DE", "coord": {"lon": 9.46667, "lat": 53.75}}, {"id": 2807521, "name": "Wirtheim", "state": "", "country": "DE", "coord": {"lon": 9.26216, "lat": 50.222832}}, {"id": 2807525, "name": "Wirschweiler", "state": "", "country": "DE", "coord": {"lon": 7.18333, "lat": 49.76667}}, {"id": 2807526, "name": "Wirschweiler", "state": "", "country": "DE", "coord": {"lon": 7.16667, "lat": 49.76667}}, {"id": 2807527, "name": "Wirscheid", "state": "", "country": "DE", "coord": {"lon": 7.66667, "lat": 50.466671}}, {"id": 2807528, "name": "Wirsberg", "state": "", "country": "DE", "coord": {"lon": 11.6, "lat": 50.116669}}, {"id": 2807539, "name": "Wirmsthal", "state": "", "country": "DE", "coord": {"lon": 10.06667, "lat": 50.150002}}, {"id": 2807549, "name": "Wirges", "state": "", "country": "DE", "coord": {"lon": 7.8, "lat": 50.466671}}, {"id": 2807550, "name": "Wirfuserbach", "state": "", "country": "DE", "coord": {"lon": 7.2, "lat": 50.216671}}, {"id": 2807551, "name": "Wirfus", "state": "", "country": "DE", "coord": {"lon": 7.2, "lat": 50.200001}}, {"id": 2807555, "name": "Wirft", "state": "", "country": "DE", "coord": {"lon": 6.86667, "lat": 50.366669}}, {"id": 2807558, "name": "Wirdum", "state": "", "country": "DE", "coord": {"lon": 7.2, "lat": 53.48333}}, {"id": 2807571, "name": "Wirbelau", "state": "", "country": "DE", "coord": {"lon": 8.23333, "lat": 50.450001}}, {"id": 2807574, "name": "Wipshausen", "state": "", "country": "DE", "coord": {"lon": 10.36667, "lat": 52.383331}}, {"id": 2807577, "name": "Wippringsen", "state": "", "country": "DE", "coord": {"lon": 8.08333, "lat": 51.51667}}, {"id": 2807579, "name": "Wippra", "state": "", "country": "DE", "coord": {"lon": 11.28333, "lat": 51.566669}}, {"id": 2807584, "name": "Wippingen", "state": "", "country": "DE", "coord": {"lon": 7.41667, "lat": 52.916672}}, {"id": 2807590, "name": "Wippershain", "state": "", "country": "DE", "coord": {"lon": 9.76667, "lat": 50.833328}}, {"id": 2807591, "name": "Wipperoda", "state": "", "country": "DE", "coord": {"lon": 10.66667, "lat": 50.866669}}, {"id": 2807594, "name": "Wipperf\u00fcrth", "state": "", "country": "DE", "coord": {"lon": 7.4, "lat": 51.116669}}, {"id": 2807596, "name": "Wipperdorf", "state": "", "country": "DE", "coord": {"lon": 10.66667, "lat": 51.450001}}, {"id": 2807618, "name": "Wippach", "state": "", "country": "DE", "coord": {"lon": 11.56667, "lat": 51.25}}, {"id": 2807625, "name": "Wipfeld", "state": "", "country": "DE", "coord": {"lon": 10.16667, "lat": 49.916672}}, {"id": 2807630, "name": "Winzlar", "state": "", "country": "DE", "coord": {"lon": 9.26667, "lat": 52.450001}}, {"id": 2807640, "name": "Winzer", "state": "", "country": "DE", "coord": {"lon": 13.06667, "lat": 48.73333}}, {"id": 2807647, "name": "Winzenburg", "state": "", "country": "DE", "coord": {"lon": 9.93333, "lat": 51.933331}},