[{"id": 2862375, "name": "Nippes", "state": "", "country": "DE", "coord": {"lon": 6.95314, "lat": 50.96545}}, {"id": 2862381, "name": "Nipkendey", "state": "", "country": "DE", "coord": {"lon": 10.93333, "lat": 52.799999}}, {"id": 2862388, "name": "Nindorf", "state": "", "country": "DE", "coord": {"lon": 9.7, "lat": 54.133331}}, {"id": 2862389, "name": "Nindorf", "state": "", "country": "DE", "coord": {"lon": 9.11667, "lat": 54.083328}}, {"id": 2862402, "name": "Nimsreuland", "state": "", "country": "DE", "coord": {"lon": 6.45, "lat": 50.133331}}, {"id": 2862403, "name": "Nimshuscheid", "state": "", "country": "DE", "coord": {"lon": 6.48333, "lat": 50.099998}}, {"id": 2862406, "name": "Nimritz", "state": "", "country": "DE", "coord": {"lon": 11.65, "lat": 50.700001}}, {"id": 2862415, "name": "Nikolausrieth", "state": "", "country": "DE", "coord": {"lon": 11.36667, "lat": 51.383331}}, {"id": 2862433, "name": "Niex", "state": "", "country": "DE", "coord": {"lon": 12.15, "lat": 54.033329}}, {"id": 2862440, "name": "Nievern", "state": "", "country": "DE", "coord": {"lon": 7.68333, "lat": 50.333328}}, {"id": 2862443, "name": "Nievelstein", "state": "", "country": "DE", "coord": {"lon": 6.06667, "lat": 50.883331}}, {"id": 2862446, "name": "Nieukerk", "state": "", "country": "DE", "coord": {"lon": 6.37319, "lat": 51.45652}}, {"id": 2862449, "name": "Nietleben", "state": "", "country": "DE", "coord": {"lon": 11.9, "lat": 51.48333}}, {"id": 2862458, "name": "Nieste", "state": "", "country": "DE", "coord": {"lon": 9.66667, "lat": 51.316669}}, {"id": 2862460, "name": "Niesky", "state": "", "country": "DE", "coord": {"lon": 14.82107, "lat": 51.292412}}, {"id": 2862461, "name": "Nieska", "state": "", "country": "DE", "coord": {"lon": 13.36667, "lat": 51.433331}}, {"id": 2862465, "name": "Niesgrau", "state": "", "country": "DE", "coord": {"lon": 9.81667, "lat": 54.75}}, {"id": 2862471, "name": "Niese", "state": "", "country": "DE", "coord": {"lon": 9.29289, "lat": 51.859852}}, {"id": 2862472, "name": "Niesch\u00fctz", "state": "", "country": "DE", "coord": {"lon": 13.43333, "lat": 51.23333}}, {"id": 2862477, "name": "Niesau", "state": "", "country": "DE", "coord": {"lon": 12.28333, "lat": 51.75}}, {"id": 2862485, "name": "Nierstein", "state": "", "country": "DE", "coord": {"lon": 8.34667, "lat": 49.875278}}, {"id": 2862487, "name": "Nierst", "state": "", "country": "DE", "coord": {"lon": 6.71667, "lat": 51.316669}}, {"id": 2862494, "name": "Niersbach", "state": "", "country": "DE", "coord": {"lon": 6.75, "lat": 49.933331}}, {"id": 2862525, "name": "Niepars", "state": "", "country": "DE", "coord": {"lon": 12.92447, "lat": 54.314468}}, {"id": 2862528, "name": "Nienwohlde", "state": "", "country": "DE", "coord": {"lon": 10.56667, "lat": 52.849998}}, {"id": 2862531, "name": "Nienwalde", "state": "", "country": "DE", "coord": {"lon": 11.48333, "lat": 53.01667}}, {"id": 2862534, "name": "Nienstedten", "state": "", "country": "DE", "coord": {"lon": 9.85, "lat": 53.549999}}, {"id": 2862540, "name": "Nienst\u00e4dt", "state": "", "country": "DE", "coord": {"lon": 9.16667, "lat": 52.299999}}, {"id": 2862541, "name": "Nienst\u00e4dt", "state": "", "country": "DE", "coord": {"lon": 9.16667, "lat": 52.299999}}, {"id": 2862552, "name": "Nienhusen", "state": "", "country": "DE", "coord": {"lon": 12.03333, "lat": 54.0}}, {"id": 2862571, "name": "Nienhagen", "state": "", "country": "DE", "coord": {"lon": 12.18333, "lat": 54.150002}}, {"id": 2862576, "name": "Nienhagen", "state": "", "country": "DE", "coord": {"lon": 10.1021, "lat": 52.557049}}, {"id": 2862591, "name": "Niendorf an der Stecknitz", "state": "", "country": "DE", "coord": {"lon": 10.6, "lat": 53.583328}}, {"id": 2862592, "name": "Niendorf", "state": "", "country": "DE", "coord": {"lon": 11.21667, "lat": 54.466671}}, {"id": 2862601, "name": "Niendorf", "state": "", "country": "DE", "coord": {"lon": 10.9, "lat": 53.816669}}, {"id": 2862615, "name": "Nienb\u00fcttel", "state": "", "country": "DE", "coord": {"lon": 9.41451, "lat": 54.02969}}, {"id": 2862620, "name": "Nienburg", "state": "", "country": "DE", "coord": {"lon": 9.21667, "lat": 52.633331}}, {"id": 2862621, "name": "Nienburg/Saale", "state": "", "country": "DE", "coord": {"lon": 11.75, "lat": 51.833328}}, {"id": 2862622, "name": "Landkreis Nienburg/Weser", "state": "", "country": "DE", "coord": {"lon": 9.16694, "lat": 52.652779}}, {"id": 2862625, "name": "Nienborstel", "state": "", "country": "DE", "coord": {"lon": 9.61667, "lat": 54.133331}}, {"id": 2862627, "name": "Nienborg", "state": "", "country": "DE", "coord": {"lon": 7.1, "lat": 52.133331}}, {"id": 2862632, "name": "Nienberge", "state": "", "country": "DE", "coord": {"lon": 7.56667, "lat": 52.0}}, {"id": 2862640, "name": "Niemegk", "state": "", "country": "DE", "coord": {"lon": 12.7, "lat": 52.083328}}, {"id": 2862643, "name": "Niemberg", "state": "", "country": "DE", "coord": {"lon": 12.08333, "lat": 51.549999}}, {"id": 2862651, "name": "Nielebock", "state": "", "country": "DE", "coord": {"lon": 12.06667, "lat": 52.433331}}, {"id": 2862654, "name": "Niekrenz", "state": "", "country": "DE", "coord": {"lon": 12.36503, "lat": 54.045681}}, {"id": 2862674, "name": "Niehl", "state": "", "country": "DE", "coord": {"lon": 6.35525, "lat": 49.957741}}, {"id": 2862675, "name": "Nieheim", "state": "", "country": "DE", "coord": {"lon": 9.11667, "lat": 51.799999}}, {"id": 2862679, "name": "Niehagen", "state": "", "country": "DE", "coord": {"lon": 12.41163, "lat": 54.363461}}, {"id": 2862682, "name": "Niegripp", "state": "", "country": "DE", "coord": {"lon": 11.76667, "lat": 52.26667}}, {"id": 2862685, "name": "Niefernheim", "state": "", "country": "DE", "coord": {"lon": 8.14917, "lat": 49.64333}}, {"id": 2862686, "name": "Niefern", "state": "", "country": "DE", "coord": {"lon": 8.78333, "lat": 48.916672}}, {"id": 2862696, "name": "Niederzissen", "state": "", "country": "DE", "coord": {"lon": 7.23333, "lat": 50.466671}}, {"id": 2862697, "name": "Niederzimmern", "state": "", "country": "DE", "coord": {"lon": 11.18333, "lat": 51.0}}, {"id": 2862698, "name": "Niederzier", "state": "", "country": "DE", "coord": {"lon": 6.46667, "lat": 50.883331}}, {"id": 2862700, "name": "Niederzeuzheim", "state": "", "country": "DE", "coord": {"lon": 8.03333, "lat": 50.466671}}, {"id": 2862701, "name": "Niederzerf", "state": "", "country": "DE", "coord": {"lon": 6.68333, "lat": 49.599998}}, {"id": 2862706, "name": "Niederw\u00fcnsch", "state": "", "country": "DE", "coord": {"lon": 11.8, "lat": 51.349998}}, {"id": 2862708, "name": "Niederw\u00f6rresbach", "state": "", "country": "DE", "coord": {"lon": 7.33333, "lat": 49.76667}}, {"id": 2862710, "name": "Niederw\u00f6hr", "state": "", "country": "DE", "coord": {"lon": 11.66667, "lat": 48.76667}}, {"id": 2862713, "name": "Niederwinkling", "state": "", "country": "DE", "coord": {"lon": 12.8, "lat": 48.883331}}, {"id": 2862720, "name": "Niederwillingen", "state": "", "country": "DE", "coord": {"lon": 11.03333, "lat": 50.783329}}, {"id": 2862723, "name": "Nieder-Wiesen", "state": "", "country": "DE", "coord": {"lon": 7.98333, "lat": 49.73333}}, {"id": 2862724, "name": "Niederwiesa", "state": "", "country": "DE", "coord": {"lon": 13.01667, "lat": 50.866669}}, {"id": 2862727, "name": "Niederweyer", "state": "", "country": "DE", "coord": {"lon": 8.06667, "lat": 50.450001}}, {"id": 2862728, "name": "Niederwetz", "state": "", "country": "DE", "coord": {"lon": 8.49861, "lat": 50.48962}}, {"id": 2862731, "name": "Niederwerth", "state": "", "country": "DE", "coord": {"lon": 7.61667, "lat": 50.400002}}, {"id": 2862733, "name": "Niederwerrn", "state": "", "country": "DE", "coord": {"lon": 10.1827, "lat": 50.061489}}, {"id": 2862739, "name": "Nieder Weisel", "state": "", "country": "DE", "coord": {"lon": 8.68333, "lat": 50.416672}}, {"id": 2862741, "name": "Niederweis", "state": "", "country": "DE", "coord": {"lon": 6.46717, "lat": 49.869968}}, {"id": 2862742, "name": "Niederweimar", "state": "", "country": "DE", "coord": {"lon": 8.73327, "lat": 50.76252}}, {"id": 2862743, "name": "Niederweiler", "state": "", "country": "DE", "coord": {"lon": 6.45, "lat": 50.033329}}, {"id": 2862744, "name": "Niederweiler", "state": "", "country": "DE", "coord": {"lon": 7.28333, "lat": 49.900002}}, {"id": 2862747, "name": "Niederweiler", "state": "", "country": "DE", "coord": {"lon": 9.41667, "lat": 47.866669}}, {"id": 2862753, "name": "Niederweidbach", "state": "", "country": "DE", "coord": {"lon": 8.48333, "lat": 50.700001}}, {"id": 2862757, "name": "Nieder-Waroldern", "state": "", "country": "DE", "coord": {"lon": 9.00939, "lat": 51.307869}}, {"id": 2862760, "name": "Niederwambach", "state": "", "country": "DE", "coord": {"lon": 7.6, "lat": 50.633331}}, {"id": 2862763, "name": "Niederwallmenach", "state": "", "country": "DE", "coord": {"lon": 7.81667, "lat": 50.166672}}, {"id": 2862765, "name": "Niederwalgern", "state": "", "country": "DE", "coord": {"lon": 8.7, "lat": 50.73333}}, {"id": 2862782, "name": "Niederviehbig", "state": "", "country": "DE", "coord": {"lon": 14.76667, "lat": 50.916672}}, {"id": 2862785, "name": "Niederviehbach", "state": "", "country": "DE", "coord": {"lon": 12.38333, "lat": 48.616669}}, {"id": 2862787, "name": "Niedervellmar", "state": "", "country": "DE", "coord": {"lon": 9.47863, "lat": 51.351089}}, {"id": 2862798, "name": "Niedertrebra", "state": "", "country": "DE", "coord": {"lon": 11.58333, "lat": 51.066669}}, {"id": 2862799, "name": "Niedertraubling", "state": "", "country": "DE", "coord": {"lon": 12.18333, "lat": 48.966671}}, {"id": 2862800, "name": "Niedertopfstedt", "state": "", "country": "DE", "coord": {"lon": 10.96667, "lat": 51.25}}, {"id": 2862802, "name": "Niedertiefenbach", "state": "", "country": "DE", "coord": {"lon": 7.9, "lat": 50.26667}}, {"id": 2862809, "name": "Niedertaufkirchen", "state": "", "country": "DE", "coord": {"lon": 12.55, "lat": 48.333328}}, {"id": 2862811, "name": "Niedert", "state": "", "country": "DE", "coord": {"lon": 7.53333, "lat": 50.133331}}, {"id": 2862815, "name": "Niedersunzing", "state": "", "country": "DE", "coord": {"lon": 12.55, "lat": 48.799999}}, {"id": 2862818, "name": "Niederstriegis", "state": "", "country": "DE", "coord": {"lon": 13.15, "lat": 51.083328}}, {"id": 2862825, "name": "Niederstotzingen", "state": "", "country": "DE", "coord": {"lon": 10.23505, "lat": 48.541271}}, {"id": 2862831, "name": "Niederstetten", "state": "", "country": "DE", "coord": {"lon": 9.91944, "lat": 49.400002}}, {"id": 2862833, "name": "Niedersteinebach", "state": "", "country": "DE", "coord": {"lon": 7.50692, "lat": 50.600182}}, {"id": 2862842, "name": "Niederstedem", "state": "", "country": "DE", "coord": {"lon": 6.5, "lat": 49.933331}}, {"id": 2862845, "name": "Niederstaufenbach", "state": "", "country": "DE", "coord": {"lon": 7.51667, "lat": 49.533329}}, {"id": 2862849, "name": "Niederstadtfeld", "state": "", "country": "DE", "coord": {"lon": 6.76667, "lat": 50.166672}}, {"id": 2862852, "name": "Niederspier", "state": "", "country": "DE", "coord": {"lon": 10.85, "lat": 51.283329}}, {"id": 2862854, "name": "Niederspaar", "state": "", "country": "DE", "coord": {"lon": 13.48333, "lat": 51.150002}}, {"id": 2862862, "name": "Niedersohren", "state": "", "country": "DE", "coord": {"lon": 7.33333, "lat": 49.933331}}, {"id": 2862866, "name": "Niedersimten", "state": "", "country": "DE", "coord": {"lon": 7.6, "lat": 49.183331}}, {"id": 2862867, "name": "Niedersickte", "state": "", "country": "DE", "coord": {"lon": 10.637, "lat": 52.212341}}, {"id": 2862868, "name": "Niedershausen", "state": "", "country": "DE", "coord": {"lon": 8.26172, "lat": 50.53722}}, {"id": 2862870, "name": "Niedersfeld", "state": "", "country": "DE", "coord": {"lon": 8.53333, "lat": 51.26667}}, {"id": 2862873, "name": "Niederselters", "state": "", "country": "DE", "coord": {"lon": 8.23333, "lat": 50.333328}}, {"id": 2862876, "name": "Nieder Seifersdorf", "state": "", "country": "DE", "coord": {"lon": 14.76667, "lat": 51.216671}}, {"id": 2862880, "name": "Niederseeon", "state": "", "country": "DE", "coord": {"lon": 12.46667, "lat": 47.966671}}, {"id": 2862888, "name": "Niedersch\u00f6nhausen", "state": "", "country": "DE", "coord": {"lon": 13.40272, "lat": 52.584831}}, {"id": 2862890, "name": "Niedersch\u00f6neweide", "state": "", "country": "DE", "coord": {"lon": 13.5, "lat": 52.450001}}, {"id": 2862891, "name": "Niedersch\u00f6nenfeld", "state": "", "country": "DE", "coord": {"lon": 10.93333, "lat": 48.716671}}, {"id": 2862893, "name": "Niedersch\u00f6na", "state": "", "country": "DE", "coord": {"lon": 13.41667, "lat": 50.966671}}, {"id": 2862899, "name": "Niederschlettenbach", "state": "", "country": "DE", "coord": {"lon": 7.85, "lat": 49.083328}}, {"id": 2862903, "name": "Niederscheyern", "state": "", "country": "DE", "coord": {"lon": 11.48333, "lat": 48.51667}}, {"id": 2862909, "name": "Niederscheidweiler", "state": "", "country": "DE", "coord": {"lon": 6.95, "lat": 50.066669}}, {"id": 2862914, "name": "Niedersayn", "state": "", "country": "DE", "coord": {"lon": 7.83333, "lat": 50.533329}}, {"id": 2862921, "name": "Niedersalwey", "state": "", "country": "DE", "coord": {"lon": 8.13333, "lat": 51.25}}, {"id": 2862924, "name": "Niedersaida", "state": "", "country": "DE", "coord": {"lon": 13.3, "lat": 50.75}}, {"id": 2862925, "name": "Niedersachswerfen", "state": "", "country": "DE", "coord": {"lon": 10.76667, "lat": 51.566669}}, {"id": 2862926, "name": "Lower Saxony", "state": "", "country": "DE", "coord": {"lon": 10.0, "lat": 52.0}}, {"id": 2862933, "name": "Niederro\u00dfla", "state": "", "country": "DE", "coord": {"lon": 11.48333, "lat": 51.033329}}, {"id": 2862935, "name": "Niederro\u00dfbach", "state": "", "country": "DE", "coord": {"lon": 8.03333, "lat": 50.650002}}, {"id": 2862944, "name": "Niederrodenbach", "state": "", "country": "DE", "coord": {"lon": 9.03333, "lat": 50.150002}}, {"id": 2862946, "name": "Niederroden", "state": "", "country": "DE", "coord": {"lon": 10.3, "lat": 49.0}}, {"id": 2862949, "name": "Niederr\u00f6blingen", "state": "", "country": "DE", "coord": {"lon": 11.33333, "lat": 51.433331}}, {"id": 2862953, "name": "Niederrieden", "state": "", "country": "DE", "coord": {"lon": 10.18321, "lat": 48.057598}}, {"id": 2862965, "name": "Niederrei\u00dfen", "state": "", "country": "DE", "coord": {"lon": 11.41667, "lat": 51.099998}}, {"id": 2862978, "name": "Nieder-Ramstadt", "state": "", "country": "DE", "coord": {"lon": 8.70889, "lat": 49.83139}}, {"id": 2862980, "name": "Niederraden", "state": "", "country": "DE", "coord": {"lon": 6.31667, "lat": 49.98333}}, {"id": 2862982, "name": "Niederquembach", "state": "", "country": "DE", "coord": {"lon": 8.44909, "lat": 50.476238}}, {"id": 2862988, "name": "Niederpoyritz", "state": "", "country": "DE", "coord": {"lon": 13.84058, "lat": 51.032269}}, {"id": 2862990, "name": "Niederp\u00f6llnitz", "state": "", "country": "DE", "coord": {"lon": 11.96667, "lat": 50.75}}, {"id": 2862991, "name": "Niederp\u00f6cking", "state": "", "country": "DE", "coord": {"lon": 11.33333, "lat": 47.98333}}, {"id": 2862995, "name": "Niederpierscheid", "state": "", "country": "DE", "coord": {"lon": 6.36667, "lat": 50.083328}}, {"id": 2863000, "name": "Niederpesterwitz", "state": "", "country": "DE", "coord": {"lon": 13.65, "lat": 51.01667}}, {"id": 2863005, "name": "Niederotterbach", "state": "", "country": "DE", "coord": {"lon": 8.04556, "lat": 49.06028}}, {"id": 2863012, "name": "Niederorschel", "state": "", "country": "DE", "coord": {"lon": 10.43333, "lat": 51.366669}}, {"id": 2863014, "name": "Nieder-Olm", "state": "", "country": "DE", "coord": {"lon": 8.20533, "lat": 49.911659}}, {"id": 2863016, "name": "Nieder Ohmen", "state": "", "country": "DE", "coord": {"lon": 9.03333, "lat": 50.650002}}, {"id": 2863019, "name": "Nieder\u00f6fflingen", "state": "", "country": "DE", "coord": {"lon": 6.88333, "lat": 50.066669}}, {"id": 2863022, "name": "Niederoderwitz", "state": "", "country": "DE", "coord": {"lon": 14.73333, "lat": 50.950001}}, {"id": 2863031, "name": "Niedernw\u00f6hren", "state": "", "country": "DE", "coord": {"lon": 9.13736, "lat": 52.354431}}, {"id": 2863038, "name": "Niedernjesa", "state": "", "country": "DE", "coord": {"lon": 9.91667, "lat": 51.48333}}, {"id": 2863039, "name": "Niedernissa", "state": "", "country": "DE", "coord": {"lon": 11.1, "lat": 50.950001}}, {"id": 2863046, "name": "Niedernhausen", "state": "", "country": "DE", "coord": {"lon": 8.31667, "lat": 50.150002}}, {"id": 2863049, "name": "Niedernhall", "state": "", "country": "DE", "coord": {"lon": 9.61604, "lat": 49.295158}}, {"id": 2863056, "name": "Nieder Neundorf", "state": "", "country": "DE", "coord": {"lon": 15.0, "lat": 51.316669}}, {"id": 2863062, "name": "Niederneuching", "state": "", "country": "DE", "coord": {"lon": 11.85, "lat": 48.25}}, {"id": 2863064, "name": "Niedernetphen", "state": "", "country": "DE", "coord": {"lon": 8.1, "lat": 50.916672}}, {"id": 2863065, "name": "Niederneisen", "state": "", "country": "DE", "coord": {"lon": 8.05, "lat": 50.333328}}, {"id": 2863083, "name": "Niederndodeleben", "state": "", "country": "DE", "coord": {"lon": 11.5, "lat": 52.133331}}, {"id": 2863087, "name": "Niedernberg", "state": "", "country": "DE", "coord": {"lon": 12.05, "lat": 50.299999}}, {"id": 2863088, "name": "Niedernberg", "state": "", "country": "DE", "coord": {"lon": 9.13694, "lat": 49.91222}}, {"id": 2863095, "name": "Niedermurach", "state": "", "country": "DE", "coord": {"lon": 12.36667, "lat": 49.450001}}, {"id": 2863100, "name": "Niederm\u00fclsen", "state": "", "country": "DE", "coord": {"lon": 12.53333, "lat": 50.783329}}, {"id": 2863102, "name": "Niedermotzing", "state": "", "country": "DE", "coord": {"lon": 12.5, "lat": 48.916672}}, {"id": 2863103, "name": "Niedermoschel", "state": "", "country": "DE", "coord": {"lon": 7.8, "lat": 49.73333}}, {"id": 2863104, "name": "Niederm\u00f6rsbach", "state": "", "country": "DE", "coord": {"lon": 7.78333, "lat": 50.716671}}, {"id": 2863107, "name": "Niedermoosen", "state": "", "country": "DE", "coord": {"lon": 12.1804, "lat": 47.835739}}, {"id": 2863108, "name": "Nieder-Moos", "state": "", "country": "DE", "coord": {"lon": 9.38284, "lat": 50.47406}}, {"id": 2863109, "name": "Niederm\u00f6llrich", "state": "", "country": "DE", "coord": {"lon": 9.36667, "lat": 51.116669}}, {"id": 2863111, "name": "Niedermohr", "state": "", "country": "DE", "coord": {"lon": 7.46667, "lat": 49.466671}}, {"id": 2863115, "name": "Niedermittlau", "state": "", "country": "DE", "coord": {"lon": 9.13333, "lat": 50.166672}}, {"id": 2863120, "name": "Niedermennig", "state": "", "country": "DE", "coord": {"lon": 6.63333, "lat": 49.700001}}, {"id": 2863125, "name": "Niedermeilingen", "state": "", "country": "DE", "coord": {"lon": 7.9, "lat": 50.183331}}, {"id": 2863126, "name": "Niedermeien", "state": "", "country": "DE", "coord": {"lon": 8.95781, "lat": 52.069271}}, {"id": 2863129, "name": "Niedermaulsbach", "state": "", "country": "DE", "coord": {"lon": 7.48333, "lat": 50.683331}}, {"id": 2863136, "name": "Niedermanderscheid", "state": "", "country": "DE", "coord": {"lon": 6.81667, "lat": 50.083328}}, {"id": 2863138, "name": "Niederl\u00fctzingen", "state": "", "country": "DE", "coord": {"lon": 7.3, "lat": 50.48333}}, {"id": 2863143, "name": "Nieder L\u00fcdersfeld", "state": "", "country": "DE", "coord": {"lon": 9.25, "lat": 52.366669}}, {"id": 2863148, "name": "Niederl\u00f6\u00dfnitz", "state": "", "country": "DE", "coord": {"lon": 12.71667, "lat": 50.616669}}, {"id": 2863150, "name": "Niederl\u00f6rick", "state": "", "country": "DE", "coord": {"lon": 6.71667, "lat": 51.25}}, {"id": 2863156, "name": "Niederlindach", "state": "", "country": "DE", "coord": {"lon": 10.89123, "lat": 49.6464}}, {"id": 2863163, "name": "Niederleupten", "state": "", "country": "DE", "coord": {"lon": 12.49738, "lat": 50.970749}}, {"id": 2863165, "name": "Niederlern", "state": "", "country": "DE", "coord": {"lon": 11.93333, "lat": 48.400002}}, {"id": 2863171, "name": "Niederleierndorf", "state": "", "country": "DE", "coord": {"lon": 12.08333, "lat": 48.833328}}, {"id": 2863172, "name": "Niederlehme", "state": "", "country": "DE", "coord": {"lon": 13.65, "lat": 52.316669}}, {"id": 2863175, "name": "Niederlauterbach", "state": "", "country": "DE", "coord": {"lon": 11.63333, "lat": 48.633331}}, {"id": 2863177, "name": "Niederlauken", "state": "", "country": "DE", "coord": {"lon": 8.43333, "lat": 50.349998}}, {"id": 2863178, "name": "Niederlauer", "state": "", "country": "DE", "coord": {"lon": 10.18333, "lat": 50.283329}}, {"id": 2863179, "name": "Niederlauch", "state": "", "country": "DE", "coord": {"lon": 6.43333, "lat": 50.166672}}, {"id": 2863185, "name": "Niederlangen", "state": "", "country": "DE", "coord": {"lon": 7.28333, "lat": 52.849998}}, {"id": 2863198, "name": "Niederkumbd", "state": "", "country": "DE", "coord": {"lon": 7.53333, "lat": 50.01667}}, {"id": 2863199, "name": "Niederkr\u00fcchten", "state": "", "country": "DE", "coord": {"lon": 6.21667, "lat": 51.200001}}, {"id": 2863202, "name": "Nieder Kostenz", "state": "", "country": "DE", "coord": {"lon": 7.36667, "lat": 49.950001}}, {"id": 2863205, "name": "Niederkl\u00fctz", "state": "", "country": "DE", "coord": {"lon": 11.16667, "lat": 53.966671}}, {"id": 2863208, "name": "Nieder-Klingen", "state": "", "country": "DE", "coord": {"lon": 8.88889, "lat": 49.82}}, {"id": 2863211, "name": "Niederkleen", "state": "", "country": "DE", "coord": {"lon": 8.61706, "lat": 50.475971}}, {"id": 2863213, "name": "Niederkirchen bei Deidesheim", "state": "", "country": "DE", "coord": {"lon": 8.21, "lat": 49.415001}}, {"id": 2863214, "name": "Niederkirchen", "state": "", "country": "DE", "coord": {"lon": 7.7, "lat": 49.583328}}, {"id": 2863222, "name": "Niederkassel", "state": "", "country": "DE", "coord": {"lon": 6.7535, "lat": 51.241718}}, {"id": 2863223, "name": "Niederkassel", "state": "", "country": "DE", "coord": {"lon": 7.03333, "lat": 50.816669}}, {"id": 2863229, "name": "Nieder-Kainsbach", "state": "", "country": "DE", "coord": {"lon": 8.88167, "lat": 49.754719}}, {"id": 2863231, "name": "Niederkail", "state": "", "country": "DE", "coord": {"lon": 6.75, "lat": 49.98333}}, {"id": 2863233, "name": "Niederjossa", "state": "", "country": "DE", "coord": {"lon": 9.56667, "lat": 50.76667}}, {"id": 2863234, "name": "Niederjosbach", "state": "", "country": "DE", "coord": {"lon": 8.35, "lat": 50.150002}}, {"id": 2863237, "name": "Niederjahna", "state": "", "country": "DE", "coord": {"lon": 13.43333, "lat": 51.166672}}, {"id": 2863239, "name": "Niederirsen", "state": "", "country": "DE", "coord": {"lon": 7.6, "lat": 50.75}}, {"id": 2863240, "name": "Nieder-Ingelheim", "state": "", "country": "DE", "coord": {"lon": 8.07246, "lat": 49.977558}}, {"id": 2863247, "name": "Niederhummel", "state": "", "country": "DE", "coord": {"lon": 11.88333, "lat": 48.433331}}, {"id": 2863254, "name": "Niederhosenbach", "state": "", "country": "DE", "coord": {"lon": 7.36667, "lat": 49.799999}}, {"id": 2863257, "name": "Niederh\u00f6rlen", "state": "", "country": "DE", "coord": {"lon": 8.43333, "lat": 50.833328}}, {"id": 2863259, "name": "Niederhorbach", "state": "", "country": "DE", "coord": {"lon": 8.03417, "lat": 49.11528}}, {"id": 2863262, "name": "Niederhonnefeld", "state": "", "country": "DE", "coord": {"lon": 7.5, "lat": 50.549999}}, {"id": 2863268, "name": "Niederholzhausen", "state": "", "country": "DE", "coord": {"lon": 11.53333, "lat": 51.133331}}, {"id": 2863281, "name": "Niederhofen", "state": "", "country": "DE", "coord": {"lon": 7.6, "lat": 50.566669}}, {"id": 2863304, "name": "Niederhof", "state": "", "country": "DE", "coord": {"lon": 12.90876, "lat": 52.571239}}, {"id": 2863326, "name": "Nieder-Hilbersheim", "state": "", "country": "DE", "coord": {"lon": 8.04194, "lat": 49.91333}}, {"id": 2863341, "name": "Niederheimbach", "state": "", "country": "DE", "coord": {"lon": 7.81667, "lat": 50.033329}}, {"id": 2863355, "name": "Niederhausen an der Appel", "state": "", "country": "DE", "coord": {"lon": 7.9, "lat": 49.75}}, {"id": 2863359, "name": "Niederhausen", "state": "", "country": "DE", "coord": {"lon": 7.78333, "lat": 49.799999}}, {"id": 2863371, "name": "Niederhambach", "state": "", "country": "DE", "coord": {"lon": 7.2, "lat": 49.683331}}, {"id": 2863374, "name": "Niederham", "state": "", "country": "DE", "coord": {"lon": 13.3, "lat": 48.666672}}, {"id": 2863384, "name": "Niederhabscheid", "state": "", "country": "DE", "coord": {"lon": 6.26667, "lat": 50.183331}}, {"id": 2863385, "name": "Niederhaaren", "state": "", "country": "DE", "coord": {"lon": 8.2, "lat": 52.333328}}, {"id": 2863388, "name": "Niedergurig", "state": "", "country": "DE", "coord": {"lon": 14.48333, "lat": 51.23333}}, {"id": 2863392, "name": "Niedergrunstedt", "state": "", "country": "DE", "coord": {"lon": 11.28433, "lat": 50.957561}}, {"id": 2863393, "name": "Nieder-Gr\u00fcndau", "state": "", "country": "DE", "coord": {"lon": 9.10801, "lat": 50.210972}}, {"id": 2863401, "name": "Niederg\u00f6rsdorf", "state": "", "country": "DE", "coord": {"lon": 13.0, "lat": 51.98333}}, {"id": 2863408, "name": "Niedergladbach", "state": "", "country": "DE", "coord": {"lon": 7.98333, "lat": 50.099998}}, {"id": 2863419, "name": "Niedergeckler", "state": "", "country": "DE", "coord": {"lon": 6.3, "lat": 49.966671}}, {"id": 2863422, "name": "Niedergebra", "state": "", "country": "DE", "coord": {"lon": 10.6, "lat": 51.416672}}, {"id": 2863428, "name": "Niederf\u00fcllbach", "state": "", "country": "DE", "coord": {"lon": 10.98333, "lat": 50.216671}}, {"id": 2863429, "name": "Niederfrohna", "state": "", "country": "DE", "coord": {"lon": 12.71667, "lat": 50.900002}}, {"id": 2863437, "name": "Niederflo\u00dfbach", "state": "", "country": "DE", "coord": {"lon": 7.36667, "lat": 51.083328}}, {"id": 2863438, "name": "Niederflorstadt", "state": "", "country": "DE", "coord": {"lon": 8.86667, "lat": 50.316669}}, {"id": 2863439, "name": "Nieder-Fl\u00f6rsheim", "state": "", "country": "DE", "coord": {"lon": 8.20861, "lat": 49.650558}}, {"id": 2863441, "name": "Niederfischbach", "state": "", "country": "DE", "coord": {"lon": 7.86667, "lat": 50.849998}}, {"id": 2863442, "name": "Niederfinow", "state": "", "country": "DE", "coord": {"lon": 13.92843, "lat": 52.833679}}, {"id": 2863443, "name": "Niederfellendorf", "state": "", "country": "DE", "coord": {"lon": 11.21667, "lat": 49.799999}}, {"id": 2863444, "name": "Niederfell", "state": "", "country": "DE", "coord": {"lon": 7.46667, "lat": 50.283329}}, {"id": 2863457, "name": "Niedereschach", "state": "", "country": "DE", "coord": {"lon": 8.53333, "lat": 48.133331}}, {"id": 2863470, "name": "Niedererbach", "state": "", "country": "DE", "coord": {"lon": 7.98333, "lat": 50.433331}}, {"id": 2863477, "name": "Niederems", "state": "", "country": "DE", "coord": {"lon": 8.36667, "lat": 50.25}}, {"id": 2863482, "name": "Niederelsungen", "state": "", "country": "DE", "coord": {"lon": 9.19127, "lat": 51.387959}}, {"id": 2863483, "name": "Niederelsdorf", "state": "", "country": "DE", "coord": {"lon": 12.73333, "lat": 50.966671}}, {"id": 2863487, "name": "Niederelbert", "state": "", "country": "DE", "coord": {"lon": 7.81667, "lat": 50.416672}}, {"id": 2863505, "name": "Niederd\u00fcrenbach", "state": "", "country": "DE", "coord": {"lon": 7.18333, "lat": 50.450001}}, {"id": 2863508, "name": "Niederdreisbach", "state": "", "country": "DE", "coord": {"lon": 7.93333, "lat": 50.75}}, {"id": 2863514, "name": "Niederdornberg", "state": "", "country": "DE", "coord": {"lon": 8.46667, "lat": 52.066669}}, {"id": 2863516, "name": "Niederdorla", "state": "", "country": "DE", "coord": {"lon": 10.45, "lat": 51.150002}}, {"id": 2863517, "name": "Niederdorfelden", "state": "", "country": "DE", "coord": {"lon": 8.80005, "lat": 50.194149}}, {"id": 2863523, "name": "Niederdorf", "state": "", "country": "DE", "coord": {"lon": 12.78333, "lat": 50.73333}}, {"id": 2863525, "name": "Niederdorf", "state": "", "country": "DE", "coord": {"lon": 7.81667, "lat": 50.51667}}, {"id": 2863534, "name": "Niederdollendorf", "state": "", "country": "DE", "coord": {"lon": 7.18333, "lat": 50.683331}}, {"id": 2863536, "name": "Niederding", "state": "", "country": "DE", "coord": {"lon": 11.85, "lat": 48.316669}}, {"id": 2863537, "name": "Niederdieten", "state": "", "country": "DE", "coord": {"lon": 8.43333, "lat": 50.866669}}, {"id": 2863545, "name": "Niedercunnersdorf", "state": "", "country": "DE", "coord": {"lon": 14.66667, "lat": 51.049999}}, {"id": 2863552, "name": "Niederbusch", "state": "", "country": "DE", "coord": {"lon": 6.01667, "lat": 50.966671}}, {"id": 2863555, "name": "Niederburg", "state": "", "country": "DE", "coord": {"lon": 7.7, "lat": 50.116669}}, {"id": 2863569, "name": "Niederbrombach", "state": "", "country": "DE", "coord": {"lon": 7.25, "lat": 49.683331}}, {"id": 2863574, "name": "Niederbreitbach", "state": "", "country": "DE", "coord": {"lon": 7.41667, "lat": 50.533329}}, {"id": 2863578, "name": "Niederbrechen", "state": "", "country": "DE", "coord": {"lon": 8.16667, "lat": 50.366669}}, {"id": 2863580, "name": "Niederb\u00f6sa", "state": "", "country": "DE", "coord": {"lon": 11.0, "lat": 51.26667}}, {"id": 2863588, "name": "Niederbobritzsch", "state": "", "country": "DE", "coord": {"lon": 13.43333, "lat": 50.900002}}, {"id": 2863593, "name": "Niederbiel", "state": "", "country": "DE", "coord": {"lon": 8.39845, "lat": 50.55505}}, {"id": 2863596, "name": "Niederbieber", "state": "", "country": "DE", "coord": {"lon": 9.80444, "lat": 50.579369}}, {"id": 2863597, "name": "Niederbieber", "state": "", "country": "DE", "coord": {"lon": 7.48333, "lat": 50.48333}}, {"id": 2863598, "name": "Niederbexbach", "state": "", "country": "DE", "coord": {"lon": 7.26162, "lat": 49.331829}}, {"id": 2863604, "name": "Niederbergkirchen", "state": "", "country": "DE", "coord": {"lon": 12.5, "lat": 48.316669}}, {"id": 2863609, "name": "Niederberg", "state": "", "country": "DE", "coord": {"lon": 6.76667, "lat": 50.73333}}, {"id": 2863618, "name": "Niederbeisheim", "state": "", "country": "DE", "coord": {"lon": 9.53333, "lat": 51.033329}}, {"id": 2863619, "name": "Nieder-Beerbach", "state": "", "country": "DE", "coord": {"lon": 8.67639, "lat": 49.791389}}, {"id": 2863622, "name": "Lower Bavaria", "state": "", "country": "DE", "coord": {"lon": 12.83333, "lat": 48.75}}, {"id": 2863629, "name": "Niederbachheim", "state": "", "country": "DE", "coord": {"lon": 7.76667, "lat": 50.25}}, {"id": 2863630, "name": "Niederbachem", "state": "", "country": "DE", "coord": {"lon": 7.16667, "lat": 50.650002}}, {"id": 2863635, "name": "Niederau\u00dfem", "state": "", "country": "DE", "coord": {"lon": 6.66667, "lat": 50.98333}}, {"id": 2863638, "name": "Niederaula", "state": "", "country": "DE", "coord": {"lon": 9.6, "lat": 50.799999}}, {"id": 2863643, "name": "Niederau", "state": "", "country": "DE", "coord": {"lon": 13.54563, "lat": 51.177299}}, {"id": 2863645, "name": "Niederau", "state": "", "country": "DE", "coord": {"lon": 13.06667, "lat": 50.633331}}, {"id": 2863649, "name": "Niederast", "state": "", "country": "DE", "coord": {"lon": 12.68333, "lat": 48.833328}}, {"id": 2863650, "name": "Niederasphe", "state": "", "country": "DE", "coord": {"lon": 8.66667, "lat": 50.933331}}, {"id": 2863652, "name": "Aschau im Chiemgau", "state": "", "country": "DE", "coord": {"lon": 12.31667, "lat": 47.76667}}, {"id": 2863667, "name": "Niederalteich", "state": "", "country": "DE", "coord": {"lon": 13.02412, "lat": 48.76564}}, {"id": 2863672, "name": "Niederalben", "state": "", "country": "DE", "coord": {"lon": 7.46667, "lat": 49.599998}}, {"id": 2863674, "name": "Niederaichbach", "state": "", "country": "DE", "coord": {"lon": 12.31667, "lat": 48.599998}}, {"id": 2863678, "name": "Niederahr", "state": "", "country": "DE", "coord": {"lon": 7.85, "lat": 50.48333}}, {"id": 2863685, "name": "Niedenstein", "state": "", "country": "DE", "coord": {"lon": 9.31667, "lat": 51.23333}}, {"id": 2863686, "name": "Nieden", "state": "", "country": "DE", "coord": {"lon": 13.91667, "lat": 53.433331}}, {"id": 2863692, "name": "Nied", "state": "", "country": "DE", "coord": {"lon": 8.56667, "lat": 50.099998}}, {"id": 2863694, "name": "Nieby", "state": "", "country": "DE", "coord": {"lon": 9.93333, "lat": 54.76667}}, {"id": 2863696, "name": "Nieb\u00fcll", "state": "", "country": "DE", "coord": {"lon": 8.82854, "lat": 54.786629}}, {"id": 2863698, "name": "Nieblum", "state": "", "country": "DE", "coord": {"lon": 8.49089, "lat": 54.691891}}, {"id": 2863707, "name": "Niebel", "state": "", "country": "DE", "coord": {"lon": 12.91667, "lat": 52.133331}}, {"id": 2863708, "name": "Niebede", "state": "", "country": "DE", "coord": {"lon": 12.78826, "lat": 52.541698}}, {"id": 2863711, "name": "Nideggen", "state": "", "country": "DE", "coord": {"lon": 6.48333, "lat": 50.700001}}, {"id": 2863712, "name": "Nidderau", "state": "", "country": "DE", "coord": {"lon": 8.9, "lat": 50.25}}, {"id": 2863716, "name": "Nidda", "state": "", "country": "DE", "coord": {"lon": 9.0, "lat": 50.416672}}, {"id": 2863721, "name": "Niclasreuth", "state": "", "country": "DE", "coord": {"lon": 11.99226, "lat": 47.977169}}, {"id": 2863732, "name": "Nickenich", "state": "", "country": "DE", "coord": {"lon": 7.32728, "lat": 50.414211}}, {"id": 2863753, "name": "Ney", "state": "", "country": "DE", "coord": {"lon": 7.53333, "lat": 50.183331}}, {"id": 2863755, "name": "Nexdorf", "state": "", "country": "DE", "coord": {"lon": 13.36667, "lat": 51.633331}}, {"id": 2863756, "name": "Newel", "state": "", "country": "DE", "coord": {"lon": 6.58304, "lat": 49.812401}}, {"id": 2863762, "name": "Neversdorf", "state": "", "country": "DE", "coord": {"lon": 10.28333, "lat": 53.866669}}, {"id": 2863765, "name": "Neverin", "state": "", "country": "DE", "coord": {"lon": 13.33333, "lat": 53.616669}}, {"id": 2863772, "name": "Neu Zittau", "state": "", "country": "DE", "coord": {"lon": 13.75, "lat": 52.366669}}, {"id": 2863782, "name": "Neuzelle", "state": "", "country": "DE", "coord": {"lon": 14.64804, "lat": 52.09016}}, {"id": 2863786, "name": "Neu Zauche", "state": "", "country": "DE", "coord": {"lon": 14.1, "lat": 51.933331}}, {"id": 2863790, "name": "Neuwustrow", "state": "", "country": "DE", "coord": {"lon": 14.19691, "lat": 52.763672}}, {"id": 2863793, "name": "Neuw\u00fcrschnitz", "state": "", "country": "DE", "coord": {"lon": 12.73333, "lat": 50.700001}}, {"id": 2863795, "name": "Neu Wulmstorf", "state": "", "country": "DE", "coord": {"lon": 9.8, "lat": 53.466671}}, {"id": 2863810, "name": "Neuwittenbek", "state": "", "country": "DE", "coord": {"lon": 10.01667, "lat": 54.366669}}, {"id": 2863818, "name": "Winsen (Aller)", "state": "", "country": "DE", "coord": {"lon": 9.9095, "lat": 52.68367}}, {"id": 2863840, "name": "Neuwied", "state": "", "country": "DE", "coord": {"lon": 7.46667, "lat": 50.433331}}, {"id": 2863870, "name": "Neuweissig", "state": "", "country": "DE", "coord": {"lon": 13.88333, "lat": 51.066669}}, {"id": 2863876, "name": "Neuweiler", "state": "", "country": "DE", "coord": {"lon": 8.6, "lat": 48.666672}}, {"id": 2863895, "name": "Neuwegersleben", "state": "", "country": "DE", "coord": {"lon": 11.1, "lat": 52.049999}}, {"id": 2863911, "name": "Neu Waltersdorf", "state": "", "country": "DE", "coord": {"lon": 13.93333, "lat": 52.316669}}, {"id": 2863921, "name": "Neuwalde", "state": "", "country": "DE", "coord": {"lon": 14.61667, "lat": 50.966671}}, {"id": 2863939, "name": "Neu Ummendorf", "state": "", "country": "DE", "coord": {"lon": 11.21258, "lat": 52.172138}}, {"id": 2863941, "name": "Neu-Ulm", "state": "", "country": "DE", "coord": {"lon": 10.01112, "lat": 48.392792}}, {"id": 2863948, "name": "Neutsch", "state": "", "country": "DE", "coord": {"lon": 8.71111, "lat": 49.775002}}, {"id": 2863949, "name": "Neu Trebendorf", "state": "", "country": "DE", "coord": {"lon": 14.53333, "lat": 51.533329}}, {"id": 2863950, "name": "Neutrebbin", "state": "", "country": "DE", "coord": {"lon": 14.23333, "lat": 52.666672}}, {"id": 2863952, "name": "Neutrauchburg", "state": "", "country": "DE", "coord": {"lon": 10.03333, "lat": 47.700001}}, {"id": 2863953, "name": "Neutraubling", "state": "", "country": "DE", "coord": {"lon": 12.2, "lat": 48.98333}}, {"id": 2863996, "name": "Neusustrum", "state": "", "country": "DE", "coord": {"lon": 7.21667, "lat": 52.883331}}, {"id": 2863998, "name": "Neu S\u00fcllitz", "state": "", "country": "DE", "coord": {"lon": 13.61667, "lat": 54.383331}}, {"id": 2864005, "name": "Neustrelitz", "state": "", "country": "DE", "coord": {"lon": 13.08333, "lat": 53.366669}}, {"id": 2864007, "name": "Neustra\u00dfburg", "state": "", "country": "DE", "coord": {"lon": 6.53333, "lat": 50.116669}}, {"id": 2864020, "name": "Neusteinreuth", "state": "", "country": "DE", "coord": {"lon": 11.93333, "lat": 49.883331}}, {"id": 2864023, "name": "Neu Steinfeld", "state": "", "country": "DE", "coord": {"lon": 12.31667, "lat": 54.099998}}, {"id": 2864024, "name": "Neu Steinbr\u00fcck", "state": "", "country": "DE", "coord": {"lon": 10.2, "lat": 52.23333}}, {"id": 2864029, "name": "Neu Stahnsdorf", "state": "", "country": "DE", "coord": {"lon": 13.88333, "lat": 52.299999}}, {"id": 2864034, "name": "Neustadt in Holstein", "state": "", "country": "DE", "coord": {"lon": 10.8145, "lat": 54.107071}}, {"id": 2864035, "name": "Neustadtg\u00f6dens", "state": "", "country": "DE", "coord": {"lon": 7.98333, "lat": 53.48333}}, {"id": 2864036, "name": "Neustadt-Glewe", "state": "", "country": "DE", "coord": {"lon": 11.59264, "lat": 53.37846}}, {"id": 2864053, "name": "Neustadt bei Coburg", "state": "", "country": "DE", "coord": {"lon": 11.11667, "lat": 50.316669}}, {"id": 2864054, "name": "Neustadt", "state": "", "country": "DE", "coord": {"lon": 8.13778, "lat": 49.35667}}, {"id": 2864055, "name": "Neustadt an der Waldnaab", "state": "", "country": "DE", "coord": {"lon": 12.17333, "lat": 49.731392}}, {"id": 2864056, "name": "Neustadt an der Donau", "state": "", "country": "DE", "coord": {"lon": 11.76667, "lat": 48.799999}}, {"id": 2864057, "name": "Neustadt an der Aisch", "state": "", "country": "DE", "coord": {"lon": 10.6, "lat": 49.583328}}, {"id": 2864058, "name": "Neustadt am R\u00fcbenberge", "state": "", "country": "DE", "coord": {"lon": 9.45871, "lat": 52.50462}}, {"id": 2864059, "name": "Neustadt am Rennsteig", "state": "", "country": "DE", "coord": {"lon": 10.93333, "lat": 50.583328}}, {"id": 2864060, "name": "Neustadt am Main", "state": "", "country": "DE", "coord": {"lon": 9.5675, "lat": 49.930828}}, {"id": 2864067, "name": "Neustadt", "state": "", "country": "DE", "coord": {"lon": 9.98558, "lat": 53.55196}}, {"id": 2864069, "name": "Neustadt", "state": "", "country": "DE", "coord": {"lon": 8.79039, "lat": 53.068371}}, {"id": 2864070, "name": "Neustadt", "state": "", "country": "DE", "coord": {"lon": 13.2, "lat": 52.549999}}, {"id": 2864071, "name": "Neustadt", "state": "", "country": "DE", "coord": {"lon": 12.56667, "lat": 52.400002}}, {"id": 2864072, "name": "Neue Neustadt", "state": "", "country": "DE", "coord": {"lon": 11.63333, "lat": 52.150002}}, {"id": 2864086, "name": "Neustadt/Harz", "state": "", "country": "DE", "coord": {"lon": 10.83333, "lat": 51.566669}}, {"id": 2864088, "name": "Neustadt", "state": "", "country": "DE", "coord": {"lon": 10.46667, "lat": 51.466671}}, {"id": 2864089, "name": "Neustadt in Sachsen", "state": "", "country": "DE", "coord": {"lon": 14.21785, "lat": 51.028439}}, {"id": 2864091, "name": "Neustadt (Hessen)", "state": "", "country": "DE", "coord": {"lon": 9.11667, "lat": 50.849998}}, {"id": 2864098, "name": "Neustadt Vogtland", "state": "", "country": "DE", "coord": {"lon": 12.33224, "lat": 50.460999}}, {"id": 2864118, "name": "Neuss", "state": "", "country": "DE", "coord": {"lon": 6.68333, "lat": 51.200001}}, {"id": 2864131, "name": "Neusorg", "state": "", "country": "DE", "coord": {"lon": 11.96667, "lat": 49.933331}}, {"id": 2864141, "name": "Neusitz", "state": "", "country": "DE", "coord": {"lon": 10.21667, "lat": 49.366669}}, {"id": 2864142, "name": "Neusi\u00df", "state": "", "country": "DE", "coord": {"lon": 10.88333, "lat": 50.75}}, {"id": 2864166, "name": "Neuses", "state": "", "country": "DE", "coord": {"lon": 9.855, "lat": 49.507221}}, {"id": 2864172, "name": "Neuses", "state": "", "country": "DE", "coord": {"lon": 10.8, "lat": 48.25}}, {"id": 2864177, "name": "Neuselingsbach", "state": "", "country": "DE", "coord": {"lon": 10.65, "lat": 49.466671}}, {"id": 2864180, "name": "Neuseggebruch", "state": "", "country": "DE", "coord": {"lon": 9.1, "lat": 52.299999}}, {"id": 2864188, "name": "Neuseegefeld", "state": "", "country": "DE", "coord": {"lon": 13.08333, "lat": 52.566669}}, {"id": 2864192, "name": "Neuseddin", "state": "", "country": "DE", "coord": {"lon": 12.98893, "lat": 52.2878}}, {"id": 2864216, "name": "Neusch\u00f6nau", "state": "", "country": "DE", "coord": {"lon": 13.47576, "lat": 48.88419}}, {"id": 2864220, "name": "Neuschm\u00f6lln", "state": "", "country": "DE", "coord": {"lon": 14.25, "lat": 51.133331}}, {"id": 2864226, "name": "Neu Schloen", "state": "", "country": "DE", "coord": {"lon": 12.78333, "lat": 53.533329}}, {"id": 2864230, "name": "Neu Schlagsdorf", "state": "", "country": "DE", "coord": {"lon": 11.5359, "lat": 53.737541}}, {"id": 2864252, "name": "Neus\u00e4\u00df", "state": "", "country": "DE", "coord": {"lon": 10.83333, "lat": 48.400002}}, {"id": 2864265, "name": "Neusalza-Spremberg", "state": "", "country": "DE", "coord": {"lon": 14.5356, "lat": 51.039452}}, {"id": 2864276, "name": "Neuruppin", "state": "", "country": "DE", "coord": {"lon": 12.80311, "lat": 52.92815}}, {"id": 2864289, "name": "Neu Roggentin", "state": "", "country": "DE", "coord": {"lon": 12.2, "lat": 54.083328}}, {"id": 2864291, "name": "Neuroda", "state": "", "country": "DE", "coord": {"lon": 10.98333, "lat": 50.75}}, {"id": 2864293, "name": "Neurochwitz", "state": "", "country": "DE", "coord": {"lon": 13.83805, "lat": 51.045059}}, {"id": 2864303, "name": "Neuried", "state": "", "country": "DE", "coord": {"lon": 11.46561, "lat": 48.09322}}, {"id": 2864319, "name": "Neureut", "state": "", "country": "DE", "coord": {"lon": 8.38333, "lat": 49.049999}}, {"id": 2864323, "name": "Neu Reichenwalde", "state": "", "country": "DE", "coord": {"lon": 14.0, "lat": 52.283329}}, {"id": 2864324, "name": "Neureichenau", "state": "", "country": "DE", "coord": {"lon": 13.74699, "lat": 48.748611}}, {"id": 2864334, "name": "Neurath", "state": "", "country": "DE", "coord": {"lon": 6.6, "lat": 51.033329}}, {"id": 2864351, "name": "Neupullach Kolonie", "state": "", "country": "DE", "coord": {"lon": 11.93416, "lat": 48.165051}}, {"id": 2864356, "name": "Neupotz", "state": "", "country": "DE", "coord": {"lon": 8.31944, "lat": 49.117779}}, {"id": 2864357, "name": "Neu Poserin", "state": "", "country": "DE", "coord": {"lon": 12.16461, "lat": 53.552898}}, {"id": 2864369, "name": "Neu Plaue", "state": "", "country": "DE", "coord": {"lon": 12.4, "lat": 52.433331}}, {"id": 2864376, "name": "Neupetershain Nord", "state": "", "country": "DE", "coord": {"lon": 14.15, "lat": 51.616669}}, {"id": 2864377, "name": "Neupetershain", "state": "", "country": "DE", "coord": {"lon": 14.16667, "lat": 51.599998}}, {"id": 2864387, "name": "Neu\u00f6tting", "state": "", "country": "DE", "coord": {"lon": 12.7, "lat": 48.23333}}, {"id": 2864388, "name": "Neuostheim", "state": "", "country": "DE", "coord": {"lon": 8.51444, "lat": 49.477501}}, {"id": 2864393, "name": "Neuoppach", "state": "", "country": "DE", "coord": {"lon": 14.51667, "lat": 51.049999}}, {"id": 2864398, "name": "Neuoelsa", "state": "", "country": "DE", "coord": {"lon": 13.66667, "lat": 50.950001}}, {"id": 2864402, "name": "Ninive", "state": "", "country": "DE", "coord": {"lon": 14.71667, "lat": 51.0}}, {"id": 2864403, "name": "Neuoberhaus", "state": "", "country": "DE", "coord": {"lon": 12.73333, "lat": 50.433331}}, {"id": 2864420, "name": "Neunkirchen am Sand", "state": "", "country": "DE", "coord": {"lon": 11.31667, "lat": 49.51667}}, {"id": 2864421, "name": "Neunkirchen am Potzberg", "state": "", "country": "DE", "coord": {"lon": 7.48333, "lat": 49.5}}, {"id": 2864422, "name": "Neunkirchen am Main", "state": "", "country": "DE", "coord": {"lon": 11.65, "lat": 49.916672}}, {"id": 2864425, "name": "Neunkirchen", "state": "", "country": "DE", "coord": {"lon": 8.0, "lat": 50.799999}}, {"id": 2864426, "name": "Neunkirchen", "state": "", "country": "DE", "coord": {"lon": 8.1, "lat": 50.549999}}, {"id": 2864428, "name": "Neunkirchen", "state": "", "country": "DE", "coord": {"lon": 9.4, "lat": 49.799999}}, {"id": 2864429, "name": "Neunkirchen", "state": "", "country": "DE", "coord": {"lon": 6.95, "lat": 49.75}}, {"id": 2864431, "name": "Neunkirchen", "state": "", "country": "DE", "coord": {"lon": 11.13222, "lat": 49.612782}}, {"id": 2864434, "name": "Neunkirchen", "state": "", "country": "DE", "coord": {"lon": 9.01056, "lat": 49.38694}}, {"id": 2864435, "name": "Neunkirchen", "state": "", "country": "DE", "coord": {"lon": 7.18333, "lat": 49.349998}}, {"id": 2864437, "name": "Neunkhausen", "state": "", "country": "DE", "coord": {"lon": 7.9, "lat": 50.700001}}, {"id": 2864444, "name": "Neunhof", "state": "", "country": "DE", "coord": {"lon": 11.05, "lat": 49.51667}}, {"id": 2864446, "name": "Neunheilingen", "state": "", "country": "DE", "coord": {"lon": 10.66667, "lat": 51.200001}}, {"id": 2864455, "name": "Neundorf", "state": "", "country": "DE", "coord": {"lon": 11.56667, "lat": 51.816669}}, {"id": 2864463, "name": "Neundorf", "state": "", "country": "DE", "coord": {"lon": 11.21667, "lat": 50.25}}, {"id": 2864468, "name": "Neunburg vorm Wald", "state": "", "country": "DE", "coord": {"lon": 12.38444, "lat": 49.346668}}, {"id": 2864475, "name": "Neum\u00fcnster", "state": "", "country": "DE", "coord": {"lon": 9.98333, "lat": 54.066669}}, {"id": 2864476, "name": "Neum\u00fcnster", "state": "", "country": "DE", "coord": {"lon": 7.16667, "lat": 49.400002}}, {"id": 2864494, "name": "Neum\u00fchlen", "state": "", "country": "DE", "coord": {"lon": 9.10183, "lat": 52.25153}}, {"id": 2864502, "name": "Neum\u00fchle", "state": "", "country": "DE", "coord": {"lon": 11.37085, "lat": 53.63171}}, {"id": 2864508, "name": "Neum\u00fchle", "state": "", "country": "DE", "coord": {"lon": 11.78333, "lat": 50.283329}}, {"id": 2864525, "name": "Neumorschen", "state": "", "country": "DE", "coord": {"lon": 9.6, "lat": 51.066669}}, {"id": 2864530, "name": "Neumolkenberg", "state": "", "country": "DE", "coord": {"lon": 12.21122, "lat": 52.684448}}, {"id": 2864547, "name": "Neumarkt-Sankt Veit", "state": "", "country": "DE", "coord": {"lon": 12.5, "lat": 48.366669}}, {"id": 2864548, "name": "Landkreis Neumarkt in der Oberpfalz", "state": "", "country": "DE", "coord": {"lon": 11.57722, "lat": 49.218891}}, {"id": 2864549, "name": "Neumarkt in der Oberpfalz", "state": "", "country": "DE", "coord": {"lon": 11.46278, "lat": 49.280281}}, {"id": 2864558, "name": "Neumark", "state": "", "country": "DE", "coord": {"lon": 12.35, "lat": 50.666672}}, {"id": 2864573, "name": "Neu Madlitz", "state": "", "country": "DE", "coord": {"lon": 14.25, "lat": 52.366669}}, {"id": 2864577, "name": "Neulu\u00dfheim", "state": "", "country": "DE", "coord": {"lon": 8.51833, "lat": 49.298061}}, {"id": 2864581, "name": "Neu L\u00fcdershagen", "state": "", "country": "DE", "coord": {"lon": 13.0594, "lat": 54.26532}}, {"id": 2864586, "name": "Neu L\u00fcblow", "state": "", "country": "DE", "coord": {"lon": 11.45, "lat": 53.383331}}, {"id": 2864590, "name": "Neul\u00f6wenberg", "state": "", "country": "DE", "coord": {"lon": 13.19458, "lat": 52.898499}}, {"id": 2864592, "name": "Neulorup", "state": "", "country": "DE", "coord": {"lon": 7.73333, "lat": 52.98333}}, {"id": 2864595, "name": "Lokstedt", "state": "", "country": "DE", "coord": {"lon": 9.95639, "lat": 53.603062}}, {"id": 2864596, "name": "Neu-Lohsa", "state": "", "country": "DE", "coord": {"lon": 14.4, "lat": 51.383331}}, {"id": 2864603, "name": "Neu Lindenberg", "state": "", "country": "DE", "coord": {"lon": 13.55704, "lat": 52.600491}}, {"id": 2864605, "name": "Neu-Lindach", "state": "", "country": "DE", "coord": {"lon": 11.25, "lat": 48.183331}}, {"id": 2864613, "name": "Neulewin", "state": "", "country": "DE", "coord": {"lon": 14.27922, "lat": 52.724339}}, {"id": 2864616, "name": "Neuler", "state": "", "country": "DE", "coord": {"lon": 10.06888, "lat": 48.928028}}, {"id": 2864618, "name": "Neuleiningen", "state": "", "country": "DE", "coord": {"lon": 8.13889, "lat": 49.541672}}, {"id": 2864619, "name": "Neulehn", "state": "", "country": "DE", "coord": {"lon": 12.53333, "lat": 50.533329}}, {"id": 2864621, "name": "Neulehe", "state": "", "country": "DE", "coord": {"lon": 7.4, "lat": 53.0}}, {"id": 2864624, "name": "Neulauterburg", "state": "", "country": "DE", "coord": {"lon": 8.18602, "lat": 48.978642}}, {"id": 2864643, "name": "Neuland", "state": "", "country": "DE", "coord": {"lon": 10.03287, "lat": 53.46965}}, {"id": 2864653, "name": "Neu Kuppritz", "state": "", "country": "DE", "coord": {"lon": 14.58333, "lat": 51.150002}}, {"id": 2864679, "name": "Neu Kosenow", "state": "", "country": "DE", "coord": {"lon": 13.75, "lat": 53.799999}}, {"id": 2864701, "name": "Neukl\u00fc\u00df", "state": "", "country": "DE", "coord": {"lon": 11.28333, "lat": 53.433331}}, {"id": 2864705, "name": "Neukloster", "state": "", "country": "DE", "coord": {"lon": 11.7, "lat": 53.866669}}, {"id": 2864707, "name": "Neu Klocksin", "state": "", "country": "DE", "coord": {"lon": 12.58333, "lat": 53.650002}}, {"id": 2864708, "name": "Neu Klockow", "state": "", "country": "DE", "coord": {"lon": 11.78919, "lat": 53.410759}}, {"id": 2864713, "name": "Neukleff", "state": "", "country": "DE", "coord": {"lon": 7.53333, "lat": 50.950001}}, {"id": 2864714, "name": "Neukladow", "state": "", "country": "DE", "coord": {"lon": 13.15, "lat": 52.450001}}, {"id": 2864717, "name": "Neukirnberg", "state": "", "country": "DE", "coord": {"lon": 11.38333, "lat": 47.76667}}, {"id": 2864723, "name": "Neukirchen vorm Wald", "state": "", "country": "DE", "coord": {"lon": 13.38333, "lat": 48.683331}}, {"id": 2864726, "name": "Neukirchen bei Sulzbach-Rosenberg", "state": "", "country": "DE", "coord": {"lon": 11.62585, "lat": 49.529671}}, {"id": 2864730, "name": "Neukirchen-Balbini", "state": "", "country": "DE", "coord": {"lon": 12.43333, "lat": 49.299999}}, {"id": 2864735, "name": "Neukirchen", "state": "", "country": "DE", "coord": {"lon": 8.73333, "lat": 54.866669}}, {"id": 2864737, "name": "Neukirchen", "state": "", "country": "DE", "coord": {"lon": 11.01667, "lat": 54.316669}}, {"id": 2864738, "name": "Neukirchen", "state": "", "country": "DE", "coord": {"lon": 10.55, "lat": 54.216671}}, {"id": 2864748, "name": "Neukirchen", "state": "", "country": "DE", "coord": {"lon": 9.33333, "lat": 50.866669}}, {"id": 2864749, "name": "Neukirchen", "state": "", "country": "DE", "coord": {"lon": 12.36667, "lat": 50.799999}}, {"id": 2864750, "name": "Neukirchen", "state": "", "country": "DE", "coord": {"lon": 12.86667, "lat": 50.783329}}, {"id": 2864754, "name": "Neukirchen", "state": "", "country": "DE", "coord": {"lon": 8.43699, "lat": 50.481979}}, {"id": 2864759, "name": "Neukirchen", "state": "", "country": "DE", "coord": {"lon": 12.96667, "lat": 49.25}}, {"id": 2864761, "name": "Neukirchen", "state": "", "country": "DE", "coord": {"lon": 12.75547, "lat": 48.97506}}, {"id": 2864767, "name": "Neukirchen", "state": "", "country": "DE", "coord": {"lon": 12.23333, "lat": 47.849998}}, {"id": 2864770, "name": "Neukirch", "state": "", "country": "DE", "coord": {"lon": 13.98333, "lat": 51.283329}}, {"id": 2864771, "name": "Neukirch/Lausitz", "state": "", "country": "DE", "coord": {"lon": 14.30789, "lat": 51.097271}}, {"id": 2864774, "name": "Neukirch", "state": "", "country": "DE", "coord": {"lon": 9.7, "lat": 47.666672}}, {"id": 2864778, "name": "Neukieritzsch", "state": "", "country": "DE", "coord": {"lon": 12.43333, "lat": 51.166672}}, {"id": 2864781, "name": "Neukenroth", "state": "", "country": "DE", "coord": {"lon": 11.28365, "lat": 50.32201}}, {"id": 2864793, "name": "Neu Karin", "state": "", "country": "DE", "coord": {"lon": 11.75, "lat": 54.0}}, {"id": 2864804, "name": "Neu Kali\u00df", "state": "", "country": "DE", "coord": {"lon": 11.29446, "lat": 53.17466}}, {"id": 2864806, "name": "Neukalen", "state": "", "country": "DE", "coord": {"lon": 12.79015, "lat": 53.82275}}, {"id": 2864820, "name": "Neu Isenburg", "state": "", "country": "DE", "coord": {"lon": 8.7, "lat": 50.049999}}, {"id": 2864826, "name": "Neuh\u00fctten", "state": "", "country": "DE", "coord": {"lon": 9.41667, "lat": 50.0}}, {"id": 2864828, "name": "Neuh\u00fctten", "state": "", "country": "DE", "coord": {"lon": 7.01667, "lat": 49.633331}}, {"id": 2864835, "name": "Neuhueb", "state": "", "country": "DE", "coord": {"lon": 10.21667, "lat": 49.01667}}, {"id": 2864836, "name": "Neuh\u00fcckeswagen", "state": "", "country": "DE", "coord": {"lon": 7.35, "lat": 51.150002}}, {"id": 2864855, "name": "Neuhohelinde", "state": "", "country": "DE", "coord": {"lon": 13.2, "lat": 50.849998}}, {"id": 2864869, "name": "Neuhofen", "state": "", "country": "DE", "coord": {"lon": 8.42472, "lat": 49.42778}}, {"id": 2864882, "name": "Neuhof an der Zenn", "state": "", "country": "DE", "coord": {"lon": 10.65, "lat": 49.466671}}, {"id": 2864891, "name": "Neuhof", "state": "", "country": "DE", "coord": {"lon": 13.41667, "lat": 54.333328}}, {"id": 2864895, "name": "Neuhof", "state": "", "country": "DE", "coord": {"lon": 13.17853, "lat": 54.252289}}, {"id": 2864900, "name": "Heringsdorf", "state": "", "country": "DE", "coord": {"lon": 14.16667, "lat": 53.950001}}, {"id": 2864927, "name": "Neuhof", "state": "", "country": "DE", "coord": {"lon": 10.05, "lat": 51.98333}}, {"id": 2864936, "name": "Neuhof", "state": "", "country": "DE", "coord": {"lon": 9.6175, "lat": 50.453129}}, {"id": 2864938, "name": "Neuhof", "state": "", "country": "DE", "coord": {"lon": 10.73333, "lat": 50.283329}}, {"id": 2865019, "name": "Neuhochstein", "state": "", "country": "DE", "coord": {"lon": 7.95, "lat": 50.633331}}, {"id": 2865021, "name": "Neuhirschstein", "state": "", "country": "DE", "coord": {"lon": 13.39766, "lat": 51.251709}}, {"id": 2865023, "name": "Neuhimmelreich", "state": "", "country": "DE", "coord": {"lon": 11.4, "lat": 48.23333}}, {"id": 2865025, "name": "Neu Herzfeld", "state": "", "country": "DE", "coord": {"lon": 11.78333, "lat": 53.316669}}, {"id": 2865033, "name": "Neuherberg", "state": "", "country": "DE", "coord": {"lon": 11.58333, "lat": 48.216671}}, {"id": 2865036, "name": "Neuhemsbach", "state": "", "country": "DE", "coord": {"lon": 7.91667, "lat": 49.51667}}, {"id": 2865047, "name": "Neuheilenbach", "state": "", "country": "DE", "coord": {"lon": 6.56667, "lat": 50.116669}}, {"id": 2865053, "name": "Neuhaus-Schierschnitz", "state": "", "country": "DE", "coord": {"lon": 11.24399, "lat": 50.31522}}, {"id": 2865073, "name": "Neuh\u00e4user", "state": "", "country": "DE", "coord": {"lon": 7.93333, "lat": 47.966671}}, {"id": 2865085, "name": "Neuhausen ob Eck", "state": "", "country": "DE", "coord": {"lon": 8.92759, "lat": 47.972569}}, {"id": 2865086, "name": "Neuhausen auf den Fildern", "state": "", "country": "DE", "coord": {"lon": 9.28333, "lat": 48.683331}}, {"id": 2865098, "name": "Neuhausen", "state": "", "country": "DE", "coord": {"lon": 13.46667, "lat": 50.666672}}, {"id": 2865104, "name": "Neuhausen", "state": "", "country": "DE", "coord": {"lon": 8.78333, "lat": 48.799999}}, {"id": 2865112, "name": "Neuhausen", "state": "", "country": "DE", "coord": {"lon": 8.46007, "lat": 48.132992}}, {"id": 2865114, "name": "Neuhausen", "state": "", "country": "DE", "coord": {"lon": 8.76667, "lat": 47.833328}}, {"id": 2865123, "name": "Neuh\u00e4usel", "state": "", "country": "DE", "coord": {"lon": 7.71667, "lat": 50.383331}}, {"id": 2865125, "name": "Neuh\u00e4usel", "state": "", "country": "DE", "coord": {"lon": 7.91667, "lat": 47.98333}}, {"id": 2865129, "name": "Neuhaus an der Pegnitz", "state": "", "country": "DE", "coord": {"lon": 11.55, "lat": 49.633331}}, {"id": 2865130, "name": "Neuhaus an der Oste", "state": "", "country": "DE", "coord": {"lon": 9.03333, "lat": 53.799999}}, {"id": 2865155, "name": "Neuhaus", "state": "", "country": "DE", "coord": {"lon": 10.93333, "lat": 50.683331}}, {"id": 2865161, "name": "Neuhaus", "state": "", "country": "DE", "coord": {"lon": 12.16667, "lat": 49.799999}}, {"id": 2865166, "name": "Neuhaus", "state": "", "country": "DE", "coord": {"lon": 11.53367, "lat": 49.147301}}, {"id": 2865171, "name": "Neuhaus", "state": "", "country": "DE", "coord": {"lon": 8.7, "lat": 48.099998}}, {"id": 2865212, "name": "Neuhattendorf", "state": "", "country": "DE", "coord": {"lon": 9.3, "lat": 50.783329}}, {"id": 2865219, "name": "Neuharlingersiel", "state": "", "country": "DE", "coord": {"lon": 7.70288, "lat": 53.699928}}, {"id": 2865223, "name": "Neuhardenberg", "state": "", "country": "DE", "coord": {"lon": 14.23768, "lat": 52.596008}}, {"id": 2865247, "name": "Neu G\u00fclze", "state": "", "country": "DE", "coord": {"lon": 10.78333, "lat": 53.366669}}, {"id": 2865293, "name": "Neugersdorf", "state": "", "country": "DE", "coord": {"lon": 14.61667, "lat": 50.966671}}, {"id": 2865294, "name": "Neugernsdorf", "state": "", "country": "DE", "coord": {"lon": 12.13333, "lat": 50.716671}}, {"id": 2865300, "name": "Neugattersleben", "state": "", "country": "DE", "coord": {"lon": 11.7, "lat": 51.849998}}, {"id": 2865314, "name": "Neu Gaarz", "state": "", "country": "DE", "coord": {"lon": 12.53333, "lat": 53.583328}}, {"id": 2865325, "name": "Neufraunhofen", "state": "", "country": "DE", "coord": {"lon": 12.21667, "lat": 48.400002}}, {"id": 2865331, "name": "Neufra", "state": "", "country": "DE", "coord": {"lon": 9.18311, "lat": 48.247742}}, {"id": 2865332, "name": "Neufra", "state": "", "country": "DE", "coord": {"lon": 9.47554, "lat": 48.128799}}, {"id": 2865333, "name": "Neufra", "state": "", "country": "DE", "coord": {"lon": 8.67495, "lat": 48.128521}}, {"id": 2865339, "name": "Neufirrel", "state": "", "country": "DE", "coord": {"lon": 7.7, "lat": 53.349998}}, {"id": 2865341, "name": "Neuffen", "state": "", "country": "DE", "coord": {"lon": 9.3755, "lat": 48.5546}}, {"id": 2865347, "name": "Neufelderkoog", "state": "", "country": "DE", "coord": {"lon": 8.96667, "lat": 53.900002}}, {"id": 2865359, "name": "Neufeld", "state": "", "country": "DE", "coord": {"lon": 9.01667, "lat": 53.900002}}, {"id": 2865362, "name": "Neufarn", "state": "", "country": "DE", "coord": {"lon": 11.81897, "lat": 48.148338}}, {"id": 2865365, "name": "Neufang", "state": "", "country": "DE", "coord": {"lon": 11.6, "lat": 50.116669}}, {"id": 2865376, "name": "Neufahrn bei Freising", "state": "", "country": "DE", "coord": {"lon": 11.66667, "lat": 48.316669}}, {"id": 2865378, "name": "Neufahrn", "state": "", "country": "DE", "coord": {"lon": 12.43333, "lat": 48.25}}, {"id": 2865381, "name": "Neu Fahrland", "state": "", "country": "DE", "coord": {"lon": 13.05, "lat": 52.450001}}, {"id": 2865396, "name": "Neue Welt", "state": "", "country": "DE", "coord": {"lon": 12.88333, "lat": 50.666672}}, {"id": 2865427, "name": "Neue Siedlung", "state": "", "country": "DE", "coord": {"lon": 13.45, "lat": 52.283329}}, {"id": 2865460, "name": "Neuershausen", "state": "", "country": "DE", "coord": {"lon": 7.76667, "lat": 48.066669}}, {"id": 2865466, "name": "Neuerode", "state": "", "country": "DE", "coord": {"lon": 10.05, "lat": 51.216671}}, {"id": 2865467, "name": "Neuermark-L\u00fcbars", "state": "", "country": "DE", "coord": {"lon": 12.03333, "lat": 52.650002}}, {"id": 2865472, "name": "Neuerkirch", "state": "", "country": "DE", "coord": {"lon": 7.48333, "lat": 50.01667}}, {"id": 2865473, "name": "Neuerkerode", "state": "", "country": "DE", "coord": {"lon": 10.65734, "lat": 52.212261}}, {"id": 2865508, "name": "Neuerburg", "state": "", "country": "DE", "coord": {"lon": 6.95, "lat": 50.0}}, {"id": 2865525, "name": "Neuer Anbau", "state": "", "country": "DE", "coord": {"lon": 12.76667, "lat": 50.466671}}, {"id": 2865546, "name": "Neuenwalde", "state": "", "country": "DE", "coord": {"lon": 8.15, "lat": 52.5}}, {"id": 2865553, "name": "Neuental", "state": "", "country": "DE", "coord": {"lon": 9.21667, "lat": 51.0}}, {"id": 2865557, "name": "Neuenstein", "state": "", "country": "DE", "coord": {"lon": 9.57917, "lat": 49.20583}}, {"id": 2865560, "name": "Neuenstadt am Kocher", "state": "", "country": "DE", "coord": {"lon": 9.33028, "lat": 49.235279}}, {"id": 2865571, "name": "Neuenschwand", "state": "", "country": "DE", "coord": {"lon": 12.26667, "lat": 49.283329}}, {"id": 2865575, "name": "Neuensalz", "state": "", "country": "DE", "coord": {"lon": 12.21667, "lat": 50.5}}, {"id": 2865587, "name": "Neuenreuth", "state": "", "country": "DE", "coord": {"lon": 12.13333, "lat": 50.083328}}, {"id": 2865592, "name": "Neuenrade", "state": "", "country": "DE", "coord": {"lon": 7.78333, "lat": 51.283329}}, {"id": 2865596, "name": "Neuenpleen", "state": "", "country": "DE", "coord": {"lon": 12.92447, "lat": 54.349152}}, {"id": 2865603, "name": "Neuenmarkt", "state": "", "country": "DE", "coord": {"lon": 11.6, "lat": 50.099998}}, {"id": 2865613, "name": "Neuenland", "state": "", "country": "DE", "coord": {"lon": 8.78333, "lat": 53.049999}}, {"id": 2865627, "name": "Neuenkirchen", "state": "", "country": "DE", "coord": {"lon": 13.33333, "lat": 54.549999}}, {"id": 2865628, "name": "Neuenkirchen", "state": "", "country": "DE", "coord": {"lon": 8.98333, "lat": 54.23333}}, {"id": 2865629, "name": "Neuenkirchen", "state": "", "country": "DE", "coord": {"lon": 13.38333, "lat": 54.116669}}, {"id": 2865630, "name": "Neuenkirchen", "state": "", "country": "DE", "coord": {"lon": 9.42827, "lat": 53.86422}}, {"id": 2865631, "name": "Neuenkirchen", "state": "", "country": "DE", "coord": {"lon": 13.56667, "lat": 53.799999}}, {"id": 2865632, "name": "Neuenkirchen", "state": "", "country": "DE", "coord": {"lon": 8.9, "lat": 53.76667}}, {"id": 2865633, "name": "Neuenkirchen", "state": "", "country": "DE", "coord": {"lon": 13.36942, "lat": 53.59729}}, {"id": 2865635, "name": "Neuenkirchen", "state": "", "country": "DE", "coord": {"lon": 9.6, "lat": 53.51667}}, {"id": 2865636, "name": "Neuenkirchen", "state": "", "country": "DE", "coord": {"lon": 8.5, "lat": 53.23333}}, {"id": 2865637, "name": "Neuenkirchen", "state": "", "country": "DE", "coord": {"lon": 9.70642, "lat": 53.032589}}, {"id": 2865638, "name": "Neuenkirchen", "state": "", "country": "DE", "coord": {"lon": 8.75044, "lat": 52.776291}}, {"id": 2865640, "name": "Neuenkirchen", "state": "", "country": "DE", "coord": {"lon": 7.85, "lat": 52.416672}}, {"id": 2865641, "name": "Neuenkirchen", "state": "", "country": "DE", "coord": {"lon": 7.37183, "lat": 52.24472}}, {"id": 2865642, "name": "Neuenkirchen", "state": "", "country": "DE", "coord": {"lon": 8.38333, "lat": 52.133331}}, {"id": 2865648, "name": "Neuenkamp", "state": "", "country": "DE", "coord": {"lon": 8.88333, "lat": 53.599998}}, {"id": 2865656, "name": "Neuenhuntorf", "state": "", "country": "DE", "coord": {"lon": 8.43333, "lat": 53.183331}}, {"id": 2865660, "name": "Neuenhofe", "state": "", "country": "DE", "coord": {"lon": 11.46667, "lat": 52.299999}}, {"id": 2865685, "name": "Neuenheerse", "state": "", "country": "DE", "coord": {"lon": 8.99832, "lat": 51.676708}}, {"id": 2865689, "name": "Neuenhausen", "state": "", "country": "DE", "coord": {"lon": 6.58333, "lat": 51.066669}}, {"id": 2865691, "name": "Neuenhaus", "state": "", "country": "DE", "coord": {"lon": 7.56667, "lat": 50.966671}}, {"id": 2865705, "name": "Neuenha\u00dflau", "state": "", "country": "DE", "coord": {"lon": 9.09101, "lat": 50.162048}}, {"id": 2865716, "name": "Neuenhagen", "state": "", "country": "DE", "coord": {"lon": 13.68914, "lat": 52.52985}}, {"id": 2865721, "name": "Neueng\u00f6rs", "state": "", "country": "DE", "coord": {"lon": 10.38333, "lat": 53.900002}}, {"id": 2865722, "name": "Neueng\u00f6nna", "state": "", "country": "DE", "coord": {"lon": 11.65, "lat": 50.98333}}, {"id": 2865729, "name": "Neuengamme", "state": "", "country": "DE", "coord": {"lon": 10.23333, "lat": 53.433331}}, {"id": 2865733, "name": "Neuenfeldsdeich", "state": "", "country": "DE", "coord": {"lon": 9.56667, "lat": 53.700001}}, {"id": 2865758, "name": "Neuendorf am Damm", "state": "", "country": "DE", "coord": {"lon": 11.45, "lat": 52.650002}}, {"id": 2865777, "name": "Neuendorf A", "state": "", "country": "DE", "coord": {"lon": 13.83333, "lat": 53.73333}}, {"id": 2865780, "name": "Neuendorf", "state": "", "country": "DE", "coord": {"lon": 13.2, "lat": 53.549999}}, {"id": 2865791, "name": "Neuendorf", "state": "", "country": "DE", "coord": {"lon": 14.4241, "lat": 51.812489}}, {"id": 2865794, "name": "Neuendorf", "state": "", "country": "DE", "coord": {"lon": 6.46667, "lat": 50.283329}}, {"id": 2865795, "name": "Neuendorf", "state": "", "country": "DE", "coord": {"lon": 9.65, "lat": 50.033329}}, {"id": 2865798, "name": "Neuendettelsau", "state": "", "country": "DE", "coord": {"lon": 10.78333, "lat": 49.283329}}, {"id": 2865799, "name": "Neuendeich", "state": "", "country": "DE", "coord": {"lon": 9.61667, "lat": 53.683331}}, {"id": 2865812, "name": "Neuenb\u00fcrg", "state": "", "country": "DE", "coord": {"lon": 8.58333, "lat": 48.833328}}, {"id": 2865813, "name": "Neuenburg am Rhein", "state": "", "country": "DE", "coord": {"lon": 7.56005, "lat": 47.814308}}, {"id": 2865820, "name": "Neuenbrook", "state": "", "country": "DE", "coord": {"lon": 9.55, "lat": 53.866669}}, {"id": 2865824, "name": "Neuenbeuthen", "state": "", "country": "DE", "coord": {"lon": 11.58946, "lat": 50.57653}}, {"id": 2865825, "name": "Neuenberg", "state": "", "country": "DE", "coord": {"lon": 9.66145, "lat": 50.546268}}, {"id": 2865833, "name": "Neuenbeken", "state": "", "country": "DE", "coord": {"lon": 8.84829, "lat": 51.747231}}, {"id": 2865844, "name": "Neue M\u00fchle", "state": "", "country": "DE", "coord": {"lon": 14.01667, "lat": 52.200001}}, {"id": 2865854, "name": "Neue Kolonie Westhausen", "state": "", "country": "DE", "coord": {"lon": 7.36667, "lat": 51.549999}}, {"id": 2865861, "name": "Neueiche", "state": "", "country": "DE", "coord": {"lon": 13.58333, "lat": 52.549999}}, {"id": 2865863, "name": "Neueibau", "state": "", "country": "DE", "coord": {"lon": 14.65, "lat": 50.966671}}, {"id": 2865904, "name": "Neu Duvenstedt", "state": "", "country": "DE", "coord": {"lon": 9.66667, "lat": 54.366669}}, {"id": 2865906, "name": "Neudrossenfeld", "state": "", "country": "DE", "coord": {"lon": 11.5, "lat": 50.01667}}, {"id": 2865913, "name": "Neu D\u00f6tzingen", "state": "", "country": "DE", "coord": {"lon": 11.05, "lat": 53.150002}}, {"id": 2865917, "name": "Neudorf-Platendorf", "state": "", "country": "DE", "coord": {"lon": 10.60266, "lat": 52.535648}}, {"id": 2865933, "name": "Neud\u00f6rfel", "state": "", "country": "DE", "coord": {"lon": 12.08333, "lat": 50.75}}, {"id": 2865936, "name": "Neud\u00f6rfel", "state": "", "country": "DE", "coord": {"lon": 12.2, "lat": 50.566669}}, {"id": 2865945, "name": "Neudorf-Bornstein", "state": "", "country": "DE", "coord": {"lon": 9.95, "lat": 54.433331}}, {"id": 2865953, "name": "Neudorf", "state": "", "country": "DE", "coord": {"lon": 8.68333, "lat": 54.883331}}, {"id": 2865968, "name": "Neudorf", "state": "", "country": "DE", "coord": {"lon": 14.33333, "lat": 51.26667}}, {"id": 2866009, "name": "Neudietendorf", "state": "", "country": "DE", "coord": {"lon": 10.91667, "lat": 50.916672}}, {"id": 2866019, "name": "Neudersum", "state": "", "country": "DE", "coord": {"lon": 7.23333, "lat": 52.966671}}, {"id": 2866020, "name": "Neuderben", "state": "", "country": "DE", "coord": {"lon": 11.98333, "lat": 52.400002}}, {"id": 2866022, "name": "Neudenau", "state": "", "country": "DE", "coord": {"lon": 9.27028, "lat": 49.29361}}, {"id": 2866029, "name": "Neudeck", "state": "", "country": "DE", "coord": {"lon": 11.76667, "lat": 50.633331}}, {"id": 2866034, "name": "Neudeck", "state": "", "country": "DE", "coord": {"lon": 12.23333, "lat": 48.066669}}, {"id": 2866046, "name": "Neu Darchau", "state": "", "country": "DE", "coord": {"lon": 10.88529, "lat": 53.229012}}, {"id": 2866056, "name": "Neuclausnitz", "state": "", "country": "DE", "coord": {"lon": 13.53333, "lat": 50.73333}}, {"id": 2866058, "name": "Neucallenberg", "state": "", "country": "DE", "coord": {"lon": 14.43333, "lat": 51.083328}}, {"id": 2866060, "name": "Neuburxdorf", "state": "", "country": "DE", "coord": {"lon": 13.3, "lat": 51.466671}}, {"id": 2866064, "name": "Landkreis Neuburg-Schrobenhausen", "state": "", "country": "DE", "coord": {"lon": 11.20056, "lat": 48.666389}}, {"id": 2866070, "name": "Neuburg an der Donau", "state": "", "country": "DE", "coord": {"lon": 11.18333, "lat": 48.73333}}, {"id": 2866072, "name": "Neuburg", "state": "", "country": "DE", "coord": {"lon": 11.91742, "lat": 53.406769}}, {"id": 2866074, "name": "Neuburg", "state": "", "country": "DE", "coord": {"lon": 8.25, "lat": 48.98333}}, {"id": 2866076, "name": "Neuburg", "state": "", "country": "DE", "coord": {"lon": 9.58808, "lat": 48.24548}}, {"id": 2866077, "name": "Neuburg", "state": "", "country": "DE", "coord": {"lon": 10.35, "lat": 47.76667}}, {"id": 2866086, "name": "Neubulach", "state": "", "country": "DE", "coord": {"lon": 8.69611, "lat": 48.660919}}, {"id": 2866087, "name": "Neubukow", "state": "", "country": "DE", "coord": {"lon": 11.66667, "lat": 54.033329}}, {"id": 2866093, "name": "Neubuchholz", "state": "", "country": "DE", "coord": {"lon": 12.26667, "lat": 52.400002}}, {"id": 2866100, "name": "Neubrunn", "state": "", "country": "DE", "coord": {"lon": 10.46667, "lat": 50.5}}, {"id": 2866102, "name": "Neubrunn", "state": "", "country": "DE", "coord": {"lon": 9.67111, "lat": 49.729721}}, {"id": 2866104, "name": "Neubr\u00fccke", "state": "", "country": "DE", "coord": {"lon": 7.16667, "lat": 49.599998}}, {"id": 2866116, "name": "Neubruchhausen", "state": "", "country": "DE", "coord": {"lon": 8.83333, "lat": 52.833328}}, {"id": 2866124, "name": "Neu Broderstorf", "state": "", "country": "DE", "coord": {"lon": 12.26667, "lat": 54.083328}}, {"id": 2866135, "name": "Neubrandenburg", "state": "", "country": "DE", "coord": {"lon": 13.26667, "lat": 53.566669}}, {"id": 2866136, "name": "Neubrand", "state": "", "country": "DE", "coord": {"lon": 11.88333, "lat": 49.966671}}, {"id": 2866143, "name": "Neub\u00f6rnsen", "state": "", "country": "DE", "coord": {"lon": 10.28333, "lat": 53.48333}}, {"id": 2866150, "name": "Neub\u00f6rger", "state": "", "country": "DE", "coord": {"lon": 7.44839, "lat": 52.958149}}, {"id": 2866152, "name": "Neu Boltenhagen", "state": "", "country": "DE", "coord": {"lon": 13.61667, "lat": 54.066669}}, {"id": 2866174, "name": "Neubiberg", "state": "", "country": "DE", "coord": {"lon": 11.65812, "lat": 48.077099}}, {"id": 2866175, "name": "Neubeuern", "state": "", "country": "DE", "coord": {"lon": 12.13994, "lat": 47.774029}}, {"id": 2866178, "name": "Neuberzdorf", "state": "", "country": "DE", "coord": {"lon": 14.9, "lat": 51.066669}}, {"id": 2866187, "name": "Neuberg", "state": "", "country": "DE", "coord": {"lon": 12.4, "lat": 50.48333}}, {"id": 2866208, "name": "Neuberend", "state": "", "country": "DE", "coord": {"lon": 9.53333, "lat": 54.549999}}, {"id": 2866212, "name": "Neubeckum", "state": "", "country": "DE", "coord": {"lon": 8.05, "lat": 51.799999}}, {"id": 2866238, "name": "Neubau", "state": "", "country": "DE", "coord": {"lon": 11.85, "lat": 50.01667}}, {"id": 2866239, "name": "Neubau", "state": "", "country": "DE", "coord": {"lon": 7.76667, "lat": 49.666672}}, {"id": 2866242, "name": "Neubau", "state": "", "country": "DE", "coord": {"lon": 11.71667, "lat": 48.133331}}, {"id": 2866253, "name": "Neu Bartelshagen", "state": "", "country": "DE", "coord": {"lon": 12.86199, "lat": 54.343651}}, {"id": 2866259, "name": "Neub\u00e4rental", "state": "", "country": "DE", "coord": {"lon": 8.8, "lat": 48.883331}}, {"id": 2866264, "name": "Neu-Bamberg", "state": "", "country": "DE", "coord": {"lon": 7.91667, "lat": 49.799999}}, {"id": 2866280, "name": "Neu-Anspach", "state": "", "country": "DE", "coord": {"lon": 8.5, "lat": 50.316669}}, {"id": 2866281, "name": "Andreasberg", "state": "", "country": "DE", "coord": {"lon": 8.43012, "lat": 51.323528}}, {"id": 2866291, "name": "Neualbenreuth", "state": "", "country": "DE", "coord": {"lon": 12.44373, "lat": 49.98037}}, {"id": 2866303, "name": "Netzschkau", "state": "", "country": "DE", "coord": {"lon": 11.9, "lat": 51.383331}}, {"id": 2866304, "name": "Netzschkau", "state": "", "country": "DE", "coord": {"lon": 12.25, "lat": 50.616669}}, {"id": 2866307, "name": "Netzow", "state": "", "country": "DE", "coord": {"lon": 12.13852, "lat": 52.921631}}, {"id": 2866318, "name": "Netzeband", "state": "", "country": "DE", "coord": {"lon": 12.63333, "lat": 53.0}}, {"id": 2866321, "name": "Netze", "state": "", "country": "DE", "coord": {"lon": 9.96667, "lat": 51.98333}}, {"id": 2866322, "name": "Netze", "state": "", "country": "DE", "coord": {"lon": 9.0941, "lat": 51.223598}}, {"id": 2866325, "name": "Netzbach", "state": "", "country": "DE", "coord": {"lon": 8.1, "lat": 50.316669}}, {"id": 2866329, "name": "Nettlingen", "state": "", "country": "DE", "coord": {"lon": 10.15712, "lat": 52.160721}}, {"id": 2866332, "name": "Nettgau", "state": "", "country": "DE", "coord": {"lon": 10.9, "lat": 52.633331}}, {"id": 2866333, "name": "Nettetal", "state": "", "country": "DE", "coord": {"lon": 6.28333, "lat": 51.316669}}, {"id": 2866334, "name": "Nettetal", "state": "", "country": "DE", "coord": {"lon": 6.26667, "lat": 51.316669}}, {"id": 2866336, "name": "Nettersheim", "state": "", "country": "DE", "coord": {"lon": 6.63333, "lat": 50.5}}, {"id": 2866345, "name": "Nettelsee", "state": "", "country": "DE", "coord": {"lon": 10.18333, "lat": 54.183331}}, {"id": 2866351, "name": "Nettelkamp", "state": "", "country": "DE", "coord": {"lon": 10.58333, "lat": 52.883331}}, {"id": 2866374, "name": "Netra", "state": "", "country": "DE", "coord": {"lon": 10.1, "lat": 51.099998}}, {"id": 2866375, "name": "Netphen", "state": "", "country": "DE", "coord": {"lon": 8.1, "lat": 50.916672}}, {"id": 2866393, "name": "Ne\u00dfstra\u00dfe", "state": "", "country": "DE", "coord": {"lon": 9.61145, "lat": 53.5406}}, {"id": 2866416, "name": "Nesselwang", "state": "", "country": "DE", "coord": {"lon": 10.5, "lat": 47.616669}}, {"id": 2866422, "name": "Nesselr\u00f6den", "state": "", "country": "DE", "coord": {"lon": 10.1, "lat": 51.01667}}, {"id": 2866423, "name": "Nesselried", "state": "", "country": "DE", "coord": {"lon": 8.00397, "lat": 48.519501}}, {"id": 2866455, "name": "Nesse", "state": "", "country": "DE", "coord": {"lon": 8.61667, "lat": 53.450001}}, {"id": 2866462, "name": "Nesenitz", "state": "", "country": "DE", "coord": {"lon": 11.11667, "lat": 52.633331}}, {"id": 2866466, "name": "Neschwitz", "state": "", "country": "DE", "coord": {"lon": 14.33333, "lat": 51.26667}}, {"id": 2866472, "name": "Nerzweiler", "state": "", "country": "DE", "coord": {"lon": 7.55, "lat": 49.599998}}, {"id": 2866473, "name": "Nersingen", "state": "", "country": "DE", "coord": {"lon": 10.12356, "lat": 48.428291}}, {"id": 2866477, "name": "Neroth", "state": "", "country": "DE", "coord": {"lon": 6.74689, "lat": 50.196018}}, {"id": 2866479, "name": "Nermsdorf", "state": "", "country": "DE", "coord": {"lon": 11.36667, "lat": 51.083328}}, {"id": 2866481, "name": "Nerkewitz", "state": "", "country": "DE", "coord": {"lon": 11.6, "lat": 51.0}}, {"id": 2866482, "name": "Neritz", "state": "", "country": "DE", "coord": {"lon": 10.28333, "lat": 53.783329}}, {"id": 2866486, "name": "Neresheim", "state": "", "country": "DE", "coord": {"lon": 10.33041, "lat": 48.755112}}, {"id": 2866487, "name": "Nerenstetten", "state": "", "country": "DE", "coord": {"lon": 10.0991, "lat": 48.528881}}, {"id": 2866488, "name": "Nerdlen", "state": "", "country": "DE", "coord": {"lon": 6.86667, "lat": 50.23333}}, {"id": 2866492, "name": "Nerchau", "state": "", "country": "DE", "coord": {"lon": 12.78912, "lat": 51.270939}}, {"id": 2866495, "name": "Nepperwitz", "state": "", "country": "DE", "coord": {"lon": 12.68333, "lat": 51.383331}}, {"id": 2866496, "name": "Neppersreuth", "state": "", "country": "DE", "coord": {"lon": 10.97792, "lat": 49.28701}}, {"id": 2866497, "name": "Neppersdorf", "state": "", "country": "DE", "coord": {"lon": 13.4, "lat": 48.700001}}, {"id": 2866499, "name": "Neppermin", "state": "", "country": "DE", "coord": {"lon": 14.03333, "lat": 53.933331}}, {"id": 2866511, "name": "Nentershausen", "state": "", "country": "DE", "coord": {"lon": 9.93333, "lat": 51.01667}}, {"id": 2866512, "name": "Nentershausen", "state": "", "country": "DE", "coord": {"lon": 7.93333, "lat": 50.416672}}, {"id": 2866516, "name": "Nennslingen", "state": "", "country": "DE", "coord": {"lon": 11.13052, "lat": 49.047089}}, {"id": 2866523, "name": "Nennhausen", "state": "", "country": "DE", "coord": {"lon": 12.5, "lat": 52.599998}}, {"id": 2866527, "name": "Nenndorf", "state": "", "country": "DE", "coord": {"lon": 7.43333, "lat": 53.583328}}, {"id": 2866528, "name": "Nenndorf", "state": "", "country": "DE", "coord": {"lon": 9.9, "lat": 53.383331}}, {"id": 2866537, "name": "Nendorf", "state": "", "country": "DE", "coord": {"lon": 8.98333, "lat": 52.5}}, {"id": 2866542, "name": "Nemsdorf", "state": "", "country": "DE", "coord": {"lon": 11.66667, "lat": 51.366669}}, {"id": 2866547, "name": "Nemmersdorf", "state": "", "country": "DE", "coord": {"lon": 11.68333, "lat": 50.0}}, {"id": 2866561, "name": "Nellingen", "state": "", "country": "DE", "coord": {"lon": 9.79053, "lat": 48.541962}}, {"id": 2866576, "name": "Neitersen", "state": "", "country": "DE", "coord": {"lon": 7.56667, "lat": 50.683331}}, {"id": 2866583, "name": "Neinstedt", "state": "", "country": "DE", "coord": {"lon": 11.08333, "lat": 51.75}}, {"id": 2866585, "name": "Neindorf", "state": "", "country": "DE", "coord": {"lon": 10.58078, "lat": 52.127171}}, {"id": 2866593, "name": "Neidlingen", "state": "", "country": "DE", "coord": {"lon": 9.56454, "lat": 48.578651}}, {"id": 2866600, "name": "Neidhartshausen", "state": "", "country": "DE", "coord": {"lon": 10.13333, "lat": 50.683331}}, {"id": 2866606, "name": "Neidenstein", "state": "", "country": "DE", "coord": {"lon": 8.88472, "lat": 49.316669}}, {"id": 2866608, "name": "Neidenfels", "state": "", "country": "DE", "coord": {"lon": 8.04639, "lat": 49.388889}}, {"id": 2866611, "name": "Neidenbach", "state": "", "country": "DE", "coord": {"lon": 6.55, "lat": 50.099998}}, {"id": 2866612, "name": "Neiden", "state": "", "country": "DE", "coord": {"lon": 12.94876, "lat": 51.59787}}, {"id": 2866626, "name": "Neichen", "state": "", "country": "DE", "coord": {"lon": 6.86667, "lat": 50.26667}}, {"id": 2866631, "name": "Nehren", "state": "", "country": "DE", "coord": {"lon": 7.2, "lat": 50.083328}}, {"id": 2866632, "name": "Nehren", "state": "", "country": "DE", "coord": {"lon": 9.0699, "lat": 48.430969}}, {"id": 2866634, "name": "Nehmten", "state": "", "country": "DE", "coord": {"lon": 10.4, "lat": 54.099998}}, {"id": 2866637, "name": "Nehms", "state": "", "country": "DE", "coord": {"lon": 10.36667, "lat": 54.01667}}, {"id": 2866640, "name": "Nehlitz", "state": "", "country": "DE", "coord": {"lon": 11.95, "lat": 51.583328}}, {"id": 2866647, "name": "Neheim-H\u00fcsten", "state": "", "country": "DE", "coord": {"lon": 7.98333, "lat": 51.450001}}, {"id": 2866657, "name": "Negernb\u00f6tel", "state": "", "country": "DE", "coord": {"lon": 10.25, "lat": 53.98333}}, {"id": 2866663, "name": "Negenharrie", "state": "", "country": "DE", "coord": {"lon": 10.06667, "lat": 54.150002}}, {"id": 2866665, "name": "Negenborn", "state": "", "country": "DE", "coord": {"lon": 9.56667, "lat": 51.883331}}, {"id": 2866666, "name": "Negenborn", "state": "", "country": "DE", "coord": {"lon": 9.91667, "lat": 51.833328}}, {"id": 2866673, "name": "Negast", "state": "", "country": "DE", "coord": {"lon": 13.03047, "lat": 54.255951}}, {"id": 2866677, "name": "Neetzow", "state": "", "country": "DE", "coord": {"lon": 13.41667, "lat": 53.883331}}, {"id": 2866678, "name": "Neetzka", "state": "", "country": "DE", "coord": {"lon": 13.51667, "lat": 53.533329}}, {"id": 2866679, "name": "Neetzendorf", "state": "", "country": "DE", "coord": {"lon": 10.7646, "lat": 53.161411}}, {"id": 2866682, "name": "Neetze", "state": "", "country": "DE", "coord": {"lon": 10.62134, "lat": 53.265209}}, {"id": 2866688, "name": "Neese", "state": "", "country": "DE", "coord": {"lon": 11.61667, "lat": 53.26667}}, {"id": 2866690, "name": "Neerstedt", "state": "", "country": "DE", "coord": {"lon": 8.41667, "lat": 52.98333}}, {"id": 2866698, "name": "Neermoor", "state": "", "country": "DE", "coord": {"lon": 7.43333, "lat": 53.299999}}, {"id": 2866705, "name": "Neenstetten", "state": "", "country": "DE", "coord": {"lon": 10.01966, "lat": 48.546791}}, {"id": 2866714, "name": "Neef", "state": "", "country": "DE", "coord": {"lon": 7.13333, "lat": 50.099998}}, {"id": 2866717, "name": "Nedlitz", "state": "", "country": "DE", "coord": {"lon": 13.03528, "lat": 52.437752}}, {"id": 2866725, "name": "Neddesitz", "state": "", "country": "DE", "coord": {"lon": 13.57069, "lat": 54.548969}}, {"id": 2866734, "name": "Nedderby", "state": "", "country": "DE", "coord": {"lon": 9.58333, "lat": 54.783329}}, {"id": 2866737, "name": "Neddenaverbergen", "state": "", "country": "DE", "coord": {"lon": 9.36667, "lat": 52.883331}}, {"id": 2866739, "name": "Neddemin", "state": "", "country": "DE", "coord": {"lon": 13.28333, "lat": 53.650002}}, {"id": 2866740, "name": "Nedasch\u00fctz", "state": "", "country": "DE", "coord": {"lon": 14.28333, "lat": 51.183331}}, {"id": 2866751, "name": "Neckarzimmern", "state": "", "country": "DE", "coord": {"lon": 9.13278, "lat": 49.319172}}, {"id": 2866753, "name": "Neckarwestheim", "state": "", "country": "DE", "coord": {"lon": 9.19, "lat": 49.04694}}, {"id": 2866755, "name": "Neckartenzlingen", "state": "", "country": "DE", "coord": {"lon": 9.23478, "lat": 48.589809}}, {"id": 2866757, "name": "Neckartailfingen", "state": "", "country": "DE", "coord": {"lon": 9.26371, "lat": 48.611721}}, {"id": 2866758, "name": "Neckarsulm", "state": "", "country": "DE", "coord": {"lon": 9.22611, "lat": 49.19278}}, {"id": 2866759, "name": "Neckarsteinach", "state": "", "country": "DE", "coord": {"lon": 8.83861, "lat": 49.408611}}, {"id": 2866761, "name": "Neckarrems", "state": "", "country": "DE", "coord": {"lon": 9.27868, "lat": 48.869541}}, {"id": 2866764, "name": "Neckarkatzenbach", "state": "", "country": "DE", "coord": {"lon": 9.03583, "lat": 49.38472}}, {"id": 2866773, "name": "Neckargerach", "state": "", "country": "DE", "coord": {"lon": 9.06667, "lat": 49.400002}}, {"id": 2866774, "name": "Neckargem\u00fcnd", "state": "", "country": "DE", "coord": {"lon": 8.79417, "lat": 49.39222}}, {"id": 2866779, "name": "Neckarbischofsheim", "state": "", "country": "DE", "coord": {"lon": 8.96333, "lat": 49.29528}}, {"id": 2866793, "name": "Nebra", "state": "", "country": "DE", "coord": {"lon": 11.56667, "lat": 51.283329}}, {"id": 2866810, "name": "Nebelsch\u00fctz", "state": "", "country": "DE", "coord": {"lon": 14.16667, "lat": 51.26667}}, {"id": 2866826, "name": "Nebel", "state": "", "country": "DE", "coord": {"lon": 8.35373, "lat": 54.650848}}, {"id": 2866832, "name": "Nazza", "state": "", "country": "DE", "coord": {"lon": 10.33333, "lat": 51.099998}}, {"id": 2866834, "name": "Nauwalde", "state": "", "country": "DE", "coord": {"lon": 13.41667, "lat": 51.416672}}, {"id": 2866842, "name": "Nausnitz", "state": "", "country": "DE", "coord": {"lon": 11.73333, "lat": 50.950001}}, {"id": 2866843, "name": "Nausitz", "state": "", "country": "DE", "coord": {"lon": 11.33333, "lat": 51.316669}}, {"id": 2866846, "name": "Nausis", "state": "", "country": "DE", "coord": {"lon": 9.36667, "lat": 50.833328}}, {"id": 2866851, "name": "Nauroth", "state": "", "country": "DE", "coord": {"lon": 7.86667, "lat": 50.700001}}, {"id": 2866856, "name": "Naurath", "state": "", "country": "DE", "coord": {"lon": 6.88333, "lat": 49.76667}}, {"id": 2866858, "name": "Nauort", "state": "", "country": "DE", "coord": {"lon": 7.63333, "lat": 50.466671}}, {"id": 2866861, "name": "Naunhof", "state": "", "country": "DE", "coord": {"lon": 12.58827, "lat": 51.277699}}, {"id": 2866865, "name": "Naunheim", "state": "", "country": "DE", "coord": {"lon": 7.31667, "lat": 50.25}}, {"id": 2866880, "name": "Naundorf", "state": "", "country": "DE", "coord": {"lon": 13.9, "lat": 51.466671}}, {"id": 2866885, "name": "Naundorf", "state": "", "country": "DE", "coord": {"lon": 13.11667, "lat": 51.25}}, {"id": 2866886, "name": "Naundorf", "state": "", "country": "DE", "coord": {"lon": 13.39113, "lat": 51.231831}}, {"id": 2866902, "name": "Naumburgerhof", "state": "", "country": "DE", "coord": {"lon": 7.65, "lat": 49.650002}}, {"id": 2866905, "name": "Naumburg", "state": "", "country": "DE", "coord": {"lon": 9.16569, "lat": 51.248161}}, {"id": 2866906, "name": "Naumburg", "state": "", "country": "DE", "coord": {"lon": 11.81667, "lat": 51.150002}}, {"id": 2866917, "name": "Nauheim", "state": "", "country": "DE", "coord": {"lon": 8.46333, "lat": 49.950829}}, {"id": 2866925, "name": "Nauendorf", "state": "", "country": "DE", "coord": {"lon": 11.88333, "lat": 51.599998}}, {"id": 2866928, "name": "Nauendorf", "state": "", "country": "DE", "coord": {"lon": 11.18108, "lat": 50.894531}}, {"id": 2866930, "name": "Nauen", "state": "", "country": "DE", "coord": {"lon": 12.87374, "lat": 52.60701}}, {"id": 2866934, "name": "Nauborn", "state": "", "country": "DE", "coord": {"lon": 8.48333, "lat": 50.533329}}, {"id": 2866938, "name": "Natzungen", "state": "", "country": "DE", "coord": {"lon": 9.23333, "lat": 51.616669}}, {"id": 2866942, "name": "Nattheim", "state": "", "country": "DE", "coord": {"lon": 10.24209, "lat": 48.699631}}, {"id": 2866955, "name": "Nattenheim", "state": "", "country": "DE", "coord": {"lon": 6.51667, "lat": 50.01667}}, {"id": 2866956, "name": "Nattenhausen", "state": "", "country": "DE", "coord": {"lon": 10.31667, "lat": 48.23333}}, {"id": 2866966, "name": "Natrup", "state": "", "country": "DE", "coord": {"lon": 7.43333, "lat": 51.950001}}, {"id": 2866969, "name": "Natorper Chaussee", "state": "", "country": "DE", "coord": {"lon": 7.61667, "lat": 51.51667}}, {"id": 2866971, "name": "Natorp", "state": "", "country": "DE", "coord": {"lon": 7.63333, "lat": 51.5}}, {"id": 2866981, "name": "Natendorf", "state": "", "country": "DE", "coord": {"lon": 10.47031, "lat": 53.0798}}, {"id": 2866985, "name": "Natbergen", "state": "", "country": "DE", "coord": {"lon": 8.11667, "lat": 52.26667}}, {"id": 2866990, "name": "Nast\u00e4tten", "state": "", "country": "DE", "coord": {"lon": 7.85892, "lat": 50.19883}}, {"id": 2867007, "name": "Nassenheide", "state": "", "country": "DE", "coord": {"lon": 13.21667, "lat": 52.816669}}, {"id": 2867009, "name": "Nassenhausen", "state": "", "country": "DE", "coord": {"lon": 11.11667, "lat": 48.200001}}, {"id": 2867011, "name": "Nassenfels", "state": "", "country": "DE", "coord": {"lon": 11.26667, "lat": 48.799999}}, {"id": 2867013, "name": "Nassenbeuren", "state": "", "country": "DE", "coord": {"lon": 10.5, "lat": 48.083328}}, {"id": 2867037, "name": "Nassau", "state": "", "country": "DE", "coord": {"lon": 7.8, "lat": 50.316669}}, {"id": 2867050, "name": "Nasingen", "state": "", "country": "DE", "coord": {"lon": 6.25, "lat": 49.966671}}, {"id": 2867055, "name": "Nasenberg", "state": "", "country": "DE", "coord": {"lon": 13.16667, "lat": 51.26667}}, {"id": 2867060, "name": "Naschendorf", "state": "", "country": "DE", "coord": {"lon": 11.26667, "lat": 53.849998}}, {"id": 2867063, "name": "Nartum", "state": "", "country": "DE", "coord": {"lon": 9.25, "lat": 53.200001}}, {"id": 2867066, "name": "Narsdorf", "state": "", "country": "DE", "coord": {"lon": 12.71667, "lat": 51.01667}}, {"id": 2867080, "name": "Nardt", "state": "", "country": "DE", "coord": {"lon": 14.2, "lat": 51.450001}}, {"id": 2867094, "name": "Nanzweiler", "state": "", "country": "DE", "coord": {"lon": 7.43333, "lat": 49.450001}}, {"id": 2867098, "name": "Nanzdietschweiler", "state": "", "country": "DE", "coord": {"lon": 7.45, "lat": 49.450001}}, {"id": 2867099, "name": "Nantwein", "state": "", "country": "DE", "coord": {"lon": 11.43497, "lat": 47.91433}}, {"id": 2867104, "name": "Nannhausen", "state": "", "country": "DE", "coord": {"lon": 7.48333, "lat": 49.966671}}, {"id": 2867111, "name": "Nankendorf", "state": "", "country": "DE", "coord": {"lon": 10.83166, "lat": 49.609928}}, {"id": 2867112, "name": "Nandlstadt", "state": "", "country": "DE", "coord": {"lon": 11.8, "lat": 48.533329}}, {"id": 2867119, "name": "Namedy", "state": "", "country": "DE", "coord": {"lon": 7.36667, "lat": 50.466671}}, {"id": 2867120, "name": "Namborn", "state": "", "country": "DE", "coord": {"lon": 7.13333, "lat": 49.51667}}, {"id": 2867127, "name": "Nalbach", "state": "", "country": "DE", "coord": {"lon": 6.78333, "lat": 49.383331}}, {"id": 2867134, "name": "Nairitz", "state": "", "country": "DE", "coord": {"lon": 11.75, "lat": 49.849998}}, {"id": 2867138, "name": "Naila", "state": "", "country": "DE", "coord": {"lon": 11.7, "lat": 50.316669}}, {"id": 2867146, "name": "Nahrendorf", "state": "", "country": "DE", "coord": {"lon": 10.81381, "lat": 53.173889}}, {"id": 2867149, "name": "Nahmitz", "state": "", "country": "DE", "coord": {"lon": 12.72509, "lat": 52.3367}}, {"id": 2867160, "name": "Nahe", "state": "", "country": "DE", "coord": {"lon": 10.13333, "lat": 53.799999}}, {"id": 2867164, "name": "Nagold", "state": "", "country": "DE", "coord": {"lon": 8.72366, "lat": 48.549801}}, {"id": 2867171, "name": "N\u00e4gelstedt", "state": "", "country": "DE", "coord": {"lon": 10.71667, "lat": 51.116669}}, {"id": 2867197, "name": "Nagel", "state": "", "country": "DE", "coord": {"lon": 11.25, "lat": 50.183331}}, {"id": 2867198, "name": "Nagel", "state": "", "country": "DE", "coord": {"lon": 11.91667, "lat": 49.98333}}, {"id": 2867204, "name": "Naendorf", "state": "", "country": "DE", "coord": {"lon": 7.2, "lat": 52.150002}}, {"id": 2867206, "name": "Nadrensee", "state": "", "country": "DE", "coord": {"lon": 14.35, "lat": 53.333328}}, {"id": 2867229, "name": "Nackenheim", "state": "", "country": "DE", "coord": {"lon": 8.33889, "lat": 49.915279}}, {"id": 2867237, "name": "Nack", "state": "", "country": "DE", "coord": {"lon": 8.00278, "lat": 49.746391}}, {"id": 2867240, "name": "Nachtsheim", "state": "", "country": "DE", "coord": {"lon": 7.06667, "lat": 50.316669}}, {"id": 2867245, "name": "Nachterstedt", "state": "", "country": "DE", "coord": {"lon": 11.33489, "lat": 51.800812}}, {"id": 2867252, "name": "Nachrodt-Wiblingwerde", "state": "", "country": "DE", "coord": {"lon": 7.61667, "lat": 51.316669}}, {"id": 2867262, "name": "Nabburg", "state": "", "country": "DE", "coord": {"lon": 12.17861, "lat": 49.453609}}, {"id": 2867274, "name": "Mylau", "state": "", "country": "DE", "coord": {"lon": 12.26667, "lat": 50.616669}}, {"id": 2867279, "name": "Muxerath", "state": "", "country": "DE", "coord": {"lon": 6.26667, "lat": 49.98333}}, {"id": 2867280, "name": "Muxall", "state": "", "country": "DE", "coord": {"lon": 10.26667, "lat": 54.349998}}, {"id": 2867286, "name": "Mutzschen", "state": "", "country": "DE", "coord": {"lon": 12.89125, "lat": 51.261589}}, {"id": 2867288, "name": "M\u00fctzlitz", "state": "", "country": "DE", "coord": {"lon": 12.51667, "lat": 52.549999}}, {"id": 2867296, "name": "M\u00fctzenich", "state": "", "country": "DE", "coord": {"lon": 6.21667, "lat": 50.566669}}, {"id": 2867297, "name": "M\u00fctzenich", "state": "", "country": "DE", "coord": {"lon": 6.26667, "lat": 50.25}}, {"id": 2867304, "name": "M\u00fctzel", "state": "", "country": "DE", "coord": {"lon": 12.18333, "lat": 52.383331}}, {"id": 2867310, "name": "Mutterstadt", "state": "", "country": "DE", "coord": {"lon": 8.35611, "lat": 49.441391}}, {"id": 2867315, "name": "Mutterschied", "state": "", "country": "DE", "coord": {"lon": 7.56667, "lat": 49.98333}}, {"id": 2867330, "name": "Mutschlena", "state": "", "country": "DE", "coord": {"lon": 12.5, "lat": 51.433331}}, {"id": 2867335, "name": "Mutlangen", "state": "", "country": "DE", "coord": {"lon": 9.79714, "lat": 48.825878}}, {"id": 2867341, "name": "Musweiler", "state": "", "country": "DE", "coord": {"lon": 6.8, "lat": 50.01667}}, {"id": 2867345, "name": "Mustin", "state": "", "country": "DE", "coord": {"lon": 11.96667, "lat": 53.700001}}, {"id": 2867346, "name": "Mustin", "state": "", "country": "DE", "coord": {"lon": 10.88333, "lat": 53.683331}}, {"id": 2867347, "name": "M\u00fcstert", "state": "", "country": "DE", "coord": {"lon": 6.93333, "lat": 49.866669}}, {"id": 2867351, "name": "M\u00fcssingen", "state": "", "country": "DE", "coord": {"lon": 7.88333, "lat": 51.950001}}, {"id": 2867361, "name": "M\u00fcssen", "state": "", "country": "DE", "coord": {"lon": 10.56404, "lat": 53.492439}}, {"id": 2867367, "name": "M\u00fcsselmow", "state": "", "country": "DE", "coord": {"lon": 11.61667, "lat": 53.683331}}, {"id": 2867375, "name": "Mu\u00df", "state": "", "country": "DE", "coord": {"lon": 7.38333, "lat": 50.666672}}, {"id": 2867396, "name": "Muschwitz", "state": "", "country": "DE", "coord": {"lon": 12.11667, "lat": 51.200001}}, {"id": 2867402, "name": "M\u00fcschenbach", "state": "", "country": "DE", "coord": {"lon": 7.78333, "lat": 50.683331}}, {"id": 2867407, "name": "Muscheid", "state": "", "country": "DE", "coord": {"lon": 7.56667, "lat": 50.583328}}, {"id": 2867412, "name": "M\u00fcsch", "state": "", "country": "DE", "coord": {"lon": 6.83333, "lat": 50.383331}}, {"id": 2867413, "name": "M\u00fcsch", "state": "", "country": "DE", "coord": {"lon": 7.18333, "lat": 50.283329}}, {"id": 2867423, "name": "Murschnitz", "state": "", "country": "DE", "coord": {"lon": 12.86667, "lat": 50.900002}}, {"id": 2867431, "name": "Murrhardt", "state": "", "country": "DE", "coord": {"lon": 9.57047, "lat": 48.981911}}, {"id": 2867436, "name": "Murr", "state": "", "country": "DE", "coord": {"lon": 9.25924, "lat": 48.96207}}, {"id": 2867445, "name": "Murnau am Staffelsee", "state": "", "country": "DE", "coord": {"lon": 11.20125, "lat": 47.680851}}, {"id": 2867452, "name": "M\u00fcrlenbach", "state": "", "country": "DE", "coord": {"lon": 6.6, "lat": 50.150002}}, {"id": 2867462, "name": "Murghammer", "state": "", "country": "DE", "coord": {"lon": 8.03333, "lat": 47.566669}}, {"id": 2867467, "name": "Murg", "state": "", "country": "DE", "coord": {"lon": 8.02182, "lat": 47.55492}}, {"id": 2867471, "name": "Murchin", "state": "", "country": "DE", "coord": {"lon": 13.73333, "lat": 53.900002}}, {"id": 2867484, "name": "Munzingen", "state": "", "country": "DE", "coord": {"lon": 7.7, "lat": 47.966671}}, {"id": 2867487, "name": "Munzig", "state": "", "country": "DE", "coord": {"lon": 13.41667, "lat": 51.083328}}, {"id": 2867492, "name": "M\u00fcnzenberg", "state": "", "country": "DE", "coord": {"lon": 8.7743, "lat": 50.453461}}, {"id": 2867505, "name": "Munte", "state": "", "country": "DE", "coord": {"lon": 8.85, "lat": 53.099998}}, {"id": 2867510, "name": "M\u00fcnsterschwarzach", "state": "", "country": "DE", "coord": {"lon": 10.25, "lat": 49.799999}}, {"id": 2867511, "name": "M\u00fcnster-Sarmsheim", "state": "", "country": "DE", "coord": {"lon": 7.9, "lat": 49.950001}}, {"id": 2867514, "name": "M\u00fcnstermaifeld", "state": "", "country": "DE", "coord": {"lon": 7.36667, "lat": 50.25}}, {"id": 2867520, "name": "M\u00fcnsterhausen", "state": "", "country": "DE", "coord": {"lon": 10.45, "lat": 48.316669}}, {"id": 2867527, "name": "M\u00fcnsterdorf", "state": "", "country": "DE", "coord": {"lon": 9.54123, "lat": 53.902321}}, {"id": 2867536, "name": "M\u00fcnsterappel", "state": "", "country": "DE", "coord": {"lon": 7.88333, "lat": 49.73333}}, {"id": 2867539, "name": "Regierungsbezirk M\u00fcnster", "state": "", "country": "DE", "coord": {"lon": 7.41667, "lat": 51.833328}}, {"id": 2867542, "name": "Munster", "state": "", "country": "DE", "coord": {"lon": 10.08333, "lat": 52.98333}}, {"id": 2867543, "name": "M\u00fcnster", "state": "", "country": "DE", "coord": {"lon": 7.62571, "lat": 51.96236}}, {"id": 2867548, "name": "M\u00fcnster", "state": "", "country": "DE", "coord": {"lon": 8.86778, "lat": 49.922779}}, {"id": 2867553, "name": "M\u00fcnster", "state": "", "country": "DE", "coord": {"lon": 10.9, "lat": 48.633331}}, {"id": 2867555, "name": "M\u00fcnster", "state": "", "country": "DE", "coord": {"lon": 10.63333, "lat": 48.23333}}, {"id": 2867560, "name": "M\u00fcnsingen", "state": "", "country": "DE", "coord": {"lon": 9.49704, "lat": 48.411259}}, {"id": 2867561, "name": "M\u00fcnsing", "state": "", "country": "DE", "coord": {"lon": 11.36667, "lat": 47.900002}}, {"id": 2867566, "name": "M\u00fcnsa", "state": "", "country": "DE", "coord": {"lon": 12.48333, "lat": 50.98333}}, {"id": 2867568, "name": "Munningen", "state": "", "country": "DE", "coord": {"lon": 10.6, "lat": 48.916672}}, {"id": 2867571, "name": "M\u00fcnnerstadt", "state": "", "country": "DE", "coord": {"lon": 10.18333, "lat": 50.25}}, {"id": 2867574, "name": "Munkmarsch", "state": "", "country": "DE", "coord": {"lon": 8.35896, "lat": 54.917969}}, {"id": 2867582, "name": "Munkbrarup", "state": "", "country": "DE", "coord": {"lon": 9.56667, "lat": 54.799999}}, {"id": 2867583, "name": "M\u00fcnk", "state": "", "country": "DE", "coord": {"lon": 7.03333, "lat": 50.299999}}, {"id": 2867606, "name": "M\u00fcndersbach", "state": "", "country": "DE", "coord": {"lon": 7.73333, "lat": 50.599998}}, {"id": 2867608, "name": "Munderkingen", "state": "", "country": "DE", "coord": {"lon": 9.64398, "lat": 48.23568}}, {"id": 2867609, "name": "Mundenhof", "state": "", "country": "DE", "coord": {"lon": 7.78333, "lat": 48.01667}}, {"id": 2867613, "name": "Hannoversch M\u00fcnden", "state": "", "country": "DE", "coord": {"lon": 9.65046, "lat": 51.415051}}, {"id": 2867616, "name": "Mundelsheim", "state": "", "country": "DE", "coord": {"lon": 9.20778, "lat": 49.000832}}, {"id": 2867626, "name": "M\u00fcnchweiler an der Rodalbe", "state": "", "country": "DE", "coord": {"lon": 7.7, "lat": 49.216671}}, {"id": 2867627, "name": "M\u00fcnchweiler an der Alsenz", "state": "", "country": "DE", "coord": {"lon": 7.88333, "lat": 49.549999}}, {"id": 2867628, "name": "M\u00fcnchweiler am Klingbach", "state": "", "country": "DE", "coord": {"lon": 7.96667, "lat": 49.150002}}, {"id": 2867631, "name": "M\u00fcnchwald", "state": "", "country": "DE", "coord": {"lon": 7.68333, "lat": 49.900002}}, {"id": 2867633, "name": "M\u00fcnchsteinach", "state": "", "country": "DE", "coord": {"lon": 10.6, "lat": 49.633331}}, {"id": 2867637, "name": "M\u00fcnchsm\u00fcnster", "state": "", "country": "DE", "coord": {"lon": 11.68333, "lat": 48.76667}}, {"id": 2867647, "name": "M\u00fcnchsdorf", "state": "", "country": "DE", "coord": {"lon": 12.15, "lat": 48.450001}}, {"id": 2867673, "name": "M\u00fcnchhausen", "state": "", "country": "DE", "coord": {"lon": 8.71667, "lat": 50.950001}}, {"id": 2867685, "name": "M\u00fcnchenroth", "state": "", "country": "DE", "coord": {"lon": 7.88333, "lat": 50.166672}}, {"id": 2867707, "name": "M\u00fcnchenbernsdorf", "state": "", "country": "DE", "coord": {"lon": 11.93333, "lat": 50.816669}}, {"id": 2867714, "name": "Munich", "state": "", "country": "DE", "coord": {"lon": 11.57549, "lat": 48.137428}}, {"id": 2867717, "name": "M\u00fcnchehofe", "state": "", "country": "DE", "coord": {"lon": 13.85, "lat": 52.150002}}, {"id": 2867718, "name": "M\u00fcnchehof", "state": "", "country": "DE", "coord": {"lon": 10.18333, "lat": 51.849998}},