[{"id": 2875765, "name": "Lotschen", "state": "", "country": "DE", "coord": {"lon": 11.40226, "lat": 50.840092}}, {"id": 2875766, "name": "Lotsche", "state": "", "country": "DE", "coord": {"lon": 11.56667, "lat": 52.583328}}, {"id": 2875774, "name": "Lothe", "state": "", "country": "DE", "coord": {"lon": 9.14912, "lat": 51.879089}}, {"id": 2875785, "name": "Lostau", "state": "", "country": "DE", "coord": {"lon": 11.73795, "lat": 52.20871}}, {"id": 2875792, "name": "L\u00f6\u00dfnitztal", "state": "", "country": "DE", "coord": {"lon": 13.18333, "lat": 50.816669}}, {"id": 2875799, "name": "L\u00f6\u00dfnitz", "state": "", "country": "DE", "coord": {"lon": 12.71667, "lat": 50.616669}}, {"id": 2875801, "name": "L\u00f6\u00dfnig", "state": "", "country": "DE", "coord": {"lon": 12.4, "lat": 51.299999}}, {"id": 2875815, "name": "Lo\u00dfburg", "state": "", "country": "DE", "coord": {"lon": 8.45, "lat": 48.400002}}, {"id": 2875824, "name": "L\u00f6snich", "state": "", "country": "DE", "coord": {"lon": 7.03333, "lat": 49.966671}}, {"id": 2875831, "name": "Losheim", "state": "", "country": "DE", "coord": {"lon": 6.75, "lat": 49.51667}}, {"id": 2875851, "name": "L\u00f6schenrod", "state": "", "country": "DE", "coord": {"lon": 9.6787, "lat": 50.499229}}, {"id": 2875862, "name": "L\u00f6sau", "state": "", "country": "DE", "coord": {"lon": 12.03333, "lat": 51.23333}}, {"id": 2875868, "name": "L\u00f6rzweiler", "state": "", "country": "DE", "coord": {"lon": 8.29472, "lat": 49.898331}}, {"id": 2875869, "name": "L\u00f6rzenbach", "state": "", "country": "DE", "coord": {"lon": 8.76, "lat": 49.640282}}, {"id": 2875870, "name": "Lorup", "state": "", "country": "DE", "coord": {"lon": 7.64339, "lat": 52.92495}}, {"id": 2875874, "name": "Lorscheid", "state": "", "country": "DE", "coord": {"lon": 6.85, "lat": 49.73333}}, {"id": 2875877, "name": "Lorsch", "state": "", "country": "DE", "coord": {"lon": 8.56861, "lat": 49.65472}}, {"id": 2875880, "name": "Lorsbach", "state": "", "country": "DE", "coord": {"lon": 8.41667, "lat": 50.116669}}, {"id": 2875881, "name": "L\u00f6rrach", "state": "", "country": "DE", "coord": {"lon": 7.66457, "lat": 47.614971}}, {"id": 2875902, "name": "Lorenzenberg", "state": "", "country": "DE", "coord": {"lon": 11.97257, "lat": 47.997822}}, {"id": 2875903, "name": "Lorenzen", "state": "", "country": "DE", "coord": {"lon": 12.08333, "lat": 49.066669}}, {"id": 2875907, "name": "Lorchhausen", "state": "", "country": "DE", "coord": {"lon": 7.78333, "lat": 50.049999}}, {"id": 2875909, "name": "Lorch", "state": "", "country": "DE", "coord": {"lon": 9.6914, "lat": 48.798328}}, {"id": 2875912, "name": "Lorbach", "state": "", "country": "DE", "coord": {"lon": 6.63333, "lat": 50.566669}}, {"id": 2875916, "name": "Loquard", "state": "", "country": "DE", "coord": {"lon": 7.05, "lat": 53.383331}}, {"id": 2875918, "name": "L\u00f6ptin", "state": "", "country": "DE", "coord": {"lon": 10.21667, "lat": 54.183331}}, {"id": 2875920, "name": "L\u00f6pten", "state": "", "country": "DE", "coord": {"lon": 13.68333, "lat": 52.150002}}, {"id": 2875922, "name": "L\u00f6psingen", "state": "", "country": "DE", "coord": {"lon": 10.53333, "lat": 48.883331}}, {"id": 2875924, "name": "Lopshop", "state": "", "country": "DE", "coord": {"lon": 9.21667, "lat": 54.299999}}, {"id": 2875935, "name": "Loppersum", "state": "", "country": "DE", "coord": {"lon": 7.23333, "lat": 53.416672}}, {"id": 2875936, "name": "Loppenhausen", "state": "", "country": "DE", "coord": {"lon": 10.39616, "lat": 48.159672}}, {"id": 2875951, "name": "Loose", "state": "", "country": "DE", "coord": {"lon": 9.88333, "lat": 54.51667}}, {"id": 2875961, "name": "Loopstedt", "state": "", "country": "DE", "coord": {"lon": 9.58333, "lat": 54.5}}, {"id": 2875965, "name": "Loop", "state": "", "country": "DE", "coord": {"lon": 9.95, "lat": 54.150002}}, {"id": 2875968, "name": "Looft", "state": "", "country": "DE", "coord": {"lon": 9.5236, "lat": 54.028728}}, {"id": 2875977, "name": "Lonsheim", "state": "", "country": "DE", "coord": {"lon": 8.07667, "lat": 49.77861}}, {"id": 2875978, "name": "Lonsee", "state": "", "country": "DE", "coord": {"lon": 9.91999, "lat": 48.5434}}, {"id": 2875979, "name": "Lonnig", "state": "", "country": "DE", "coord": {"lon": 7.41667, "lat": 50.316669}}, {"id": 2875983, "name": "Lonnerstadt", "state": "", "country": "DE", "coord": {"lon": 10.76667, "lat": 49.700001}}, {"id": 2875987, "name": "L\u00f6ningen", "state": "", "country": "DE", "coord": {"lon": 7.76667, "lat": 52.73333}}, {"id": 2875988, "name": "Longuich", "state": "", "country": "DE", "coord": {"lon": 6.78333, "lat": 49.799999}}, {"id": 2875989, "name": "Longkamp", "state": "", "country": "DE", "coord": {"lon": 7.11667, "lat": 49.883331}}, {"id": 2875992, "name": "Longen", "state": "", "country": "DE", "coord": {"lon": 6.78333, "lat": 49.799999}}, {"id": 2875996, "name": "Lonauer Hammerh\u00fctte", "state": "", "country": "DE", "coord": {"lon": 10.35, "lat": 51.666672}}, {"id": 2876003, "name": "Lomnitz", "state": "", "country": "DE", "coord": {"lon": 13.9, "lat": 51.183331}}, {"id": 2876004, "name": "Lommersum", "state": "", "country": "DE", "coord": {"lon": 6.8, "lat": 50.716671}}, {"id": 2876009, "name": "Lommatzsch", "state": "", "country": "DE", "coord": {"lon": 13.3, "lat": 51.200001}}, {"id": 2876011, "name": "Lomitz", "state": "", "country": "DE", "coord": {"lon": 11.4, "lat": 52.950001}}, {"id": 2876018, "name": "Lollschied", "state": "", "country": "DE", "coord": {"lon": 7.86667, "lat": 50.26667}}, {"id": 2876025, "name": "L\u00f6llbach", "state": "", "country": "DE", "coord": {"lon": 7.58333, "lat": 49.683331}}, {"id": 2876027, "name": "Lollar", "state": "", "country": "DE", "coord": {"lon": 8.70495, "lat": 50.646519}}, {"id": 2876032, "name": "Lokert", "state": "", "country": "DE", "coord": {"lon": 8.71667, "lat": 54.333328}}, {"id": 2876041, "name": "Loitzendorf", "state": "", "country": "DE", "coord": {"lon": 12.65, "lat": 49.083328}}, {"id": 2876044, "name": "Loitz", "state": "", "country": "DE", "coord": {"lon": 13.38333, "lat": 53.450001}}, {"id": 2876064, "name": "Loit", "state": "", "country": "DE", "coord": {"lon": 9.7, "lat": 54.616669}}, {"id": 2876065, "name": "Loissin", "state": "", "country": "DE", "coord": {"lon": 13.53333, "lat": 54.116669}}, {"id": 2876092, "name": "Loiching", "state": "", "country": "DE", "coord": {"lon": 12.43333, "lat": 48.616669}}, {"id": 2876117, "name": "Lohsa", "state": "", "country": "DE", "coord": {"lon": 14.4, "lat": 51.383331}}, {"id": 2876127, "name": "Lohrheim", "state": "", "country": "DE", "coord": {"lon": 8.05, "lat": 50.316669}}, {"id": 2876128, "name": "Lohrhaupten", "state": "", "country": "DE", "coord": {"lon": 9.48333, "lat": 50.133331}}, {"id": 2876144, "name": "Lohra", "state": "", "country": "DE", "coord": {"lon": 8.63333, "lat": 50.73333}}, {"id": 2876147, "name": "Lohr am Main", "state": "", "country": "DE", "coord": {"lon": 9.57833, "lat": 49.99361}}, {"id": 2876154, "name": "Lohof", "state": "", "country": "DE", "coord": {"lon": 8.76667, "lat": 52.283329}}, {"id": 2876158, "name": "Lohnweiler", "state": "", "country": "DE", "coord": {"lon": 7.6, "lat": 49.633331}}, {"id": 2876161, "name": "Lohnsfeld", "state": "", "country": "DE", "coord": {"lon": 7.85, "lat": 49.549999}}, {"id": 2876185, "name": "Lohne", "state": "", "country": "DE", "coord": {"lon": 8.23333, "lat": 52.666672}}, {"id": 2876193, "name": "Lohnde", "state": "", "country": "DE", "coord": {"lon": 9.56667, "lat": 52.400002}}, {"id": 2876194, "name": "L\u00f6hnberg", "state": "", "country": "DE", "coord": {"lon": 8.27202, "lat": 50.512989}}, {"id": 2876211, "name": "Lohmen", "state": "", "country": "DE", "coord": {"lon": 12.0944, "lat": 53.68298}}, {"id": 2876212, "name": "Lohmen", "state": "", "country": "DE", "coord": {"lon": 14.00268, "lat": 50.988312}}, {"id": 2876215, "name": "Lohme", "state": "", "country": "DE", "coord": {"lon": 13.61667, "lat": 54.583328}}, {"id": 2876218, "name": "Lohmar", "state": "", "country": "DE", "coord": {"lon": 7.21667, "lat": 50.833328}}, {"id": 2876228, "name": "L\u00f6hma", "state": "", "country": "DE", "coord": {"lon": 11.85, "lat": 50.616669}}, {"id": 2876241, "name": "L\u00f6hlbach", "state": "", "country": "DE", "coord": {"lon": 8.98333, "lat": 51.066669}}, {"id": 2876249, "name": "Lohkirchen", "state": "", "country": "DE", "coord": {"lon": 12.45, "lat": 48.316669}}, {"id": 2876282, "name": "Lohfelden", "state": "", "country": "DE", "coord": {"lon": 9.53333, "lat": 51.26667}}, {"id": 2876291, "name": "Loher Moos", "state": "", "country": "DE", "coord": {"lon": 11.1, "lat": 49.48333}}, {"id": 2876306, "name": "Lohe-F\u00f6hrden", "state": "", "country": "DE", "coord": {"lon": 9.53333, "lat": 54.333328}}, {"id": 2876326, "name": "Lohe", "state": "", "country": "DE", "coord": {"lon": 10.75, "lat": 49.5}}, {"id": 2876356, "name": "Am L\u00f6hberg", "state": "", "country": "DE", "coord": {"lon": 9.23333, "lat": 53.650002}}, {"id": 2876357, "name": "Lohberg", "state": "", "country": "DE", "coord": {"lon": 13.10549, "lat": 49.176041}}, {"id": 2876388, "name": "Lohbarbek", "state": "", "country": "DE", "coord": {"lon": 9.63548, "lat": 53.94548}}, {"id": 2876401, "name": "Lohausen", "state": "", "country": "DE", "coord": {"lon": 6.73333, "lat": 51.26667}}, {"id": 2876418, "name": "Loh", "state": "", "country": "DE", "coord": {"lon": 7.58333, "lat": 51.166672}}, {"id": 2876444, "name": "Logh\u00f6fe", "state": "", "country": "DE", "coord": {"lon": 9.11667, "lat": 47.883331}}, {"id": 2876451, "name": "Loge", "state": "", "country": "DE", "coord": {"lon": 9.08333, "lat": 51.849998}}, {"id": 2876461, "name": "L\u00f6ffingen", "state": "", "country": "DE", "coord": {"lon": 8.35, "lat": 47.883331}}, {"id": 2876462, "name": "Loffenau", "state": "", "country": "DE", "coord": {"lon": 8.38463, "lat": 48.772141}}, {"id": 2876468, "name": "L\u00f6ffelscheid", "state": "", "country": "DE", "coord": {"lon": 7.31667, "lat": 50.01667}}, {"id": 2876484, "name": "L\u00f6f", "state": "", "country": "DE", "coord": {"lon": 7.43333, "lat": 50.23333}}, {"id": 2876485, "name": "Loeschen", "state": "", "country": "DE", "coord": {"lon": 14.25, "lat": 51.666672}}, {"id": 2876488, "name": "Lodmannshagen", "state": "", "country": "DE", "coord": {"lon": 13.65, "lat": 54.066669}}, {"id": 2876489, "name": "L\u00f6dla", "state": "", "country": "DE", "coord": {"lon": 12.38333, "lat": 51.0}}, {"id": 2876491, "name": "L\u00f6dingsen", "state": "", "country": "DE", "coord": {"lon": 9.78333, "lat": 51.599998}}, {"id": 2876502, "name": "Loderham", "state": "", "country": "DE", "coord": {"lon": 13.03333, "lat": 48.416672}}, {"id": 2876510, "name": "Loddin", "state": "", "country": "DE", "coord": {"lon": 14.01667, "lat": 54.033329}}, {"id": 2876513, "name": "L\u00f6dderitz", "state": "", "country": "DE", "coord": {"lon": 11.95, "lat": 51.883331}}, {"id": 2876523, "name": "Lockwisch", "state": "", "country": "DE", "coord": {"lon": 10.86667, "lat": 53.833328}}, {"id": 2876529, "name": "Lockstedt", "state": "", "country": "DE", "coord": {"lon": 9.68333, "lat": 54.0}}, {"id": 2876538, "name": "L\u00f6cknitz", "state": "", "country": "DE", "coord": {"lon": 14.21116, "lat": 53.453918}}, {"id": 2876539, "name": "L\u00f6cknitz", "state": "", "country": "DE", "coord": {"lon": 11.78333, "lat": 53.283329}}, {"id": 2876543, "name": "Lockhausen", "state": "", "country": "DE", "coord": {"lon": 8.68349, "lat": 52.064209}}, {"id": 2876554, "name": "Lochum", "state": "", "country": "DE", "coord": {"lon": 7.86667, "lat": 50.616669}}, {"id": 2876581, "name": "Lochhofen", "state": "", "country": "DE", "coord": {"lon": 11.64474, "lat": 47.946758}}, {"id": 2876604, "name": "L\u00f6chgau", "state": "", "country": "DE", "coord": {"lon": 9.10639, "lat": 49.003609}}, {"id": 2876628, "name": "Lochb\u00fchl", "state": "", "country": "DE", "coord": {"lon": 11.9, "lat": 49.98333}}, {"id": 2876645, "name": "Lochau", "state": "", "country": "DE", "coord": {"lon": 12.05303, "lat": 51.397381}}, {"id": 2876682, "name": "Loburg", "state": "", "country": "DE", "coord": {"lon": 12.06667, "lat": 52.116669}}, {"id": 2876683, "name": "L\u00f6btau", "state": "", "country": "DE", "coord": {"lon": 13.7, "lat": 51.049999}}, {"id": 2876685, "name": "Lobst\u00e4dt", "state": "", "country": "DE", "coord": {"lon": 12.45, "lat": 51.133331}}, {"id": 2876696, "name": "L\u00f6bnitz an der Linde", "state": "", "country": "DE", "coord": {"lon": 11.88333, "lat": 51.73333}}, {"id": 2876697, "name": "L\u00f6bnitz", "state": "", "country": "DE", "coord": {"lon": 12.71929, "lat": 54.295368}}, {"id": 2876698, "name": "L\u00f6bnitz", "state": "", "country": "DE", "coord": {"lon": 12.46347, "lat": 51.592381}}, {"id": 2876702, "name": "Lobmachtersen", "state": "", "country": "DE", "coord": {"lon": 10.425, "lat": 52.099121}}, {"id": 2876705, "name": "L\u00f6bitz", "state": "", "country": "DE", "coord": {"lon": 11.88333, "lat": 51.083328}}, {"id": 2876708, "name": "L\u00f6bichau", "state": "", "country": "DE", "coord": {"lon": 12.26667, "lat": 50.900002}}, {"id": 2876711, "name": "L\u00f6bersdorf", "state": "", "country": "DE", "coord": {"lon": 12.08333, "lat": 51.633331}}, {"id": 2876712, "name": "L\u00f6bersch\u00fctz", "state": "", "country": "DE", "coord": {"lon": 11.7, "lat": 50.966671}}, {"id": 2876714, "name": "L\u00f6beritz", "state": "", "country": "DE", "coord": {"lon": 12.15, "lat": 51.650002}}, {"id": 2876730, "name": "Lobenfeld", "state": "", "country": "DE", "coord": {"lon": 8.87167, "lat": 49.35722}}, {"id": 2876739, "name": "L\u00f6bej\u00fcn", "state": "", "country": "DE", "coord": {"lon": 11.9, "lat": 51.633331}}, {"id": 2876748, "name": "Lobbendorf", "state": "", "country": "DE", "coord": {"lon": 8.6, "lat": 53.183331}}, {"id": 2876751, "name": "Lobbe", "state": "", "country": "DE", "coord": {"lon": 13.71961, "lat": 54.318829}}, {"id": 2876755, "name": "L\u00f6bau", "state": "", "country": "DE", "coord": {"lon": 14.66667, "lat": 51.099998}}, {"id": 2876765, "name": "Lixfeld", "state": "", "country": "DE", "coord": {"lon": 8.4, "lat": 50.799999}}, {"id": 2876773, "name": "Litzlung", "state": "", "country": "DE", "coord": {"lon": 8.16667, "lat": 48.76667}}, {"id": 2876774, "name": "Litzlohe", "state": "", "country": "DE", "coord": {"lon": 11.51041, "lat": 49.35342}}, {"id": 2876787, "name": "Litzendorf", "state": "", "country": "DE", "coord": {"lon": 11.01028, "lat": 49.91444}}, {"id": 2876817, "name": "Littdorf", "state": "", "country": "DE", "coord": {"lon": 13.11667, "lat": 51.066669}}, {"id": 2876832, "name": "Listerfehrda", "state": "", "country": "DE", "coord": {"lon": 12.85, "lat": 51.816669}}, {"id": 2876836, "name": "List", "state": "", "country": "DE", "coord": {"lon": 9.74504, "lat": 52.39613}}, {"id": 2876837, "name": "List", "state": "", "country": "DE", "coord": {"lon": 8.43132, "lat": 55.019169}}, {"id": 2876841, "name": "Lissenthau", "state": "", "country": "DE", "coord": {"lon": 12.13333, "lat": 49.450001}}, {"id": 2876842, "name": "Lissendorf", "state": "", "country": "DE", "coord": {"lon": 6.6, "lat": 50.316669}}, {"id": 2876846, "name": "Lissa", "state": "", "country": "DE", "coord": {"lon": 12.28333, "lat": 51.5}}, {"id": 2876847, "name": "Lispenhausen", "state": "", "country": "DE", "coord": {"lon": 9.76667, "lat": 50.98333}}, {"id": 2876855, "name": "Lisberg", "state": "", "country": "DE", "coord": {"lon": 10.4, "lat": 49.883331}}, {"id": 2876859, "name": "Lipten", "state": "", "country": "DE", "coord": {"lon": 13.93333, "lat": 51.650002}}, {"id": 2876860, "name": "Lipsitz", "state": "", "country": "DE", "coord": {"lon": 13.38333, "lat": 54.450001}}, {"id": 2876865, "name": "Lippstadt", "state": "", "country": "DE", "coord": {"lon": 8.35, "lat": 51.666672}}, {"id": 2876869, "name": "Lipprichhausen", "state": "", "country": "DE", "coord": {"lon": 10.12545, "lat": 49.569092}}, {"id": 2876870, "name": "Lipprechterode", "state": "", "country": "DE", "coord": {"lon": 10.55, "lat": 51.450001}}, {"id": 2876872, "name": "Lippramsdorf", "state": "", "country": "DE", "coord": {"lon": 7.1, "lat": 51.716671}}, {"id": 2876873, "name": "Lipporn", "state": "", "country": "DE", "coord": {"lon": 7.86667, "lat": 50.133331}}, {"id": 2876877, "name": "Lippoldshausen", "state": "", "country": "DE", "coord": {"lon": 9.72608, "lat": 51.415958}}, {"id": 2876898, "name": "Lipperts", "state": "", "country": "DE", "coord": {"lon": 11.8, "lat": 50.299999}}, {"id": 2876901, "name": "Lippersdorf", "state": "", "country": "DE", "coord": {"lon": 13.26667, "lat": 50.76667}}, {"id": 2876903, "name": "Lipperreihe", "state": "", "country": "DE", "coord": {"lon": 8.63333, "lat": 51.933331}}, {"id": 2876904, "name": "Lipperode", "state": "", "country": "DE", "coord": {"lon": 8.38333, "lat": 51.700001}}, {"id": 2876922, "name": "Kreis Lippe", "state": "", "country": "DE", "coord": {"lon": 8.95278, "lat": 51.99472}}, {"id": 2876931, "name": "Lippborg", "state": "", "country": "DE", "coord": {"lon": 8.03333, "lat": 51.666672}}, {"id": 2876952, "name": "Linz am Rhein", "state": "", "country": "DE", "coord": {"lon": 7.28333, "lat": 50.566669}}, {"id": 2876957, "name": "Linum", "state": "", "country": "DE", "coord": {"lon": 12.87495, "lat": 52.759571}}, {"id": 2876958, "name": "Lintzel", "state": "", "country": "DE", "coord": {"lon": 10.25, "lat": 52.98333}}, {"id": 2876960, "name": "Lintorf", "state": "", "country": "DE", "coord": {"lon": 6.83333, "lat": 51.333328}}, {"id": 2876963, "name": "Lintig", "state": "", "country": "DE", "coord": {"lon": 8.87876, "lat": 53.603409}}, {"id": 2876965, "name": "Linthe", "state": "", "country": "DE", "coord": {"lon": 12.78333, "lat": 52.150002}}, {"id": 2876966, "name": "Lintfort", "state": "", "country": "DE", "coord": {"lon": 6.55, "lat": 51.5}}, {"id": 2877007, "name": "Linse", "state": "", "country": "DE", "coord": {"lon": 9.53333, "lat": 51.98333}}, {"id": 2877011, "name": "Linsburg", "state": "", "country": "DE", "coord": {"lon": 9.3, "lat": 52.583328}}, {"id": 2877021, "name": "Linnich", "state": "", "country": "DE", "coord": {"lon": 6.26667, "lat": 50.98333}}, {"id": 2877039, "name": "Linnenbach", "state": "", "country": "DE", "coord": {"lon": 8.75528, "lat": 49.65667}}, {"id": 2877058, "name": "Linkenheim", "state": "", "country": "DE", "coord": {"lon": 8.41003, "lat": 49.12545}}, {"id": 2877061, "name": "Linkenbach", "state": "", "country": "DE", "coord": {"lon": 7.55, "lat": 50.583328}}, {"id": 2877078, "name": "Lingerhahn", "state": "", "country": "DE", "coord": {"lon": 7.56667, "lat": 50.099998}}, {"id": 2877082, "name": "Lingenfeld", "state": "", "country": "DE", "coord": {"lon": 8.33861, "lat": 49.253891}}, {"id": 2877088, "name": "Lingen", "state": "", "country": "DE", "coord": {"lon": 7.31667, "lat": 52.51667}}, {"id": 2877092, "name": "Lingelbach", "state": "", "country": "DE", "coord": {"lon": 9.4, "lat": 50.75}}, {"id": 2877098, "name": "Lindwerder", "state": "", "country": "DE", "coord": {"lon": 13.03333, "lat": 51.833328}}, {"id": 2877102, "name": "Lindweiler", "state": "", "country": "DE", "coord": {"lon": 6.88903, "lat": 51.003929}}, {"id": 2877104, "name": "Lindwedel", "state": "", "country": "DE", "coord": {"lon": 9.68737, "lat": 52.607841}}, {"id": 2877112, "name": "Lindstedt", "state": "", "country": "DE", "coord": {"lon": 11.53333, "lat": 52.599998}}, {"id": 2877126, "name": "Lindow", "state": "", "country": "DE", "coord": {"lon": 12.98498, "lat": 52.966888}}, {"id": 2877142, "name": "Lindlar", "state": "", "country": "DE", "coord": {"lon": 7.37758, "lat": 51.019588}}, {"id": 2877158, "name": "Lindig", "state": "", "country": "DE", "coord": {"lon": 11.6, "lat": 50.783329}}, {"id": 2877169, "name": "Lindhorst", "state": "", "country": "DE", "coord": {"lon": 9.98333, "lat": 53.383331}}, {"id": 2877171, "name": "Lindhorst", "state": "", "country": "DE", "coord": {"lon": 9.28333, "lat": 52.366669}}, {"id": 2877181, "name": "Lindholm", "state": "", "country": "DE", "coord": {"lon": 8.87455, "lat": 54.760101}}, {"id": 2877194, "name": "Lindheim", "state": "", "country": "DE", "coord": {"lon": 8.98333, "lat": 50.299999}}, {"id": 2877196, "name": "Lindhardt", "state": "", "country": "DE", "coord": {"lon": 12.59274, "lat": 51.257401}}, {"id": 2877197, "name": "Lindgraben", "state": "", "country": "DE", "coord": {"lon": 10.65142, "lat": 48.396961}}, {"id": 2877201, "name": "Lindflur", "state": "", "country": "DE", "coord": {"lon": 9.93056, "lat": 49.711941}}, {"id": 2877203, "name": "Lindewitt", "state": "", "country": "DE", "coord": {"lon": 9.21667, "lat": 54.716671}}, {"id": 2877204, "name": "Lindewitt", "state": "", "country": "DE", "coord": {"lon": 9.2, "lat": 54.700001}}, {"id": 2877205, "name": "Lindewerra", "state": "", "country": "DE", "coord": {"lon": 9.95, "lat": 51.316669}}, {"id": 2877238, "name": "Lindenthal", "state": "", "country": "DE", "coord": {"lon": 6.90958, "lat": 50.929218}}, {"id": 2877251, "name": "Lindenschied", "state": "", "country": "DE", "coord": {"lon": 7.4, "lat": 49.900002}}, {"id": 2877259, "name": "Lindenkreuz", "state": "", "country": "DE", "coord": {"lon": 11.91667, "lat": 50.849998}}, {"id": 2877264, "name": "Lindenholzhausen", "state": "", "country": "DE", "coord": {"lon": 8.11667, "lat": 50.366669}}, {"id": 2877304, "name": "Lindenhayn", "state": "", "country": "DE", "coord": {"lon": 12.4966, "lat": 51.516651}}, {"id": 2877315, "name": "Lindenfels", "state": "", "country": "DE", "coord": {"lon": 8.78306, "lat": 49.685001}}, {"id": 2877336, "name": "Lindenberg im Allg\u00e4u", "state": "", "country": "DE", "coord": {"lon": 9.9, "lat": 47.599998}}, {"id": 2877342, "name": "Lindenberg", "state": "", "country": "DE", "coord": {"lon": 13.01667, "lat": 53.76667}}, {"id": 2877346, "name": "Lindenberg", "state": "", "country": "DE", "coord": {"lon": 13.52443, "lat": 52.602581}}, {"id": 2877348, "name": "Lindenberg", "state": "", "country": "DE", "coord": {"lon": 13.16667, "lat": 52.066669}}, {"id": 2877357, "name": "Lindenberg", "state": "", "country": "DE", "coord": {"lon": 8.09861, "lat": 49.38028}}, {"id": 2877425, "name": "Lindenau", "state": "", "country": "DE", "coord": {"lon": 13.73333, "lat": 51.400002}}, {"id": 2877439, "name": "Linden", "state": "", "country": "DE", "coord": {"lon": 9.71157, "lat": 52.364491}}, {"id": 2877441, "name": "Linden", "state": "", "country": "DE", "coord": {"lon": 9.18333, "lat": 54.25}}, {"id": 2877445, "name": "Linden", "state": "", "country": "DE", "coord": {"lon": 7.51667, "lat": 50.950001}}, {"id": 2877448, "name": "Linden", "state": "", "country": "DE", "coord": {"lon": 7.85, "lat": 50.599998}}, {"id": 2877455, "name": "Linden", "state": "", "country": "DE", "coord": {"lon": 7.65, "lat": 49.349998}}, {"id": 2877464, "name": "Linden", "state": "", "country": "DE", "coord": {"lon": 9.76127, "lat": 48.021049}}, {"id": 2877465, "name": "Linden", "state": "", "country": "DE", "coord": {"lon": 12.0802, "lat": 47.91502}}, {"id": 2877525, "name": "Lindberg", "state": "", "country": "DE", "coord": {"lon": 13.25423, "lat": 49.0368}}, {"id": 2877528, "name": "Lindberg", "state": "", "country": "DE", "coord": {"lon": 12.65, "lat": 48.549999}}, {"id": 2877545, "name": "Lindau", "state": "", "country": "DE", "coord": {"lon": 9.9, "lat": 54.383331}}, {"id": 2877546, "name": "Lindau", "state": "", "country": "DE", "coord": {"lon": 12.1, "lat": 52.033329}}, {"id": 2877550, "name": "Lindau", "state": "", "country": "DE", "coord": {"lon": 9.68333, "lat": 47.549999}}, {"id": 2877569, "name": "Lindach", "state": "", "country": "DE", "coord": {"lon": 10.58333, "lat": 49.400002}}, {"id": 2877572, "name": "Lindach", "state": "", "country": "DE", "coord": {"lon": 9.81731, "lat": 48.831928}}, {"id": 2877573, "name": "Lindach", "state": "", "country": "DE", "coord": {"lon": 11.53822, "lat": 48.72596}}, {"id": 2877583, "name": "Lindach", "state": "", "country": "DE", "coord": {"lon": 11.82399, "lat": 47.98053}}, {"id": 2877611, "name": "Linda", "state": "", "country": "DE", "coord": {"lon": 11.98333, "lat": 50.583328}}, {"id": 2877614, "name": "Lind", "state": "", "country": "DE", "coord": {"lon": 6.88333, "lat": 50.933331}}, {"id": 2877615, "name": "Lind", "state": "", "country": "DE", "coord": {"lon": 7.1, "lat": 50.849998}}, {"id": 2877616, "name": "Lind", "state": "", "country": "DE", "coord": {"lon": 6.93333, "lat": 50.5}}, {"id": 2877617, "name": "Lind", "state": "", "country": "DE", "coord": {"lon": 7.03333, "lat": 50.316669}}, {"id": 2877618, "name": "Lind", "state": "", "country": "DE", "coord": {"lon": 10.8, "lat": 50.066669}}, {"id": 2877624, "name": "Linau", "state": "", "country": "DE", "coord": {"lon": 10.46667, "lat": 53.650002}}, {"id": 2877635, "name": "Limperich", "state": "", "country": "DE", "coord": {"lon": 7.13333, "lat": 50.73333}}, {"id": 2877642, "name": "Limmer", "state": "", "country": "DE", "coord": {"lon": 9.6908, "lat": 52.375278}}, {"id": 2877647, "name": "Limburgerhof", "state": "", "country": "DE", "coord": {"lon": 8.39194, "lat": 49.424438}}, {"id": 2877648, "name": "Limburg an der Lahn", "state": "", "country": "DE", "coord": {"lon": 8.05, "lat": 50.383331}}, {"id": 2877673, "name": "Limbach-Oberfrohna", "state": "", "country": "DE", "coord": {"lon": 12.75, "lat": 50.866669}}, {"id": 2877681, "name": "Limbach", "state": "", "country": "DE", "coord": {"lon": 7.8, "lat": 50.700001}}, {"id": 2877683, "name": "Limbach", "state": "", "country": "DE", "coord": {"lon": 12.25, "lat": 50.583328}}, {"id": 2877690, "name": "Limbach", "state": "", "country": "DE", "coord": {"lon": 7.55, "lat": 49.73333}}, {"id": 2877693, "name": "Limbach", "state": "", "country": "DE", "coord": {"lon": 9.21111, "lat": 49.461941}}, {"id": 2877709, "name": "Lilienthal", "state": "", "country": "DE", "coord": {"lon": 8.91667, "lat": 53.133331}}, {"id": 2877728, "name": "Lietzow", "state": "", "country": "DE", "coord": {"lon": 13.50718, "lat": 54.481709}}, {"id": 2877732, "name": "Lietzen", "state": "", "country": "DE", "coord": {"lon": 14.35, "lat": 52.466671}}, {"id": 2877747, "name": "Lieth", "state": "", "country": "DE", "coord": {"lon": 9.05, "lat": 54.150002}}, {"id": 2877748, "name": "Lieth", "state": "", "country": "DE", "coord": {"lon": 9.66667, "lat": 53.716671}}, {"id": 2877753, "name": "Liesten", "state": "", "country": "DE", "coord": {"lon": 11.3, "lat": 52.799999}}, {"id": 2877755, "name": "Liessow", "state": "", "country": "DE", "coord": {"lon": 11.56667, "lat": 53.716671}}, {"id": 2877758, "name": "Lie\u00dfen", "state": "", "country": "DE", "coord": {"lon": 13.35, "lat": 52.0}}, {"id": 2877759, "name": "Lie\u00dfem", "state": "", "country": "DE", "coord": {"lon": 6.48333, "lat": 50.033329}}, {"id": 2877761, "name": "Lieske", "state": "", "country": "DE", "coord": {"lon": 14.13333, "lat": 51.549999}}, {"id": 2877767, "name": "Lieskau", "state": "", "country": "DE", "coord": {"lon": 11.86667, "lat": 51.5}}, {"id": 2877771, "name": "Lieser", "state": "", "country": "DE", "coord": {"lon": 7.01667, "lat": 49.916672}}, {"id": 2877773, "name": "Liesenich", "state": "", "country": "DE", "coord": {"lon": 7.28333, "lat": 50.083328}}, {"id": 2877774, "name": "Liesenfeld", "state": "", "country": "DE", "coord": {"lon": 7.55, "lat": 50.150002}}, {"id": 2877785, "name": "Liesborn", "state": "", "country": "DE", "coord": {"lon": 8.26667, "lat": 51.716671}}, {"id": 2877786, "name": "Lirstal", "state": "", "country": "DE", "coord": {"lon": 7.03333, "lat": 50.25}}, {"id": 2877787, "name": "Lierschied", "state": "", "country": "DE", "coord": {"lon": 7.75, "lat": 50.166672}}, {"id": 2877789, "name": "Liers", "state": "", "country": "DE", "coord": {"lon": 6.94387, "lat": 50.456741}}, {"id": 2877792, "name": "Lierfeld", "state": "", "country": "DE", "coord": {"lon": 6.36667, "lat": 50.133331}}, {"id": 2877803, "name": "Liepgarten", "state": "", "country": "DE", "coord": {"lon": 14.01667, "lat": 53.716671}}, {"id": 2877815, "name": "Liepen", "state": "", "country": "DE", "coord": {"lon": 13.46667, "lat": 53.883331}}, {"id": 2877826, "name": "Liepe", "state": "", "country": "DE", "coord": {"lon": 13.96946, "lat": 52.862129}}, {"id": 2877828, "name": "Liepe", "state": "", "country": "DE", "coord": {"lon": 13.36667, "lat": 51.950001}}, {"id": 2877841, "name": "Liener", "state": "", "country": "DE", "coord": {"lon": 7.78333, "lat": 52.849998}}, {"id": 2877842, "name": "Lienen", "state": "", "country": "DE", "coord": {"lon": 8.46667, "lat": 53.25}}, {"id": 2877843, "name": "Lienen", "state": "", "country": "DE", "coord": {"lon": 7.98333, "lat": 52.150002}}, {"id": 2877849, "name": "Liemehna", "state": "", "country": "DE", "coord": {"lon": 12.51326, "lat": 51.435822}}, {"id": 2877861, "name": "Liegau-Augustusbad", "state": "", "country": "DE", "coord": {"lon": 13.88333, "lat": 51.133331}}, {"id": 2877863, "name": "Lieg", "state": "", "country": "DE", "coord": {"lon": 7.35, "lat": 50.133331}}, {"id": 2877865, "name": "Liedolsheim", "state": "", "country": "DE", "coord": {"lon": 8.42222, "lat": 49.158749}}, {"id": 2877869, "name": "Liedersdorf", "state": "", "country": "DE", "coord": {"lon": 11.43333, "lat": 51.466671}}, {"id": 2877871, "name": "Liedering", "state": "", "country": "DE", "coord": {"lon": 12.33333, "lat": 48.01667}}, {"id": 2877887, "name": "Liebsthal", "state": "", "country": "DE", "coord": {"lon": 7.4, "lat": 49.48333}}, {"id": 2877889, "name": "Liebstedt", "state": "", "country": "DE", "coord": {"lon": 11.4, "lat": 51.049999}}, {"id": 2877891, "name": "Liebstadt", "state": "", "country": "DE", "coord": {"lon": 13.86667, "lat": 50.866669}}, {"id": 2877892, "name": "Liebshausen", "state": "", "country": "DE", "coord": {"lon": 7.63333, "lat": 50.033329}}, {"id": 2877904, "name": "Lieblos", "state": "", "country": "DE", "coord": {"lon": 9.1432, "lat": 50.20789}}, {"id": 2877905, "name": "Lieblingshof", "state": "", "country": "DE", "coord": {"lon": 12.32924, "lat": 54.03001}}, {"id": 2877922, "name": "Liebertwolkwitz", "state": "", "country": "DE", "coord": {"lon": 12.46667, "lat": 51.283329}}, {"id": 2877925, "name": "Liebersee", "state": "", "country": "DE", "coord": {"lon": 13.16667, "lat": 51.466671}}, {"id": 2877932, "name": "Lieberose", "state": "", "country": "DE", "coord": {"lon": 14.3, "lat": 51.98333}}, {"id": 2877942, "name": "Liebenwalde", "state": "", "country": "DE", "coord": {"lon": 13.39465, "lat": 52.87125}}, {"id": 2877944, "name": "Liebenthal", "state": "", "country": "DE", "coord": {"lon": 13.46117, "lat": 52.912842}}, {"id": 2877948, "name": "Liebenstein", "state": "", "country": "DE", "coord": {"lon": 10.85, "lat": 50.76667}}, {"id": 2877955, "name": "Liebenscheid", "state": "", "country": "DE", "coord": {"lon": 8.1, "lat": 50.700001}}, {"id": 2877969, "name": "Liebenburg", "state": "", "country": "DE", "coord": {"lon": 10.43169, "lat": 52.021759}}, {"id": 2877979, "name": "Liebenau", "state": "", "country": "DE", "coord": {"lon": 9.09719, "lat": 52.603619}}, {"id": 2877980, "name": "Liebenau", "state": "", "country": "DE", "coord": {"lon": 9.28207, "lat": 51.49699}}, {"id": 2877987, "name": "Liebelsberg", "state": "", "country": "DE", "coord": {"lon": 8.68203, "lat": 48.672661}}, {"id": 2878007, "name": "Lichtetanne", "state": "", "country": "DE", "coord": {"lon": 12.43333, "lat": 50.700001}}, {"id": 2878022, "name": "Lichterfeld", "state": "", "country": "DE", "coord": {"lon": 13.76667, "lat": 51.599998}}, {"id": 2878025, "name": "Lichtenwalde", "state": "", "country": "DE", "coord": {"lon": 13.01667, "lat": 50.883331}}, {"id": 2878027, "name": "Lichtentanne", "state": "", "country": "DE", "coord": {"lon": 12.43333, "lat": 50.700001}}, {"id": 2878037, "name": "Lichtenstein", "state": "", "country": "DE", "coord": {"lon": 12.65, "lat": 50.75}}, {"id": 2878041, "name": "Lichtensee", "state": "", "country": "DE", "coord": {"lon": 13.36667, "lat": 51.383331}}, {"id": 2878044, "name": "Lichtenrade", "state": "", "country": "DE", "coord": {"lon": 13.40637, "lat": 52.398441}}, {"id": 2878046, "name": "Lichtenow", "state": "", "country": "DE", "coord": {"lon": 13.9, "lat": 52.48333}}, {"id": 2878061, "name": "Lichtenhain", "state": "", "country": "DE", "coord": {"lon": 14.23333, "lat": 50.950001}}, {"id": 2878064, "name": "Lichtenhain", "state": "", "country": "DE", "coord": {"lon": 11.31667, "lat": 50.5}}, {"id": 2878071, "name": "Lichtenhaag", "state": "", "country": "DE", "coord": {"lon": 12.38333, "lat": 48.5}}, {"id": 2878074, "name": "Lichtenfels", "state": "", "country": "DE", "coord": {"lon": 11.05928, "lat": 50.145672}}, {"id": 2878093, "name": "Lichtenborn", "state": "", "country": "DE", "coord": {"lon": 6.3, "lat": 50.116669}}, {"id": 2878102, "name": "Lichtenberg", "state": "", "country": "DE", "coord": {"lon": 13.49975, "lat": 52.51395}}, {"id": 2878109, "name": "Lichtenberg", "state": "", "country": "DE", "coord": {"lon": 13.96667, "lat": 51.183331}}, {"id": 2878111, "name": "Lichtenberg", "state": "", "country": "DE", "coord": {"lon": 13.41667, "lat": 50.833328}}, {"id": 2878114, "name": "Lichtenberg", "state": "", "country": "DE", "coord": {"lon": 11.67624, "lat": 50.38335}}, {"id": 2878133, "name": "Lichtenau", "state": "", "country": "DE", "coord": {"lon": 8.9, "lat": 51.616669}}, {"id": 2878135, "name": "Lichtenau", "state": "", "country": "DE", "coord": {"lon": 12.55, "lat": 50.549999}}, {"id": 2878136, "name": "Lichtenau", "state": "", "country": "DE", "coord": {"lon": 10.85, "lat": 50.5}}, {"id": 2878138, "name": "Lichtenau", "state": "", "country": "DE", "coord": {"lon": 10.4, "lat": 49.166672}}, {"id": 2878140, "name": "Lichtenau", "state": "", "country": "DE", "coord": {"lon": 8.01667, "lat": 48.73333}}, {"id": 2878143, "name": "Lichtenau", "state": "", "country": "DE", "coord": {"lon": 10.45, "lat": 47.98333}}, {"id": 2878153, "name": "Lichte", "state": "", "country": "DE", "coord": {"lon": 11.18333, "lat": 50.51667}}, {"id": 2878162, "name": "Licherode", "state": "", "country": "DE", "coord": {"lon": 9.58333, "lat": 51.01667}}, {"id": 2878166, "name": "Lich", "state": "", "country": "DE", "coord": {"lon": 8.81567, "lat": 50.520851}}, {"id": 2878180, "name": "Libehna", "state": "", "country": "DE", "coord": {"lon": 12.05, "lat": 51.716671}}, {"id": 2878183, "name": "Libbesdorf", "state": "", "country": "DE", "coord": {"lon": 12.1, "lat": 51.76667}}, {"id": 2878184, "name": "Libbenichen", "state": "", "country": "DE", "coord": {"lon": 14.43333, "lat": 52.48333}}, {"id": 2878204, "name": "Lexgaard", "state": "", "country": "DE", "coord": {"lon": 8.93333, "lat": 54.833328}}, {"id": 2878208, "name": "Lewinghausen", "state": "", "country": "DE", "coord": {"lon": 7.66667, "lat": 52.716671}}, {"id": 2878217, "name": "Levkendorf", "state": "", "country": "DE", "coord": {"lon": 12.3, "lat": 53.916672}}, {"id": 2878218, "name": "Levitzow", "state": "", "country": "DE", "coord": {"lon": 12.58333, "lat": 53.833328}}, {"id": 2878224, "name": "Levesen", "state": "", "country": "DE", "coord": {"lon": 9.1202, "lat": 52.321602}}, {"id": 2878233, "name": "Levern", "state": "", "country": "DE", "coord": {"lon": 8.45, "lat": 52.366669}}, {"id": 2878234, "name": "Leverkusen", "state": "", "country": "DE", "coord": {"lon": 7.0, "lat": 51.033329}}, {"id": 2878244, "name": "Levenhagen", "state": "", "country": "DE", "coord": {"lon": 13.26891, "lat": 54.08905}}, {"id": 2878250, "name": "Leuzendorf", "state": "", "country": "DE", "coord": {"lon": 10.1, "lat": 49.349998}}, {"id": 2878253, "name": "Leuzbach", "state": "", "country": "DE", "coord": {"lon": 7.63333, "lat": 50.683331}}, {"id": 2878256, "name": "Leutzsch", "state": "", "country": "DE", "coord": {"lon": 12.31361, "lat": 51.348629}}, {"id": 2878259, "name": "Leuzdorf", "state": "", "country": "DE", "coord": {"lon": 10.91667, "lat": 49.349998}}, {"id": 2878260, "name": "Leutwitz", "state": "", "country": "DE", "coord": {"lon": 14.26667, "lat": 51.183331}}, {"id": 2878270, "name": "Leutkirch", "state": "", "country": "DE", "coord": {"lon": 10.01667, "lat": 47.825001}}, {"id": 2878282, "name": "Leutewitz", "state": "", "country": "DE", "coord": {"lon": 13.68333, "lat": 51.049999}}, {"id": 2878284, "name": "Leutesdorf", "state": "", "country": "DE", "coord": {"lon": 7.38333, "lat": 50.450001}}, {"id": 2878289, "name": "Leutershausen", "state": "", "country": "DE", "coord": {"lon": 10.41667, "lat": 49.299999}}, {"id": 2878290, "name": "Leutersdorf", "state": "", "country": "DE", "coord": {"lon": 14.65, "lat": 50.950001}}, {"id": 2878291, "name": "Leutersdorf", "state": "", "country": "DE", "coord": {"lon": 10.55, "lat": 50.51667}}, {"id": 2878294, "name": "Leutersbach", "state": "", "country": "DE", "coord": {"lon": 12.51667, "lat": 50.599998}}, {"id": 2878295, "name": "Leuterod", "state": "", "country": "DE", "coord": {"lon": 7.81667, "lat": 50.48333}}, {"id": 2878298, "name": "Leutenthal", "state": "", "country": "DE", "coord": {"lon": 11.36667, "lat": 51.049999}}, {"id": 2878308, "name": "Leutenberg", "state": "", "country": "DE", "coord": {"lon": 11.45, "lat": 50.549999}}, {"id": 2878310, "name": "Leutenbach", "state": "", "country": "DE", "coord": {"lon": 11.17224, "lat": 49.709499}}, {"id": 2878313, "name": "Leutenbach", "state": "", "country": "DE", "coord": {"lon": 9.39267, "lat": 48.887909}}, {"id": 2878325, "name": "Leussow", "state": "", "country": "DE", "coord": {"lon": 11.28333, "lat": 53.283329}}, {"id": 2878334, "name": "Leuscheid", "state": "", "country": "DE", "coord": {"lon": 7.56667, "lat": 50.76667}}, {"id": 2878339, "name": "Leupolz", "state": "", "country": "DE", "coord": {"lon": 9.81667, "lat": 47.75}}, {"id": 2878342, "name": "Leupoldsgr\u00fcn", "state": "", "country": "DE", "coord": {"lon": 11.8, "lat": 50.299999}}, {"id": 2878344, "name": "Leupoldsdorf", "state": "", "country": "DE", "coord": {"lon": 11.91667, "lat": 50.033329}}, {"id": 2878346, "name": "Leupahn", "state": "", "country": "DE", "coord": {"lon": 12.76667, "lat": 51.099998}}, {"id": 2878350, "name": "Leuna", "state": "", "country": "DE", "coord": {"lon": 12.01667, "lat": 51.316669}}, {"id": 2878351, "name": "Leun", "state": "", "country": "DE", "coord": {"lon": 8.35836, "lat": 50.551289}}, {"id": 2878356, "name": "Leukersdorf", "state": "", "country": "DE", "coord": {"lon": 12.81667, "lat": 50.76667}}, {"id": 2878364, "name": "Leuenberg", "state": "", "country": "DE", "coord": {"lon": 13.88646, "lat": 52.703381}}, {"id": 2878366, "name": "Leudersdorf", "state": "", "country": "DE", "coord": {"lon": 6.75, "lat": 50.349998}}, {"id": 2878373, "name": "Leuchtenburg", "state": "", "country": "DE", "coord": {"lon": 11.61667, "lat": 50.799999}}, {"id": 2878375, "name": "Leuchtenberg", "state": "", "country": "DE", "coord": {"lon": 12.25, "lat": 49.599998}}, {"id": 2878382, "name": "Leubsdorf", "state": "", "country": "DE", "coord": {"lon": 13.16667, "lat": 50.799999}}, {"id": 2878383, "name": "Leubsdorf", "state": "", "country": "DE", "coord": {"lon": 11.85, "lat": 50.716671}}, {"id": 2878384, "name": "Leubsdorf", "state": "", "country": "DE", "coord": {"lon": 7.3, "lat": 50.549999}}, {"id": 2878387, "name": "Leubnitz", "state": "", "country": "DE", "coord": {"lon": 12.36667, "lat": 50.716671}}, {"id": 2878388, "name": "Leubnitz", "state": "", "country": "DE", "coord": {"lon": 12.03333, "lat": 50.51667}}, {"id": 2878390, "name": "Leubingen", "state": "", "country": "DE", "coord": {"lon": 11.15, "lat": 51.200001}}, {"id": 2878410, "name": "Letzlingen", "state": "", "country": "DE", "coord": {"lon": 11.5, "lat": 52.433331}}, {"id": 2878411, "name": "Letzin", "state": "", "country": "DE", "coord": {"lon": 13.2, "lat": 53.783329}}, {"id": 2878418, "name": "Letzau", "state": "", "country": "DE", "coord": {"lon": 12.25, "lat": 49.683331}}, {"id": 2878422, "name": "Lettweiler", "state": "", "country": "DE", "coord": {"lon": 7.73333, "lat": 49.73333}}, {"id": 2878431, "name": "Lettgenbrunn", "state": "", "country": "DE", "coord": {"lon": 9.41667, "lat": 50.166672}}, {"id": 2878433, "name": "Letter", "state": "", "country": "DE", "coord": {"lon": 9.64033, "lat": 52.397709}}, {"id": 2878454, "name": "Letten", "state": "", "country": "DE", "coord": {"lon": 11.55, "lat": 48.48333}}, {"id": 2878458, "name": "Letten", "state": "", "country": "DE", "coord": {"lon": 11.53333, "lat": 47.633331}}, {"id": 2878465, "name": "Lette", "state": "", "country": "DE", "coord": {"lon": 8.16667, "lat": 51.883331}}, {"id": 2878471, "name": "Letschin", "state": "", "country": "DE", "coord": {"lon": 14.36007, "lat": 52.643791}}, {"id": 2878476, "name": "Leteln", "state": "", "country": "DE", "coord": {"lon": 8.93333, "lat": 52.316669}}, {"id": 2878484, "name": "Lessien", "state": "", "country": "DE", "coord": {"lon": 10.8, "lat": 52.566669}}, {"id": 2878487, "name": "Lessenich", "state": "", "country": "DE", "coord": {"lon": 7.05, "lat": 50.716671}}, {"id": 2878492, "name": "Lessau", "state": "", "country": "DE", "coord": {"lon": 11.7, "lat": 49.916672}}, {"id": 2878493, "name": "Lessa", "state": "", "country": "DE", "coord": {"lon": 13.3, "lat": 51.316669}}, {"id": 2878541, "name": "Lerchenfeld", "state": "", "country": "DE", "coord": {"lon": 11.5, "lat": 50.01667}}, {"id": 2878551, "name": "Lerchenbergshof", "state": "", "country": "DE", "coord": {"lon": 10.43333, "lat": 49.416672}}, {"id": 2878638, "name": "Lerbach", "state": "", "country": "DE", "coord": {"lon": 10.3, "lat": 51.75}}, {"id": 2878649, "name": "Leppin", "state": "", "country": "DE", "coord": {"lon": 11.89596, "lat": 53.310982}}, {"id": 2878656, "name": "Leppelsdorf", "state": "", "country": "DE", "coord": {"lon": 10.76667, "lat": 49.98333}}, {"id": 2878666, "name": "Leoprechting", "state": "", "country": "DE", "coord": {"lon": 12.6, "lat": 48.366669}}, {"id": 2878673, "name": "Leopoldsh\u00f6he", "state": "", "country": "DE", "coord": {"lon": 8.69834, "lat": 52.012459}}, {"id": 2878675, "name": "Leopoldshagen", "state": "", "country": "DE", "coord": {"lon": 13.9, "lat": 53.783329}}, {"id": 2878676, "name": "Leopoldshafen", "state": "", "country": "DE", "coord": {"lon": 8.39999, "lat": 49.096241}}, {"id": 2878687, "name": "Leonhardshof", "state": "", "country": "DE", "coord": {"lon": 8.93333, "lat": 49.549999}}, {"id": 2878693, "name": "Leonberg", "state": "", "country": "DE", "coord": {"lon": 12.2852, "lat": 49.947079}}, {"id": 2878695, "name": "Leonberg", "state": "", "country": "DE", "coord": {"lon": 9.01667, "lat": 48.799999}}, {"id": 2878702, "name": "Lenzkirch", "state": "", "country": "DE", "coord": {"lon": 8.20211, "lat": 47.86832}}, {"id": 2878731, "name": "Lenzen", "state": "", "country": "DE", "coord": {"lon": 11.47453, "lat": 53.091759}}, {"id": 2878732, "name": "Lenzen", "state": "", "country": "DE", "coord": {"lon": 11.01667, "lat": 53.083328}}, {"id": 2878741, "name": "Lenz", "state": "", "country": "DE", "coord": {"lon": 13.55, "lat": 51.25}}, {"id": 2878751, "name": "Lenting", "state": "", "country": "DE", "coord": {"lon": 11.46667, "lat": 48.799999}}, {"id": 2878755, "name": "Lentf\u00f6hrden", "state": "", "country": "DE", "coord": {"lon": 9.88333, "lat": 53.866669}}, {"id": 2878759, "name": "Lentersdorf", "state": "", "country": "DE", "coord": {"lon": 10.73333, "lat": 49.400002}}, {"id": 2878760, "name": "Lenterode", "state": "", "country": "DE", "coord": {"lon": 10.06667, "lat": 51.333328}}, {"id": 2878773, "name": "Lensahn", "state": "", "country": "DE", "coord": {"lon": 10.88333, "lat": 54.23333}}, {"id": 2878784, "name": "Lennestadt", "state": "", "country": "DE", "coord": {"lon": 8.06667, "lat": 51.116669}}, {"id": 2878795, "name": "Lenne", "state": "", "country": "DE", "coord": {"lon": 9.68299, "lat": 51.893871}}, {"id": 2878802, "name": "Lenkersheim", "state": "", "country": "DE", "coord": {"lon": 10.45495, "lat": 49.50264}}, {"id": 2878813, "name": "Lengthal", "state": "", "country": "DE", "coord": {"lon": 12.8, "lat": 48.183331}}, {"id": 2878815, "name": "Lengsdorf", "state": "", "country": "DE", "coord": {"lon": 7.06667, "lat": 50.716671}}, {"id": 2878820, "name": "Lenglern", "state": "", "country": "DE", "coord": {"lon": 9.88333, "lat": 51.583328}}, {"id": 2878824, "name": "Lenggries", "state": "", "country": "DE", "coord": {"lon": 11.56667, "lat": 47.683331}}, {"id": 2878825, "name": "Lengfurt", "state": "", "country": "DE", "coord": {"lon": 9.60417, "lat": 49.812222}}, {"id": 2878829, "name": "Lengfeld", "state": "", "country": "DE", "coord": {"lon": 10.65, "lat": 50.533329}}, {"id": 2878838, "name": "Lengerich", "state": "", "country": "DE", "coord": {"lon": 7.53164, "lat": 52.55381}}, {"id": 2878840, "name": "Lengerich", "state": "", "country": "DE", "coord": {"lon": 7.86667, "lat": 52.183331}}, {"id": 2878844, "name": "Lengenwang", "state": "", "country": "DE", "coord": {"lon": 10.6, "lat": 47.700001}}, {"id": 2878852, "name": "Lengenfeld", "state": "", "country": "DE", "coord": {"lon": 12.36667, "lat": 50.566669}}, {"id": 2878863, "name": "Lengenbostel", "state": "", "country": "DE", "coord": {"lon": 9.51667, "lat": 53.299999}}, {"id": 2878878, "name": "Lengefeld", "state": "", "country": "DE", "coord": {"lon": 13.2, "lat": 50.716671}}, {"id": 2878879, "name": "Lengede", "state": "", "country": "DE", "coord": {"lon": 10.30775, "lat": 52.204868}}, {"id": 2878881, "name": "Lengdorf", "state": "", "country": "DE", "coord": {"lon": 12.05, "lat": 48.26667}}, {"id": 2878901, "name": "Lendersdorf", "state": "", "country": "DE", "coord": {"lon": 6.48333, "lat": 50.76667}}, {"id": 2878908, "name": "Lenau", "state": "", "country": "DE", "coord": {"lon": 11.89304, "lat": 49.91608}}, {"id": 2878912, "name": "Lemwerder", "state": "", "country": "DE", "coord": {"lon": 8.61667, "lat": 53.166672}}, {"id": 2878913, "name": "Lemshausen", "state": "", "country": "DE", "coord": {"lon": 9.86667, "lat": 51.48333}}, {"id": 2878916, "name": "Lemsel", "state": "", "country": "DE", "coord": {"lon": 12.35, "lat": 51.466671}}, {"id": 2878917, "name": "Lemsdorf", "state": "", "country": "DE", "coord": {"lon": 11.59761, "lat": 52.098331}}, {"id": 2878918, "name": "Lemsahl-Mellingstedt", "state": "", "country": "DE", "coord": {"lon": 10.09648, "lat": 53.68998}}, {"id": 2878927, "name": "Lemnitz", "state": "", "country": "DE", "coord": {"lon": 11.83333, "lat": 50.716671}}, {"id": 2878940, "name": "Lemgrabe", "state": "", "country": "DE", "coord": {"lon": 10.71667, "lat": 53.183331}}, {"id": 2878943, "name": "Lemgo", "state": "", "country": "DE", "coord": {"lon": 8.9, "lat": 52.033329}}, {"id": 2878944, "name": "Lemf\u00f6rde", "state": "", "country": "DE", "coord": {"lon": 8.38333, "lat": 52.466671}}, {"id": 2878946, "name": "Lembruch", "state": "", "country": "DE", "coord": {"lon": 8.35, "lat": 52.533329}}, {"id": 2878948, "name": "Lemberg", "state": "", "country": "DE", "coord": {"lon": 7.66667, "lat": 49.166672}}, {"id": 2878959, "name": "Lembeck", "state": "", "country": "DE", "coord": {"lon": 7.0, "lat": 51.76667}}, {"id": 2878970, "name": "Lelm", "state": "", "country": "DE", "coord": {"lon": 10.85466, "lat": 52.220329}}, {"id": 2878974, "name": "Lelkendorf", "state": "", "country": "DE", "coord": {"lon": 12.73333, "lat": 53.849998}}, {"id": 2878979, "name": "Leizen", "state": "", "country": "DE", "coord": {"lon": 12.47463, "lat": 53.366531}}, {"id": 2878982, "name": "Leiwen", "state": "", "country": "DE", "coord": {"lon": 6.88333, "lat": 49.816669}}, {"id": 2878983, "name": "Leitzweiler", "state": "", "country": "DE", "coord": {"lon": 7.21667, "lat": 49.583328}}, {"id": 2878986, "name": "Leitzkau", "state": "", "country": "DE", "coord": {"lon": 11.95, "lat": 52.049999}}, {"id": 2879008, "name": "Leithen", "state": "", "country": "DE", "coord": {"lon": 13.13333, "lat": 48.683331}}, {"id": 2879019, "name": "Leitheim", "state": "", "country": "DE", "coord": {"lon": 10.9, "lat": 48.75}}, {"id": 2879020, "name": "Leithe", "state": "", "country": "DE", "coord": {"lon": 7.1, "lat": 51.48333}}, {"id": 2879021, "name": "Leithe", "state": "", "country": "DE", "coord": {"lon": 7.11667, "lat": 51.466671}}, {"id": 2879032, "name": "Leitersdorf", "state": "", "country": "DE", "coord": {"lon": 12.31667, "lat": 48.75}}, {"id": 2879097, "name": "Leisten", "state": "", "country": "DE", "coord": {"lon": 10.9017, "lat": 52.877319}}, {"id": 2879101, "name": "Leistadt", "state": "", "country": "DE", "coord": {"lon": 8.15806, "lat": 49.491669}}, {"id": 2879102, "name": "Leist", "state": "", "country": "DE", "coord": {"lon": 13.38333, "lat": 54.150002}}, {"id": 2879106, "name": "Lei\u00dfling", "state": "", "country": "DE", "coord": {"lon": 11.9, "lat": 51.183331}}, {"id": 2879109, "name": "Leisnig", "state": "", "country": "DE", "coord": {"lon": 12.91667, "lat": 51.166672}}, {"id": 2879121, "name": "Leisel", "state": "", "country": "DE", "coord": {"lon": 7.2, "lat": 49.716671}}, {"id": 2879125, "name": "Leisau", "state": "", "country": "DE", "coord": {"lon": 11.68333, "lat": 50.01667}}, {"id": 2879137, "name": "Kreisfreie Stadt Leipzig", "state": "", "country": "DE", "coord": {"lon": 12.33333, "lat": 51.333328}}, {"id": 2879138, "name": "Landkreis Leipzig", "state": "", "country": "DE", "coord": {"lon": 12.33333, "lat": 51.333328}}, {"id": 2879139, "name": "Leipzig", "state": "", "country": "DE", "coord": {"lon": 12.37129, "lat": 51.339619}}, {"id": 2879143, "name": "Leippen", "state": "", "country": "DE", "coord": {"lon": 13.33333, "lat": 51.133331}}, {"id": 2879144, "name": "Leippe", "state": "", "country": "DE", "coord": {"lon": 14.06667, "lat": 51.416672}}, {"id": 2879149, "name": "Leipnitz", "state": "", "country": "DE", "coord": {"lon": 12.83333, "lat": 51.200001}}, {"id": 2879150, "name": "Leipheim", "state": "", "country": "DE", "coord": {"lon": 10.22278, "lat": 48.450039}}, {"id": 2879159, "name": "Leinzell", "state": "", "country": "DE", "coord": {"lon": 9.8775, "lat": 48.849411}}, {"id": 2879162, "name": "Leinsweiler", "state": "", "country": "DE", "coord": {"lon": 8.01917, "lat": 49.183331}}, {"id": 2879173, "name": "Leiningen", "state": "", "country": "DE", "coord": {"lon": 7.56667, "lat": 50.133331}}, {"id": 2879176, "name": "Leinheim", "state": "", "country": "DE", "coord": {"lon": 10.3244, "lat": 48.440022}}, {"id": 2879185, "name": "Leinfelden-Echterdingen", "state": "", "country": "DE", "coord": {"lon": 9.16809, "lat": 48.694061}}, {"id": 2879193, "name": "Leinefelde-Worbis", "state": "", "country": "DE", "coord": {"lon": 10.33333, "lat": 51.383331}}, {"id": 2879199, "name": "Leinde", "state": "", "country": "DE", "coord": {"lon": 10.45, "lat": 52.133331}}, {"id": 2879200, "name": "Leinburg", "state": "", "country": "DE", "coord": {"lon": 11.31, "lat": 49.451672}}, {"id": 2879210, "name": "Leinach", "state": "", "country": "DE", "coord": {"lon": 10.41667, "lat": 50.23333}}, {"id": 2879222, "name": "Leimitz", "state": "", "country": "DE", "coord": {"lon": 11.95, "lat": 50.316669}}, {"id": 2879230, "name": "Leimersheim", "state": "", "country": "DE", "coord": {"lon": 8.35, "lat": 49.133331}}, {"id": 2879231, "name": "Leimersdorf", "state": "", "country": "DE", "coord": {"lon": 7.13333, "lat": 50.583328}}, {"id": 2879241, "name": "Leimen", "state": "", "country": "DE", "coord": {"lon": 8.68944, "lat": 49.351109}}, {"id": 2879242, "name": "Leimen", "state": "", "country": "DE", "coord": {"lon": 7.76667, "lat": 49.283329}}, {"id": 2879260, "name": "Leimbach", "state": "", "country": "DE", "coord": {"lon": 10.2, "lat": 50.816669}}, {"id": 2879262, "name": "Leimbach", "state": "", "country": "DE", "coord": {"lon": 6.92774, "lat": 50.403919}}, {"id": 2879263, "name": "Leimbach", "state": "", "country": "DE", "coord": {"lon": 6.25, "lat": 50.01667}}, {"id": 2879271, "name": "Leiha", "state": "", "country": "DE", "coord": {"lon": 11.86667, "lat": 51.26667}}, {"id": 2879275, "name": "Leiferde", "state": "", "country": "DE", "coord": {"lon": 10.43461, "lat": 52.43948}}, {"id": 2879276, "name": "Leiferde", "state": "", "country": "DE", "coord": {"lon": 10.50842, "lat": 52.204449}}, {"id": 2879280, "name": "Leienkaul", "state": "", "country": "DE", "coord": {"lon": 7.08333, "lat": 50.216671}}, {"id": 2879290, "name": "Leidling", "state": "", "country": "DE", "coord": {"lon": 11.06667, "lat": 48.700001}}, {"id": 2879299, "name": "Leidersbach", "state": "", "country": "DE", "coord": {"lon": 9.22167, "lat": 49.90139}}, {"id": 2879302, "name": "Leidenhofen", "state": "", "country": "DE", "coord": {"lon": 8.81667, "lat": 50.73333}}, {"id": 2879305, "name": "Leideneck", "state": "", "country": "DE", "coord": {"lon": 7.36667, "lat": 50.033329}}, {"id": 2879306, "name": "Leidendorf", "state": "", "country": "DE", "coord": {"lon": 10.63333, "lat": 49.216671}}, {"id": 2879307, "name": "Leidenborn", "state": "", "country": "DE", "coord": {"lon": 6.21667, "lat": 50.133331}}, {"id": 2879315, "name": "Leichlingen", "state": "", "country": "DE", "coord": {"lon": 7.01667, "lat": 51.116669}}, {"id": 2879326, "name": "Leiblfing", "state": "", "country": "DE", "coord": {"lon": 12.51667, "lat": 48.76667}}, {"id": 2879335, "name": "Leibertingen", "state": "", "country": "DE", "coord": {"lon": 9.1, "lat": 48.049999}}, {"id": 2879336, "name": "Leibersdorf", "state": "", "country": "DE", "coord": {"lon": 11.86667, "lat": 48.633331}}, {"id": 2879339, "name": "Leiberg", "state": "", "country": "DE", "coord": {"lon": 8.66667, "lat": 51.51667}}, {"id": 2879357, "name": "Lehsten", "state": "", "country": "DE", "coord": {"lon": 12.91667, "lat": 53.566669}}, {"id": 2879360, "name": "Lehsen", "state": "", "country": "DE", "coord": {"lon": 11.03333, "lat": 53.48333}}, {"id": 2879367, "name": "Lehrte", "state": "", "country": "DE", "coord": {"lon": 9.96667, "lat": 52.383331}}, {"id": 2879375, "name": "Lehrensteinsfeld", "state": "", "country": "DE", "coord": {"lon": 9.32722, "lat": 49.131111}}, {"id": 2879378, "name": "Lehre", "state": "", "country": "DE", "coord": {"lon": 10.66667, "lat": 52.333328}}, {"id": 2879381, "name": "Lehrberg", "state": "", "country": "DE", "coord": {"lon": 10.51667, "lat": 49.333328}}, {"id": 2879384, "name": "Lehrbach", "state": "", "country": "DE", "coord": {"lon": 9.05, "lat": 50.76667}}, {"id": 2879391, "name": "Lehnstedt", "state": "", "country": "DE", "coord": {"lon": 11.43333, "lat": 50.933331}}, {"id": 2879403, "name": "Lehnitz", "state": "", "country": "DE", "coord": {"lon": 13.26667, "lat": 52.75}}, {"id": 2879410, "name": "Lehnheim", "state": "", "country": "DE", "coord": {"lon": 8.98333, "lat": 50.616669}}, {"id": 2879437, "name": "Lehndorf", "state": "", "country": "DE", "coord": {"lon": 14.25, "lat": 51.216671}}, {"id": 2879461, "name": "Lehmrade", "state": "", "country": "DE", "coord": {"lon": 10.75, "lat": 53.599998}}, {"id": 2879464, "name": "Lehmkuhlen", "state": "", "country": "DE", "coord": {"lon": 10.36667, "lat": 54.23333}}, {"id": 2879470, "name": "Lehmkuhl", "state": "", "country": "DE", "coord": {"lon": 9.56528, "lat": 53.897018}}, {"id": 2879479, "name": "Lehmke", "state": "", "country": "DE", "coord": {"lon": 10.6418, "lat": 52.928051}}, {"id": 2879498, "name": "Lehmen", "state": "", "country": "DE", "coord": {"lon": 7.45, "lat": 50.283329}}, {"id": 2879532, "name": "Lehma", "state": "", "country": "DE", "coord": {"lon": 12.43333, "lat": 51.033329}}, {"id": 2879543, "name": "Lehesten", "state": "", "country": "DE", "coord": {"lon": 11.58333, "lat": 50.98333}}, {"id": 2879545, "name": "Lehesten", "state": "", "country": "DE", "coord": {"lon": 11.45, "lat": 50.466671}}, {"id": 2879549, "name": "Leherheide", "state": "", "country": "DE", "coord": {"lon": 8.62195, "lat": 53.594391}}, {"id": 2879615, "name": "Lehelitz", "state": "", "country": "DE", "coord": {"lon": 12.45974, "lat": 51.471489}}, {"id": 2879620, "name": "Lehe", "state": "", "country": "DE", "coord": {"lon": 9.01667, "lat": 54.333328}}, {"id": 2879621, "name": "Lehe", "state": "", "country": "DE", "coord": {"lon": 7.33333, "lat": 53.0}}, {"id": 2879652, "name": "Legefeld", "state": "", "country": "DE", "coord": {"lon": 11.29446, "lat": 50.932899}}, {"id": 2879653, "name": "Legden", "state": "", "country": "DE", "coord": {"lon": 7.1, "lat": 52.033329}}, {"id": 2879657, "name": "Legau", "state": "", "country": "DE", "coord": {"lon": 10.12981, "lat": 47.856281}}, {"id": 2879666, "name": "Leezen", "state": "", "country": "DE", "coord": {"lon": 10.25, "lat": 53.866669}}, {"id": 2879667, "name": "Leezen", "state": "", "country": "DE", "coord": {"lon": 11.49874, "lat": 53.662651}}, {"id": 2879668, "name": "Leezdorf", "state": "", "country": "DE", "coord": {"lon": 7.3, "lat": 53.549999}}, {"id": 2879670, "name": "Leetza", "state": "", "country": "DE", "coord": {"lon": 12.81667, "lat": 51.883331}}, {"id": 2879674, "name": "Leesten", "state": "", "country": "DE", "coord": {"lon": 11.02375, "lat": 49.869411}}, {"id": 2879685, "name": "Leese", "state": "", "country": "DE", "coord": {"lon": 9.11667, "lat": 52.5}}, {"id": 2879690, "name": "Leerort", "state": "", "country": "DE", "coord": {"lon": 7.43333, "lat": 53.216671}}, {"id": 2879697, "name": "Leer", "state": "", "country": "DE", "coord": {"lon": 7.461, "lat": 53.231571}}, {"id": 2879701, "name": "Leeheim", "state": "", "country": "DE", "coord": {"lon": 8.43944, "lat": 49.85667}}, {"id": 2879706, "name": "Leegmeer", "state": "", "country": "DE", "coord": {"lon": 6.25, "lat": 51.833328}}, {"id": 2879713, "name": "Leegebruch", "state": "", "country": "DE", "coord": {"lon": 13.19304, "lat": 52.7234}}, {"id": 2879717, "name": "Leeden", "state": "", "country": "DE", "coord": {"lon": 7.88333, "lat": 52.216671}}, {"id": 2879728, "name": "Lederhose", "state": "", "country": "DE", "coord": {"lon": 11.91667, "lat": 50.799999}}, {"id": 2879735, "name": "Lederberg", "state": "", "country": "DE", "coord": {"lon": 9.24242, "lat": 48.752602}}, {"id": 2879742, "name": "Ledde", "state": "", "country": "DE", "coord": {"lon": 7.81667, "lat": 52.23333}}, {"id": 2879745, "name": "Leckwitz", "state": "", "country": "DE", "coord": {"lon": 13.4, "lat": 51.299999}}, {"id": 2879758, "name": "Leck", "state": "", "country": "DE", "coord": {"lon": 8.98333, "lat": 54.76667}}, {"id": 2879759, "name": "Merzen", "state": "", "country": "DE", "coord": {"lon": 7.83333, "lat": 52.48333}}, {"id": 2879767, "name": "Lechstedt", "state": "", "country": "DE", "coord": {"lon": 10.03333, "lat": 52.116669}}, {"id": 2879789, "name": "Lechbruck", "state": "", "country": "DE", "coord": {"lon": 10.79493, "lat": 47.701618}}, {"id": 2879794, "name": "Lebusa", "state": "", "country": "DE", "coord": {"lon": 13.43333, "lat": 51.799999}}, {"id": 2879795, "name": "Lebus", "state": "", "country": "DE", "coord": {"lon": 14.53333, "lat": 52.416672}}, {"id": 2879797, "name": "Lebrade", "state": "", "country": "DE", "coord": {"lon": 10.41667, "lat": 54.216671}}, {"id": 2879800, "name": "Lebien", "state": "", "country": "DE", "coord": {"lon": 12.93333, "lat": 51.716671}}, {"id": 2879812, "name": "Lebenstedt", "state": "", "country": "DE", "coord": {"lon": 10.33333, "lat": 52.150002}}, {"id": 2879817, "name": "Lebendorf", "state": "", "country": "DE", "coord": {"lon": 11.78333, "lat": 51.716671}}, {"id": 2879831, "name": "Lebatz", "state": "", "country": "DE", "coord": {"lon": 10.55, "lat": 53.98333}}, {"id": 2879832, "name": "Lebach", "state": "", "country": "DE", "coord": {"lon": 6.91667, "lat": 49.400002}}, {"id": 2879834, "name": "Layen M\u00fchle", "state": "", "country": "DE", "coord": {"lon": 7.53333, "lat": 50.133331}}, {"id": 2879843, "name": "Lawitz", "state": "", "country": "DE", "coord": {"lon": 14.64151, "lat": 52.107029}}, {"id": 2879846, "name": "Lawalde", "state": "", "country": "DE", "coord": {"lon": 14.6, "lat": 51.083328}}, {"id": 2879850, "name": "Lavenstedt", "state": "", "country": "DE", "coord": {"lon": 9.19144, "lat": 53.341839}}, {"id": 2879859, "name": "Lautzert", "state": "", "country": "DE", "coord": {"lon": 7.66667, "lat": 50.650002}}, {"id": 2879861, "name": "Lautzenhausen", "state": "", "country": "DE", "coord": {"lon": 7.26667, "lat": 49.933331}}, {"id": 2879862, "name": "Lautzenbr\u00fccken", "state": "", "country": "DE", "coord": {"lon": 7.96667, "lat": 50.683331}}, {"id": 2879865, "name": "Lautrach", "state": "", "country": "DE", "coord": {"lon": 10.11806, "lat": 47.898048}}, {"id": 2879870, "name": "Lautertal", "state": "", "country": "DE", "coord": {"lon": 9.28333, "lat": 50.583328}}, {"id": 2879872, "name": "Lautert", "state": "", "country": "DE", "coord": {"lon": 7.83333, "lat": 50.166672}}, {"id": 2879875, "name": "Lautersheim", "state": "", "country": "DE", "coord": {"lon": 8.09833, "lat": 49.587219}}, {"id": 2879878, "name": "Lautersee", "state": "", "country": "DE", "coord": {"lon": 11.23333, "lat": 47.433331}}, {"id": 2879884, "name": "Lautern", "state": "", "country": "DE", "coord": {"lon": 8.72278, "lat": 49.721668}}, {"id": 2879892, "name": "Lauterhofen", "state": "", "country": "DE", "coord": {"lon": 11.61667, "lat": 49.366669}}, {"id": 2879895, "name": "Lauterecken", "state": "", "country": "DE", "coord": {"lon": 7.6, "lat": 49.650002}}, {"id": 2879897, "name": "Lauterbrunn", "state": "", "country": "DE", "coord": {"lon": 10.71667, "lat": 48.466671}}, {"id": 2879926, "name": "Lauterbach", "state": "", "country": "DE", "coord": {"lon": 10.35, "lat": 51.066669}}, {"id": 2879929, "name": "Lauterbach", "state": "", "country": "DE", "coord": {"lon": 9.4, "lat": 50.633331}}, {"id": 2879944, "name": "Lauterbach/Schwarzwald", "state": "", "country": "DE", "coord": {"lon": 8.3424, "lat": 48.229988}}, {"id": 2879950, "name": "Lauterach", "state": "", "country": "DE", "coord": {"lon": 9.58034, "lat": 48.256199}}, {"id": 2879964, "name": "Lauter", "state": "", "country": "DE", "coord": {"lon": 12.73333, "lat": 50.566669}}, {"id": 2879966, "name": "Lauter", "state": "", "country": "DE", "coord": {"lon": 10.78333, "lat": 49.966671}}, {"id": 2879970, "name": "Lautenthal", "state": "", "country": "DE", "coord": {"lon": 10.28741, "lat": 51.869339}}, {"id": 2879973, "name": "Lautenhausen", "state": "", "country": "DE", "coord": {"lon": 9.88333, "lat": 50.866669}}, {"id": 2879981, "name": "Lautenbach", "state": "", "country": "DE", "coord": {"lon": 8.02732, "lat": 48.48185}}, {"id": 2879989, "name": "Lautenbach", "state": "", "country": "DE", "coord": {"lon": 8.1, "lat": 48.51667}}, {"id": 2879994, "name": "Lauta Dorf", "state": "", "country": "DE", "coord": {"lon": 14.06667, "lat": 51.466671}}, {"id": 2880001, "name": "Lau\u00dfnitz", "state": "", "country": "DE", "coord": {"lon": 13.88333, "lat": 51.25}}, {"id": 2880002, "name": "Lau\u00dfig", "state": "", "country": "DE", "coord": {"lon": 12.6293, "lat": 51.546761}}, {"id": 2880011, "name": "Lausitz", "state": "", "country": "DE", "coord": {"lon": 13.35, "lat": 51.51667}}, {"id": 2880047, "name": "Lauschied", "state": "", "country": "DE", "coord": {"lon": 7.61667, "lat": 49.73333}}, {"id": 2880050, "name": "Lauschgr\u00fcn", "state": "", "country": "DE", "coord": {"lon": 12.26667, "lat": 50.599998}}, {"id": 2880052, "name": "Lauscha", "state": "", "country": "DE", "coord": {"lon": 11.15962, "lat": 50.476871}}, {"id": 2880067, "name": "Lausa", "state": "", "country": "DE", "coord": {"lon": 13.81667, "lat": 51.150002}}, {"id": 2880069, "name": "Laurenziberg", "state": "", "country": "DE", "coord": {"lon": 8.0, "lat": 49.933331}}, {"id": 2880073, "name": "Laurenburg", "state": "", "country": "DE", "coord": {"lon": 7.91667, "lat": 50.333328}}, {"id": 2880077, "name": "Laupheim", "state": "", "country": "DE", "coord": {"lon": 9.88333, "lat": 48.23333}}, {"id": 2880079, "name": "Lauperath", "state": "", "country": "DE", "coord": {"lon": 6.33333, "lat": 50.083328}}, {"id": 2880083, "name": "Launsbach", "state": "", "country": "DE", "coord": {"lon": 8.66667, "lat": 50.616669}}, {"id": 2880087, "name": "Laumersheim", "state": "", "country": "DE", "coord": {"lon": 8.23333, "lat": 49.549999}}, {"id": 2880099, "name": "Lauingen", "state": "", "country": "DE", "coord": {"lon": 10.42706, "lat": 48.567749}}, {"id": 2880102, "name": "Laugna", "state": "", "country": "DE", "coord": {"lon": 10.7, "lat": 48.533329}}, {"id": 2880111, "name": "Lauffen am Neckar", "state": "", "country": "DE", "coord": {"lon": 9.14694, "lat": 49.07444}}, {"id": 2880113, "name": "Laufersweiler", "state": "", "country": "DE", "coord": {"lon": 7.3, "lat": 49.900002}}, {"id": 2880117, "name": "Laufenselden", "state": "", "country": "DE", "coord": {"lon": 8.0, "lat": 50.216671}}, {"id": 2880121, "name": "Laufenburg", "state": "", "country": "DE", "coord": {"lon": 8.06045, "lat": 47.565121}}, {"id": 2880129, "name": "Laufen", "state": "", "country": "DE", "coord": {"lon": 12.93333, "lat": 47.950001}}, {"id": 2880130, "name": "Laufen", "state": "", "country": "DE", "coord": {"lon": 7.68408, "lat": 47.84174}}, {"id": 2880132, "name": "Laufeld", "state": "", "country": "DE", "coord": {"lon": 6.86667, "lat": 50.083328}}, {"id": 2880135, "name": "Laufdorf", "state": "", "country": "DE", "coord": {"lon": 8.45982, "lat": 50.516048}}, {"id": 2880144, "name": "Lauf an der Pegnitz", "state": "", "country": "DE", "coord": {"lon": 11.2775, "lat": 49.510281}}, {"id": 2880146, "name": "Laufach", "state": "", "country": "DE", "coord": {"lon": 9.3, "lat": 50.01667}}, {"id": 2880150, "name": "Lauf", "state": "", "country": "DE", "coord": {"lon": 8.13333, "lat": 48.650002}}, {"id": 2880160, "name": "Lauer", "state": "", "country": "DE", "coord": {"lon": 12.33333, "lat": 51.283329}}, {"id": 2880176, "name": "Lauenhagen", "state": "", "country": "DE", "coord": {"lon": 9.21667, "lat": 52.349998}}, {"id": 2880178, "name": "Lauenf\u00f6rde", "state": "", "country": "DE", "coord": {"lon": 10.38333, "lat": 51.666672}}, {"id": 2880181, "name": "Lauenburg", "state": "", "country": "DE", "coord": {"lon": 10.55654, "lat": 53.37199}}, {"id": 2880184, "name": "Lauenbr\u00fcck", "state": "", "country": "DE", "coord": {"lon": 9.56667, "lat": 53.200001}}, {"id": 2880189, "name": "Lauenau", "state": "", "country": "DE", "coord": {"lon": 9.36928, "lat": 52.27393}}, {"id": 2880191, "name": "Laue", "state": "", "country": "DE", "coord": {"lon": 12.36667, "lat": 51.566669}}, {"id": 2880196, "name": "Laudert", "state": "", "country": "DE", "coord": {"lon": 7.6, "lat": 50.083328}}, {"id": 2880203, "name": "Laudenbach", "state": "", "country": "DE", "coord": {"lon": 9.17611, "lat": 49.745831}}, {"id": 2880204, "name": "Laudenbach", "state": "", "country": "DE", "coord": {"lon": 8.65389, "lat": 49.613331}}, {"id": 2880205, "name": "Laudenbach", "state": "", "country": "DE", "coord": {"lon": 9.92833, "lat": 49.45472}}, {"id": 2880206, "name": "Laudenau", "state": "", "country": "DE", "coord": {"lon": 8.80639, "lat": 49.717499}}, {"id": 2880207, "name": "Lauda", "state": "", "country": "DE", "coord": {"lon": 9.7, "lat": 49.566669}}, {"id": 2880211, "name": "Lauchr\u00f6den", "state": "", "country": "DE", "coord": {"lon": 10.16667, "lat": 50.98333}}, {"id": 2880215, "name": "Lauchheim", "state": "", "country": "DE", "coord": {"lon": 10.24222, "lat": 48.871349}}, {"id": 2880221, "name": "Lauchhammer", "state": "", "country": "DE", "coord": {"lon": 13.8, "lat": 51.5}}, {"id": 2880224, "name": "Lauchdorf", "state": "", "country": "DE", "coord": {"lon": 10.5346, "lat": 47.967258}}, {"id": 2880228, "name": "Laucha", "state": "", "country": "DE", "coord": {"lon": 11.68333, "lat": 51.216671}}, {"id": 2880230, "name": "Laucha", "state": "", "country": "DE", "coord": {"lon": 10.53333, "lat": 50.933331}}, {"id": 2880231, "name": "Laubuseschbach", "state": "", "country": "DE", "coord": {"lon": 8.33333, "lat": 50.400002}}, {"id": 2880232, "name": "Laubusch", "state": "", "country": "DE", "coord": {"lon": 14.15, "lat": 51.48333}}, {"id": 2880242, "name": "Laubh\u00fctte", "state": "", "country": "DE", "coord": {"lon": 10.23479, "lat": 51.796089}}, {"id": 2880255, "name": "Lauberg", "state": "", "country": "DE", "coord": {"lon": 12.191, "lat": 47.781269}}, {"id": 2880266, "name": "Laubenkolonie", "state": "", "country": "DE", "coord": {"lon": 6.88333, "lat": 51.0}}, {"id": 2880271, "name": "Laubenheim", "state": "", "country": "DE", "coord": {"lon": 7.9, "lat": 49.916672}}, {"id": 2880280, "name": "Lauben", "state": "", "country": "DE", "coord": {"lon": 10.28333, "lat": 48.049999}}, {"id": 2880281, "name": "Lauben", "state": "", "country": "DE", "coord": {"lon": 10.03854, "lat": 47.869839}}, {"id": 2880282, "name": "Lauben", "state": "", "country": "DE", "coord": {"lon": 10.3, "lat": 47.783329}}, {"id": 2880308, "name": "Laubach", "state": "", "country": "DE", "coord": {"lon": 8.99034, "lat": 50.541962}}, {"id": 2880309, "name": "Laubach", "state": "", "country": "DE", "coord": {"lon": 8.42978, "lat": 50.363201}}, {"id": 2880310, "name": "Laubach", "state": "", "country": "DE", "coord": {"lon": 7.08333, "lat": 50.23333}}, {"id": 2880311, "name": "Laubach", "state": "", "country": "DE", "coord": {"lon": 7.5, "lat": 50.049999}}, {"id": 2880316, "name": "Lauba", "state": "", "country": "DE", "coord": {"lon": 14.56667, "lat": 51.083328}}, {"id": 2880321, "name": "Laub", "state": "", "country": "DE", "coord": {"lon": 10.66667, "lat": 48.900002}}, {"id": 2880350, "name": "Lathwehren", "state": "", "country": "DE", "coord": {"lon": 9.53957, "lat": 52.36113}}, {"id": 2880351, "name": "Lathen", "state": "", "country": "DE", "coord": {"lon": 7.31667, "lat": 52.866669}}, {"id": 2880355, "name": "Latendorf", "state": "", "country": "DE", "coord": {"lon": 10.06667, "lat": 54.0}}, {"id": 2880356, "name": "Latdorf", "state": "", "country": "DE", "coord": {"lon": 11.8, "lat": 51.799999}}, {"id": 2880357, "name": "Lastrup", "state": "", "country": "DE", "coord": {"lon": 7.85, "lat": 52.783329}}, {"id": 2880369, "name": "Lassentin", "state": "", "country": "DE", "coord": {"lon": 12.9055, "lat": 54.332142}}, {"id": 2880375, "name": "Lassan", "state": "", "country": "DE", "coord": {"lon": 13.85, "lat": 53.950001}}, {"id": 2880378, "name": "Lassahn", "state": "", "country": "DE", "coord": {"lon": 10.95337, "lat": 53.603512}}, {"id": 2880381, "name": "Laske", "state": "", "country": "DE", "coord": {"lon": 14.23333, "lat": 51.299999}}, {"id": 2880382, "name": "Laskau", "state": "", "country": "DE", "coord": {"lon": 11.66473, "lat": 50.659801}}, {"id": 2880388, "name": "Lasel", "state": "", "country": "DE", "coord": {"lon": 6.46667, "lat": 50.116669}}, {"id": 2880396, "name": "Lascheid", "state": "", "country": "DE", "coord": {"lon": 6.41667, "lat": 50.116669}}, {"id": 2880399, "name": "Lasbek", "state": "", "country": "DE", "coord": {"lon": 10.33333, "lat": 53.75}}, {"id": 2880400, "name": "Lasbek", "state": "", "country": "DE", "coord": {"lon": 10.36667, "lat": 53.73333}}, {"id": 2880404, "name": "L\u00e4rz", "state": "", "country": "DE", "coord": {"lon": 12.75, "lat": 53.299999}}, {"id": 2880425, "name": "Lappersdorf", "state": "", "country": "DE", "coord": {"lon": 12.09, "lat": 49.056938}}, {"id": 2880441, "name": "Lapitz", "state": "", "country": "DE", "coord": {"lon": 13.08333, "lat": 53.549999}}, {"id": 2880455, "name": "Lanzerath", "state": "", "country": "DE", "coord": {"lon": 6.91667, "lat": 50.533329}}, {"id": 2880458, "name": "Lanzenried", "state": "", "country": "DE", "coord": {"lon": 11.38333, "lat": 48.400002}}, {"id": 2880464, "name": "Lanzenhain", "state": "", "country": "DE", "coord": {"lon": 9.3, "lat": 50.533329}}, {"id": 2880483, "name": "Lanze", "state": "", "country": "DE", "coord": {"lon": 10.60492, "lat": 53.387131}}, {"id": 2880485, "name": "Lanz", "state": "", "country": "DE", "coord": {"lon": 11.6, "lat": 53.066669}}, {"id": 2880487, "name": "Lantershofen", "state": "", "country": "DE", "coord": {"lon": 7.1, "lat": 50.549999}}, {"id": 2880489, "name": "Lanstrop", "state": "", "country": "DE", "coord": {"lon": 7.56752, "lat": 51.575039}}, {"id": 2880496, "name": "Lannenberg", "state": "", "country": "DE", "coord": {"lon": 10.4, "lat": 47.966671}}, {"id": 2880498, "name": "Lankwitz", "state": "", "country": "DE", "coord": {"lon": 13.3459, "lat": 52.43623}}, {"id": 2880503, "name": "Lankow", "state": "", "country": "DE", "coord": {"lon": 11.36913, "lat": 53.64983}}, {"id": 2880504, "name": "Lank-Latum", "state": "", "country": "DE", "coord": {"lon": 6.68333, "lat": 51.299999}}, {"id": 2880508, "name": "Lankenreuth", "state": "", "country": "DE", "coord": {"lon": 11.61667, "lat": 49.849998}}, {"id": 2880515, "name": "Lankau", "state": "", "country": "DE", "coord": {"lon": 10.66667, "lat": 53.666672}}, {"id": 2880520, "name": "L\u00e4ngwitz", "state": "", "country": "DE", "coord": {"lon": 10.95, "lat": 50.833328}}, {"id": 2880528, "name": "Langwieden", "state": "", "country": "DE", "coord": {"lon": 7.5, "lat": 49.383331}}, {"id": 2880530, "name": "Langwied", "state": "", "country": "DE", "coord": {"lon": 11.08787, "lat": 48.179569}}, {"id": 2880536, "name": "Langweiler", "state": "", "country": "DE", "coord": {"lon": 7.18333, "lat": 49.783329}}, {"id": 2880537, "name": "Langweiler", "state": "", "country": "DE", "coord": {"lon": 7.51667, "lat": 49.666672}}, {"id": 2880539, "name": "Langweid", "state": "", "country": "DE", "coord": {"lon": 10.85, "lat": 48.48333}}, {"id": 2880540, "name": "Langweid", "state": "", "country": "DE", "coord": {"lon": 12.15, "lat": 47.783329}}, {"id": 2880546, "name": "Langwedel", "state": "", "country": "DE", "coord": {"lon": 9.93333, "lat": 54.216671}}, {"id": 2880547, "name": "Langwedel", "state": "", "country": "DE", "coord": {"lon": 9.21667, "lat": 52.966671}}, {"id": 2880564, "name": "Langula", "state": "", "country": "DE", "coord": {"lon": 10.41667, "lat": 51.150002}}, {"id": 2880565, "name": "Langsur", "state": "", "country": "DE", "coord": {"lon": 6.5, "lat": 49.716671}}, {"id": 2880572, "name": "Langst-Kierst", "state": "", "country": "DE", "coord": {"lon": 6.71667, "lat": 51.299999}}, {"id": 2880573, "name": "Langstedt", "state": "", "country": "DE", "coord": {"lon": 9.38333, "lat": 54.616669}}, {"id": 2880574, "name": "Langstadt", "state": "", "country": "DE", "coord": {"lon": 8.94972, "lat": 49.924171}}, {"id": 2880581, "name": "Langsdorf", "state": "", "country": "DE", "coord": {"lon": 8.85464, "lat": 50.493992}}, {"id": 2880583, "name": "Langschied", "state": "", "country": "DE", "coord": {"lon": 7.96667, "lat": 50.183331}}, {"id": 2880587, "name": "Langscheid", "state": "", "country": "DE", "coord": {"lon": 7.46667, "lat": 51.26667}}, {"id": 2880589, "name": "Langscheid", "state": "", "country": "DE", "coord": {"lon": 7.11667, "lat": 50.383331}}, {"id": 2880595, "name": "Langreder", "state": "", "country": "DE", "coord": {"lon": 9.5339, "lat": 52.305851}}, {"id": 2880597, "name": "Langquaid", "state": "", "country": "DE", "coord": {"lon": 12.05, "lat": 48.816669}}, {"id": 2880602, "name": "Langm\u00fchle", "state": "", "country": "DE", "coord": {"lon": 7.68333, "lat": 49.166672}}, {"id": 2880613, "name": "Langlingen", "state": "", "country": "DE", "coord": {"lon": 10.28333, "lat": 52.549999}}, {"id": 2880643, "name": "Langhennersdorf", "state": "", "country": "DE", "coord": {"lon": 13.25, "lat": 50.950001}}, {"id": 2880666, "name": "Langhagen", "state": "", "country": "DE", "coord": {"lon": 12.43627, "lat": 53.686241}}, {"id": 2880667, "name": "Langhagen", "state": "", "country": "DE", "coord": {"lon": 12.96667, "lat": 53.383331}}, {"id": 2880672, "name": "Langg\u00f6ns", "state": "", "country": "DE", "coord": {"lon": 8.66667, "lat": 50.5}}, {"id": 2880677, "name": "Langf\u00f6rden", "state": "", "country": "DE", "coord": {"lon": 8.25537, "lat": 52.78688}}, {"id": 2880684, "name": "Langewiesen", "state": "", "country": "DE", "coord": {"lon": 10.98333, "lat": 50.666672}}, {"id": 2880699, "name": "Langewahl", "state": "", "country": "DE", "coord": {"lon": 14.1, "lat": 52.333328}}, {"id": 2880726, "name": "Langerwehe", "state": "", "country": "DE", "coord": {"lon": 6.35, "lat": 50.816669}}, {"id": 2880758, "name": "Langerringen", "state": "", "country": "DE", "coord": {"lon": 10.76667, "lat": 48.150002}}, {"id": 2880861, "name": "Langeoog", "state": "", "country": "DE", "coord": {"lon": 7.48333, "lat": 53.75}}, {"id": 2880862, "name": "Langenzenn", "state": "", "country": "DE", "coord": {"lon": 10.8, "lat": 49.5}}, {"id": 2880864, "name": "Langenwolschendorf", "state": "", "country": "DE", "coord": {"lon": 11.96667, "lat": 50.633331}}, {"id": 2880865, "name": "Langenwolmsdorf", "state": "", "country": "DE", "coord": {"lon": 14.11657, "lat": 51.042469}}, {"id": 2880871, "name": "Langenwetzendorf", "state": "", "country": "DE", "coord": {"lon": 12.11667, "lat": 50.683331}}, {"id": 2880873, "name": "Langenweddingen", "state": "", "country": "DE", "coord": {"lon": 11.52569, "lat": 52.033699}}, {"id": 2880878, "name": "Langenvils", "state": "", "country": "DE", "coord": {"lon": 12.13333, "lat": 48.450001}}, {"id": 2880886, "name": "Langenthal", "state": "", "country": "DE", "coord": {"lon": 7.56667, "lat": 49.833328}}, {"id": 2880905, "name": "Langenstein", "state": "", "country": "DE", "coord": {"lon": 10.98333, "lat": 51.849998}}, {"id": 2880911, "name": "Langensohl", "state": "", "country": "DE", "coord": {"lon": 7.75712, "lat": 49.369968}}, {"id": 2880912, "name": "Langensendelbach", "state": "", "country": "DE", "coord": {"lon": 11.07104, "lat": 49.640511}}, {"id": 2880913, "name": "Langenselbold", "state": "", "country": "DE", "coord": {"lon": 9.04003, "lat": 50.176571}}, {"id": 2880914, "name": "Langenseifen", "state": "", "country": "DE", "coord": {"lon": 7.75, "lat": 50.950001}}, {"id": 2880926, "name": "Langenscheid", "state": "", "country": "DE", "coord": {"lon": 7.95166, "lat": 50.35598}}, {"id": 2880930, "name": "Langensalzwedel", "state": "", "country": "DE", "coord": {"lon": 11.94489, "lat": 52.58094}}, {"id": 2880938, "name": "Langenrieth", "state": "", "country": "DE", "coord": {"lon": 13.26667, "lat": 51.466671}}, {"id": 2880948, "name": "Langenreichenbach", "state": "", "country": "DE", "coord": {"lon": 12.9, "lat": 51.48333}}, {"id": 2880951, "name": "Langenrehm", "state": "", "country": "DE", "coord": {"lon": 9.86667, "lat": 53.400002}}, {"id": 2880957, "name": "Langenpreising", "state": "", "country": "DE", "coord": {"lon": 11.96667, "lat": 48.433331}}, {"id": 2880960, "name": "Langenorla", "state": "", "country": "DE", "coord": {"lon": 11.58333, "lat": 50.73333}}, {"id": 2880965, "name": "Langenneufnach", "state": "", "country": "DE", "coord": {"lon": 10.6, "lat": 48.26667}}, {"id": 2880968, "name": "Langenmosen", "state": "", "country": "DE", "coord": {"lon": 11.21667, "lat": 48.599998}}, {"id": 2880978, "name": "Langenlonsheim", "state": "", "country": "DE", "coord": {"lon": 7.9, "lat": 49.900002}}, {"id": 2880986, "name": "Langenleuba-Oberhain", "state": "", "country": "DE", "coord": {"lon": 12.66667, "lat": 50.966671}}, {"id": 2880987, "name": "Langenleuba-Niederhain", "state": "", "country": "DE", "coord": {"lon": 12.6, "lat": 50.966671}}, {"id": 2880988, "name": "Langenleiten", "state": "", "country": "DE", "coord": {"lon": 9.98333, "lat": 50.333328}}, {"id": 2880991, "name": "Langenlehsten", "state": "", "country": "DE", "coord": {"lon": 10.74068, "lat": 53.501011}}, {"id": 2880996, "name": "Langenkamp", "state": "", "country": "DE", "coord": {"lon": 9.27272, "lat": 51.862709}}, {"id": 2881000, "name": "Langen Jarchow", "state": "", "country": "DE", "coord": {"lon": 11.65, "lat": 53.76667}}, {"id": 2881017, "name": "Langenhorn", "state": "", "country": "DE", "coord": {"lon": 9.26667, "lat": 54.333328}}, {"id": 2881018, "name": "Langenhorn", "state": "", "country": "DE", "coord": {"lon": 10.00137, "lat": 53.665562}}, {"id": 2881019, "name": "Langenhorn", "state": "", "country": "DE", "coord": {"lon": 8.91667, "lat": 54.666672}}, {"id": 2881032, "name": "Langenhessen", "state": "", "country": "DE", "coord": {"lon": 12.36667, "lat": 50.76667}}, {"id": 2881033, "name": "Langenhennersdorf", "state": "", "country": "DE", "coord": {"lon": 14.01667, "lat": 50.883331}}, {"id": 2881039, "name": "Langenhaslach", "state": "", "country": "DE", "coord": {"lon": 10.37659, "lat": 48.315048}}, {"id": 2881054, "name": "Langenhain", "state": "", "country": "DE", "coord": {"lon": 10.51667, "lat": 50.916672}}, {"id": 2881056, "name": "Langenhain", "state": "", "country": "DE", "coord": {"lon": 8.38333, "lat": 50.099998}}, {"id": 2881057, "name": "Langenhahn", "state": "", "country": "DE", "coord": {"lon": 7.91667, "lat": 50.583328}}, {"id": 2881062, "name": "Langenhagen", "state": "", "country": "DE", "coord": {"lon": 9.75, "lat": 52.450001}}, {"id": 2881069, "name": "Langengrassau", "state": "", "country": "DE", "coord": {"lon": 13.65, "lat": 51.833328}}, {"id": 2881074, "name": "Langenforth", "state": "", "country": "DE", "coord": {"lon": 9.73333, "lat": 52.450001}}, {"id": 2881085, "name": "Langenfeld", "state": "", "country": "DE", "coord": {"lon": 6.95, "lat": 51.099998}}, {"id": 2881087, "name": "Langenfeld", "state": "", "country": "DE", "coord": {"lon": 7.1, "lat": 50.383331}}, {"id": 2881088, "name": "Langenfeld", "state": "", "country": "DE", "coord": {"lon": 10.51667, "lat": 49.616669}}, {"id": 2881091, "name": "Langene\u00df", "state": "", "country": "DE", "coord": {"lon": 8.63333, "lat": 54.633331}}, {"id": 2881093, "name": "Langenerling", "state": "", "country": "DE", "coord": {"lon": 12.25, "lat": 48.900002}}, {"id": 2881094, "name": "Langenenslingen", "state": "", "country": "DE", "coord": {"lon": 9.37765, "lat": 48.14851}}, {"id": 2881097, "name": "Langeneichst\u00e4dt", "state": "", "country": "DE", "coord": {"lon": 11.75, "lat": 51.349998}}, {"id": 2881106, "name": "Langendorf", "state": "", "country": "DE", "coord": {"lon": 11.25, "lat": 53.099998}}, {"id": 2881107, "name": "Langendorf", "state": "", "country": "DE", "coord": {"lon": 11.96667, "lat": 51.183331}}, {"id": 2881108, "name": "Langendorf", "state": "", "country": "DE", "coord": {"lon": 12.26667, "lat": 51.083328}}, {"id": 2881115, "name": "Langendernbach", "state": "", "country": "DE", "coord": {"lon": 8.05, "lat": 50.549999}}, {"id": 2881128, "name": "Langenburg", "state": "", "country": "DE", "coord": {"lon": 9.84583, "lat": 49.25444}}, {"id": 2881130, "name": "Langen Br\u00fctz", "state": "", "country": "DE", "coord": {"lon": 11.55, "lat": 53.650002}}, {"id": 2881140, "name": "Langenbruch", "state": "", "country": "DE", "coord": {"lon": 7.98333, "lat": 51.366669}}, {"id": 2881150, "name": "Langenbogen", "state": "", "country": "DE", "coord": {"lon": 11.78333, "lat": 51.48333}}, {"id": 2881152, "name": "Langenbieber", "state": "", "country": "DE", "coord": {"lon": 9.83577, "lat": 50.572281}}, {"id": 2881153, "name": "Langenbeutingen", "state": "", "country": "DE", "coord": {"lon": 9.40667, "lat": 49.215}}, {"id": 2881154, "name": "Langenbernsdorf", "state": "", "country": "DE", "coord": {"lon": 12.3, "lat": 50.75}}, {"id": 2881175, "name": "Langenberg", "state": "", "country": "DE", "coord": {"lon": 8.31667, "lat": 51.783329}}, {"id": 2881226, "name": "Langenbach bei Marienberg", "state": "", "country": "DE", "coord": {"lon": 7.95, "lat": 50.633331}}, {"id": 2881227, "name": "Langenbach bei Kirburg", "state": "", "country": "DE", "coord": {"lon": 7.93333, "lat": 50.700001}}, {"id": 2881240, "name": "Langenbach", "state": "", "country": "DE", "coord": {"lon": 8.37673, "lat": 50.399761}}, {"id": 2881243, "name": "Langenbach", "state": "", "country": "DE", "coord": {"lon": 7.32771, "lat": 49.493549}}, {"id": 2881244, "name": "Langenbach", "state": "", "country": "DE", "coord": {"lon": 11.85, "lat": 48.433331}}, {"id": 2881259, "name": "Langenau", "state": "", "country": "DE", "coord": {"lon": 10.11849, "lat": 48.496159}}, {"id": 2881263, "name": "Langenargen", "state": "", "country": "DE", "coord": {"lon": 9.55, "lat": 47.599998}}, {"id": 2881264, "name": "Langenapel", "state": "", "country": "DE", "coord": {"lon": 10.96667, "lat": 52.816669}}, {"id": 2881267, "name": "Langenaltheim", "state": "", "country": "DE", "coord": {"lon": 10.93333, "lat": 48.900002}}, {"id": 2881268, "name": "Langenalb", "state": "", "country": "DE", "coord": {"lon": 8.49964, "lat": 48.844269}}, {"id": 2881276, "name": "Langen", "state": "", "country": "DE", "coord": {"lon": 8.59509, "lat": 53.605541}}, {"id": 2881278, "name": "Langen", "state": "", "country": "DE", "coord": {"lon": 7.46667, "lat": 52.533329}}, {"id": 2881279, "name": "Langen", "state": "", "country": "DE", "coord": {"lon": 8.67278, "lat": 49.993328}}, {"id": 2881291, "name": "Langelsheim", "state": "", "country": "DE", "coord": {"lon": 10.33333, "lat": 51.933331}}, {"id": 2881301, "name": "Langeln", "state": "", "country": "DE", "coord": {"lon": 9.85, "lat": 53.799999}}, {"id": 2881303, "name": "Langeln", "state": "", "country": "DE", "coord": {"lon": 10.78333, "lat": 51.916672}}, {"id": 2881344, "name": "Langebr\u00fcck", "state": "", "country": "DE", "coord": {"lon": 13.85, "lat": 51.133331}}, {"id": 2881377, "name": "Langdorf", "state": "", "country": "DE", "coord": {"lon": 13.14651, "lat": 49.015018}}, {"id": 2881378, "name": "Langdorf", "state": "", "country": "DE", "coord": {"lon": 13.35, "lat": 48.900002}}, {"id": 2881398, "name": "Langballigkaten", "state": "", "country": "DE", "coord": {"lon": 9.63333, "lat": 54.816669}}, {"id": 2881402, "name": "Langballig", "state": "", "country": "DE", "coord": {"lon": 9.63333, "lat": 54.799999}}, {"id": 2881410, "name": "Langackern", "state": "", "country": "DE", "coord": {"lon": 7.86667, "lat": 47.933331}}, {"id": 2881416, "name": "Landw\u00fcst", "state": "", "country": "DE", "coord": {"lon": 12.33333, "lat": 50.26667}}, {"id": 2881477, "name": "Landstuhl", "state": "", "country": "DE", "coord": {"lon": 7.56667, "lat": 49.416672}}, {"id": 2881479, "name": "Landstetten", "state": "", "country": "DE", "coord": {"lon": 11.24657, "lat": 47.986252}}, {"id": 2881485, "name": "Landshut", "state": "", "country": "DE", "coord": {"lon": 12.15, "lat": 48.533329}}, {"id": 2881490, "name": "Landsham", "state": "", "country": "DE", "coord": {"lon": 11.77571, "lat": 48.18623}}, {"id": 2881499, "name": "Landscheide", "state": "", "country": "DE", "coord": {"lon": 9.25292, "lat": 53.920109}}, {"id": 2881500, "name": "Landscheid", "state": "", "country": "DE", "coord": {"lon": 6.76667, "lat": 49.98333}}, {"id": 2881505, "name": "Landsberied", "state": "", "country": "DE", "coord": {"lon": 11.16667, "lat": 48.166672}}, {"id": 2881508, "name": "Landsberg", "state": "", "country": "DE", "coord": {"lon": 12.16667, "lat": 51.51667}}, {"id": 2881509, "name": "Landsberg am Lech", "state": "", "country": "DE", "coord": {"lon": 10.88282, "lat": 48.048191}}, {"id": 2881516, "name": "Landringhausen", "state": "", "country": "DE", "coord": {"lon": 9.46455, "lat": 52.35453}}, {"id": 2881519, "name": "Landrecht", "state": "", "country": "DE", "coord": {"lon": 9.36667, "lat": 53.933331}}, {"id": 2881522, "name": "Landorf", "state": "", "country": "DE", "coord": {"lon": 12.66667, "lat": 49.066669}}, {"id": 2881526, "name": "Landolfshausen", "state": "", "country": "DE", "coord": {"lon": 10.1, "lat": 51.533329}}, {"id": 2881528, "name": "Landmark", "state": "", "country": "DE", "coord": {"lon": 8.96667, "lat": 53.75}}, {"id": 2881531, "name": "Landmannsdorf", "state": "", "country": "DE", "coord": {"lon": 11.09469, "lat": 48.352711}}, {"id": 2881541, "name": "Landkern", "state": "", "country": "DE", "coord": {"lon": 7.15, "lat": 50.200001}}, {"id": 2881548, "name": "Landin", "state": "", "country": "DE", "coord": {"lon": 12.53531, "lat": 52.6642}}, {"id": 2881599, "name": "Landesbergen", "state": "", "country": "DE", "coord": {"lon": 9.13333, "lat": 52.566669}}, {"id": 2881622, "name": "Landensberg", "state": "", "country": "DE", "coord": {"lon": 10.52422, "lat": 48.434441}}, {"id": 2881624, "name": "Landenhausen", "state": "", "country": "DE", "coord": {"lon": 9.48333, "lat": 50.616669}}, {"id": 2881630, "name": "Landefeld", "state": "", "country": "DE", "coord": {"lon": 9.7, "lat": 51.099998}}, {"id": 2881646, "name": "Landau in der Pfalz", "state": "", "country": "DE", "coord": {"lon": 8.11333, "lat": 49.2075}}, {"id": 2881650, "name": "Landau an der Isar", "state": "", "country": "DE", "coord": {"lon": 12.69316, "lat": 48.672489}}, {"id": 2881654, "name": "Lancken-Granitz", "state": "", "country": "DE", "coord": {"lon": 13.63333, "lat": 54.366669}}, {"id": 2881656, "name": "Lancken", "state": "", "country": "DE", "coord": {"lon": 11.93768, "lat": 53.468842}}, {"id": 2881659, "name": "Lamstedt", "state": "", "country": "DE", "coord": {"lon": 9.1, "lat": 53.633331}}, {"id": 2881661, "name": "Lamspringe", "state": "", "country": "DE", "coord": {"lon": 10.01667, "lat": 51.966671}}, {"id": 2881664, "name": "Lamscheid", "state": "", "country": "DE", "coord": {"lon": 7.56667, "lat": 50.150002}}, {"id": 2881676, "name": "Lampoding", "state": "", "country": "DE", "coord": {"lon": 12.80122, "lat": 47.943081}}, {"id": 2881682, "name": "Lampertswalde", "state": "", "country": "DE", "coord": {"lon": 13.66667, "lat": 51.316669}}, {"id": 2881685, "name": "Lampertsm\u00fchle", "state": "", "country": "DE", "coord": {"lon": 7.71667, "lat": 49.48333}}, {"id": 2881695, "name": "Lampertheim", "state": "", "country": "DE", "coord": {"lon": 8.47194, "lat": 49.60194}}, {"id": 2881708, "name": "L\u00e4mpelberg", "state": "", "country": "DE", "coord": {"lon": 12.46667, "lat": 50.366669}}, {"id": 2881709, "name": "Lampaden", "state": "", "country": "DE", "coord": {"lon": 6.7, "lat": 49.650002}}, {"id": 2881728, "name": "Lammershagen", "state": "", "country": "DE", "coord": {"lon": 10.45, "lat": 54.283329}}, {"id": 2881731, "name": "Lammersdorf", "state": "", "country": "DE", "coord": {"lon": 6.68333, "lat": 50.26667}}, {"id": 2881764, "name": "Lamerdingen", "state": "", "country": "DE", "coord": {"lon": 10.73982, "lat": 48.091949}}, {"id": 2881767, "name": "Lambsheim", "state": "", "country": "DE", "coord": {"lon": 8.28778, "lat": 49.513611}}, {"id": 2881768, "name": "Lambsborn", "state": "", "country": "DE", "coord": {"lon": 7.43333, "lat": 49.366669}}, {"id": 2881770, "name": "Lambrechtshagen", "state": "", "country": "DE", "coord": {"lon": 12.01667, "lat": 54.099998}}, {"id": 2881771, "name": "Lambrecht", "state": "", "country": "DE", "coord": {"lon": 8.06833, "lat": 49.371391}}, {"id": 2881776, "name": "Lambertsberg", "state": "", "country": "DE", "coord": {"lon": 6.38333, "lat": 50.083328}}, {"id": 2881786, "name": "Lam", "state": "", "country": "DE", "coord": {"lon": 13.05051, "lat": 49.196651}}, {"id": 2881787, "name": "Lalling", "state": "", "country": "DE", "coord": {"lon": 13.14008, "lat": 48.845249}}, {"id": 2881789, "name": "Lalendorf", "state": "", "country": "DE", "coord": {"lon": 12.38983, "lat": 53.75774}}, {"id": 2881801, "name": "Lake", "state": "", "country": "DE", "coord": {"lon": 9.13333, "lat": 52.916672}}, {"id": 2881834, "name": "Laimerstadt", "state": "", "country": "DE", "coord": {"lon": 11.71667, "lat": 48.883331}}, {"id": 2881835, "name": "Laimering", "state": "", "country": "DE", "coord": {"lon": 11.08701, "lat": 48.388889}}, {"id": 2881849, "name": "Laileh\u00e4user", "state": "", "country": "DE", "coord": {"lon": 7.88333, "lat": 47.833328}}, {"id": 2881857, "name": "Laichingen", "state": "", "country": "DE", "coord": {"lon": 9.68612, "lat": 48.489391}}, {"id": 2881876, "name": "Lahrbach", "state": "", "country": "DE", "coord": {"lon": 7.6, "lat": 50.633331}}, {"id": 2881878, "name": "Lahr", "state": "", "country": "DE", "coord": {"lon": 7.25, "lat": 50.666672}}, {"id": 2881882, "name": "Lahr", "state": "", "country": "DE", "coord": {"lon": 7.36539, "lat": 50.125092}}, {"id": 2881883, "name": "Lahr", "state": "", "country": "DE", "coord": {"lon": 6.28333, "lat": 49.933331}}, {"id": 2881885, "name": "Lahr", "state": "", "country": "DE", "coord": {"lon": 7.86667, "lat": 48.349998}}, {"id": 2881889, "name": "Lahnstein", "state": "", "country": "DE", "coord": {"lon": 7.61667, "lat": 50.299999}}, {"id": 2881910, "name": "Lahn", "state": "", "country": "DE", "coord": {"lon": 7.61667, "lat": 52.816669}}, {"id": 2881920, "name": "Lahe", "state": "", "country": "DE", "coord": {"lon": 9.81667, "lat": 52.416672}}, {"id": 2881921, "name": "L\u00e4hden", "state": "", "country": "DE", "coord": {"lon": 7.56667, "lat": 52.75}}, {"id": 2881929, "name": "Laggenbeck", "state": "", "country": "DE", "coord": {"lon": 7.76667, "lat": 52.25}}, {"id": 2881931, "name": "Lagesb\u00fcttel", "state": "", "country": "DE", "coord": {"lon": 10.4583, "lat": 52.348869}}, {"id": 2881938, "name": "Lager Fallingbostel", "state": "", "country": "DE", "coord": {"lon": 9.71667, "lat": 52.849998}}, {"id": 2881939, "name": "L\u00e4gerdorf", "state": "", "country": "DE", "coord": {"lon": 9.58333, "lat": 53.883331}}, {"id": 2881942, "name": "Lagendorf", "state": "", "country": "DE", "coord": {"lon": 10.85, "lat": 52.833328}}, {"id": 2881948, "name": "Lageltshausen", "state": "", "country": "DE", "coord": {"lon": 11.66956, "lat": 48.382118}}, {"id": 2881953, "name": "Lage", "state": "", "country": "DE", "coord": {"lon": 6.96667, "lat": 52.466671}}, {"id": 2881956, "name": "Lage", "state": "", "country": "DE", "coord": {"lon": 8.79301, "lat": 51.992229}}, {"id": 2881972, "name": "Bad Laer", "state": "", "country": "DE", "coord": {"lon": 8.08333, "lat": 52.099998}}, {"id": 2881973, "name": "Laer", "state": "", "country": "DE", "coord": {"lon": 7.35775, "lat": 52.05555}}, {"id": 2881978, "name": "Laderholz", "state": "", "country": "DE", "coord": {"lon": 9.48481, "lat": 52.627121}}, {"id": 2881980, "name": "Ladenburg", "state": "", "country": "DE", "coord": {"lon": 8.60694, "lat": 49.474998}}, {"id": 2881982, "name": "Ladelundfeld", "state": "", "country": "DE", "coord": {"lon": 9.01667, "lat": 54.849998}}, {"id": 2881984, "name": "Ladelund", "state": "", "country": "DE", "coord": {"lon": 9.01667, "lat": 54.849998}}, {"id": 2881987, "name": "Ladeburg", "state": "", "country": "DE", "coord": {"lon": 13.58829, "lat": 52.701149}}, {"id": 2881991, "name": "Ladbergen", "state": "", "country": "DE", "coord": {"lon": 7.75, "lat": 52.133331}}, {"id": 2881999, "name": "Lackerau", "state": "", "country": "DE", "coord": {"lon": 13.73333, "lat": 48.76667}}, {"id": 2882003, "name": "Lackenbach", "state": "", "country": "DE", "coord": {"lon": 12.82783, "lat": 47.96027}}, {"id": 2882028, "name": "Lachendorf", "state": "", "country": "DE", "coord": {"lon": 10.25, "lat": 52.616669}}, {"id": 2882033, "name": "Lachen", "state": "", "country": "DE", "coord": {"lon": 10.23943, "lat": 47.9459}}, {"id": 2882057, "name": "Labrun", "state": "", "country": "DE", "coord": {"lon": 12.96667, "lat": 51.666672}}, {"id": 2882058, "name": "Lab\u00f6mitz", "state": "", "country": "DE", "coord": {"lon": 14.06667, "lat": 53.916672}}, {"id": 2882059, "name": "Laboe", "state": "", "country": "DE", "coord": {"lon": 10.21667, "lat": 54.400002}}, {"id": 2882061, "name": "Laberweinting", "state": "", "country": "DE", "coord": {"lon": 12.31667, "lat": 48.799999}}, {"id": 2882073, "name": "Labenz", "state": "", "country": "DE", "coord": {"lon": 10.51667, "lat": 53.700001}}, {"id": 2882087, "name": "Laatzen", "state": "", "country": "DE", "coord": {"lon": 9.8, "lat": 52.316669}}, {"id": 2882091, "name": "Bad Laasphe", "state": "", "country": "DE", "coord": {"lon": 8.4, "lat": 50.933331}}, {"id": 2882093, "name": "Laasow", "state": "", "country": "DE", "coord": {"lon": 14.08333, "lat": 51.716671}}, {"id": 2882103, "name": "Laasdorf", "state": "", "country": "DE", "coord": {"lon": 11.66667, "lat": 50.866669}}, {"id": 2882107, "name": "Laas", "state": "", "country": "DE", "coord": {"lon": 13.15, "lat": 51.366669}}, {"id": 2882114, "name": "Laar", "state": "", "country": "DE", "coord": {"lon": 6.73333, "lat": 52.616669}}, {"id": 2882115, "name": "Laar", "state": "", "country": "DE", "coord": {"lon": 8.25, "lat": 52.349998}}, {"id": 2882141, "name": "Laage", "state": "", "country": "DE", "coord": {"lon": 12.35, "lat": 53.933331}}, {"id": 2882150, "name": "Laach", "state": "", "country": "DE", "coord": {"lon": 6.56931, "lat": 51.08223}}, {"id": 2882161, "name": "Kyritz", "state": "", "country": "DE", "coord": {"lon": 12.39704, "lat": 52.94212}}, {"id": 2882166, "name": "Kyllburgweiler", "state": "", "country": "DE", "coord": {"lon": 6.61667, "lat": 50.049999}}, {"id": 2882167, "name": "Kyllburg", "state": "", "country": "DE", "coord": {"lon": 6.58333, "lat": 50.033329}}, {"id": 2882172, "name": "Kyhna", "state": "", "country": "DE", "coord": {"lon": 12.26667, "lat": 51.51667}}, {"id": 2882183, "name": "Kutzow", "state": "", "country": "DE", "coord": {"lon": 14.13333, "lat": 53.883331}}, {"id": 2882184, "name": "Kutzleben", "state": "", "country": "DE", "coord": {"lon": 10.75, "lat": 51.200001}}, {"id": 2882192, "name": "Kutzenhausen", "state": "", "country": "DE", "coord": {"lon": 10.7, "lat": 48.333328}}, {"id": 2882195, "name": "K\u00fctzberg", "state": "", "country": "DE", "coord": {"lon": 10.11667, "lat": 50.083328}}, {"id": 2882197, "name": "K\u00fcttig", "state": "", "country": "DE", "coord": {"lon": 7.36582, "lat": 50.272991}}, {"id": 2882208, "name": "K\u00fctten", "state": "", "country": "DE", "coord": {"lon": 12.0, "lat": 51.583328}}, {"id": 2882224, "name": "Kutenholz", "state": "", "country": "DE", "coord": {"lon": 9.33333, "lat": 53.48333}}, {"id": 2882226, "name": "K\u00fcte", "state": "", "country": "DE", "coord": {"lon": 8.65, "lat": 52.416672}}, {"id": 2882232, "name": "Kustrena", "state": "", "country": "DE", "coord": {"lon": 11.71667, "lat": 51.73333}}, {"id": 2882237, "name": "Kusterdingen", "state": "", "country": "DE", "coord": {"lon": 9.11977, "lat": 48.522911}}, {"id": 2882243, "name": "K\u00fcsten", "state": "", "country": "DE", "coord": {"lon": 11.06667, "lat": 52.98333}}, {"id": 2882244, "name": "K\u00fcstelberg", "state": "", "country": "DE", "coord": {"lon": 8.6, "lat": 51.216671}}, {"id": 2882250, "name": "K\u00fcsserow", "state": "", "country": "DE", "coord": {"lon": 12.7, "lat": 53.866669}}, {"id": 2882260, "name": "Kusey", "state": "", "country": "DE", "coord": {"lon": 11.08333, "lat": 52.566669}}, {"id": 2882263, "name": "K\u00fcsel", "state": "", "country": "DE", "coord": {"lon": 11.96667, "lat": 52.76667}}, {"id": 2882265, "name": "Kusel", "state": "", "country": "DE", "coord": {"lon": 7.4, "lat": 49.549999}}, {"id": 2882283, "name": "Kurzen Trechow", "state": "", "country": "DE", "coord": {"lon": 11.91667, "lat": 53.866669}}, {"id": 2882308, "name": "Kurtscheid", "state": "", "country": "DE", "coord": {"lon": 7.46667, "lat": 50.533329}}, {"id": 2882318, "name": "K\u00fcrten", "state": "", "country": "DE", "coord": {"lon": 7.26667, "lat": 51.049999}}, {"id": 2882321, "name": "Kursdorf", "state": "", "country": "DE", "coord": {"lon": 12.23333, "lat": 51.416672}}, {"id": 2882325, "name": "K\u00fcrrighoven", "state": "", "country": "DE", "coord": {"lon": 7.15, "lat": 50.633331}}, {"id": 2882329, "name": "Seiffen", "state": "", "country": "DE", "coord": {"lon": 13.45, "lat": 50.650002}}, {"id": 2882331, "name": "Kurort Oybin", "state": "", "country": "DE", "coord": {"lon": 14.75, "lat": 50.849998}}, {"id": 2882332, "name": "Kurort Oberwiesenthal", "state": "", "country": "DE", "coord": {"lon": 12.98333, "lat": 50.416672}}, {"id": 2882334, "name": "Kurort Jonsdorf", "state": "", "country": "DE", "coord": {"lon": 14.7, "lat": 50.849998}}, {"id": 2882335, "name": "Kurort Gohrisch", "state": "", "country": "DE", "coord": {"lon": 14.10687, "lat": 50.912338}}, {"id": 2882342, "name": "K\u00fcrnbach", "state": "", "country": "DE", "coord": {"lon": 8.84556, "lat": 49.077499}}, {"id": 2882347, "name": "K\u00fcrnach", "state": "", "country": "DE", "coord": {"lon": 10.03333, "lat": 49.849998}}, {"id": 2882348, "name": "K\u00fcrn", "state": "", "country": "DE", "coord": {"lon": 12.21667, "lat": 49.116669}}, {"id": 2882360, "name": "K\u00fcrbitz", "state": "", "country": "DE", "coord": {"lon": 12.06667, "lat": 50.466671}}, {"id": 2882361, "name": "Kurbersdorf", "state": "", "country": "DE", "coord": {"lon": 11.9, "lat": 49.799999}},