[{"id": 2928307, "name": "Ewattingen", "state": "", "country": "DE", "coord": {"lon": 8.44385, "lat": 47.837589}}, {"id": 2928315, "name": "Evessen", "state": "", "country": "DE", "coord": {"lon": 10.71081, "lat": 52.188881}}, {"id": 2928320, "name": "Everswinkel", "state": "", "country": "DE", "coord": {"lon": 7.85, "lat": 51.933331}}, {"id": 2928325, "name": "Eversmeer", "state": "", "country": "DE", "coord": {"lon": 7.43333, "lat": 53.549999}}, {"id": 2928344, "name": "Everode", "state": "", "country": "DE", "coord": {"lon": 9.91667, "lat": 51.950001}}, {"id": 2928362, "name": "Evenhausen", "state": "", "country": "DE", "coord": {"lon": 12.28333, "lat": 48.033329}}, {"id": 2928364, "name": "Evendorf", "state": "", "country": "DE", "coord": {"lon": 10.06667, "lat": 53.150002}}, {"id": 2928372, "name": "Eutzsch", "state": "", "country": "DE", "coord": {"lon": 12.63333, "lat": 51.816669}}, {"id": 2928379, "name": "Eutingen an der Enz", "state": "", "country": "DE", "coord": {"lon": 8.75, "lat": 48.916672}}, {"id": 2928381, "name": "Eutin", "state": "", "country": "DE", "coord": {"lon": 10.61667, "lat": 54.133331}}, {"id": 2928392, "name": "Eu\u00dferthal", "state": "", "country": "DE", "coord": {"lon": 7.96667, "lat": 49.25}}, {"id": 2928394, "name": "Eu\u00dfenheim", "state": "", "country": "DE", "coord": {"lon": 9.81667, "lat": 49.98333}}, {"id": 2928396, "name": "Euskirchen", "state": "", "country": "DE", "coord": {"lon": 6.78333, "lat": 50.666672}}, {"id": 2928399, "name": "Euscheid", "state": "", "country": "DE", "coord": {"lon": 6.3, "lat": 50.133331}}, {"id": 2928407, "name": "Eurasburg", "state": "", "country": "DE", "coord": {"lon": 11.08333, "lat": 48.333328}}, {"id": 2928408, "name": "Eurasburg", "state": "", "country": "DE", "coord": {"lon": 11.40587, "lat": 47.853889}}, {"id": 2928409, "name": "Euper", "state": "", "country": "DE", "coord": {"lon": 12.705, "lat": 51.90033}}, {"id": 2928414, "name": "Eulsbach", "state": "", "country": "DE", "coord": {"lon": 8.76667, "lat": 49.683331}}, {"id": 2928415, "name": "Eulowitz", "state": "", "country": "DE", "coord": {"lon": 14.46667, "lat": 51.116669}}, {"id": 2928422, "name": "Eulgem", "state": "", "country": "DE", "coord": {"lon": 7.16667, "lat": 50.23333}}, {"id": 2928434, "name": "Eulenried", "state": "", "country": "DE", "coord": {"lon": 11.41667, "lat": 48.583328}}, {"id": 2928464, "name": "Eulenbis", "state": "", "country": "DE", "coord": {"lon": 7.63333, "lat": 49.5}}, {"id": 2928467, "name": "Eulenberg", "state": "", "country": "DE", "coord": {"lon": 10.85, "lat": 53.366669}}, {"id": 2928469, "name": "Eulenberg", "state": "", "country": "DE", "coord": {"lon": 7.47577, "lat": 50.606071}}, {"id": 2928502, "name": "Eulau", "state": "", "country": "DE", "coord": {"lon": 12.25, "lat": 51.166672}}, {"id": 2928507, "name": "Eula", "state": "", "country": "DE", "coord": {"lon": 12.18333, "lat": 50.73333}}, {"id": 2928516, "name": "Euerhausen", "state": "", "country": "DE", "coord": {"lon": 9.94889, "lat": 49.611671}}, {"id": 2928518, "name": "Euerdorf", "state": "", "country": "DE", "coord": {"lon": 10.02331, "lat": 50.148529}}, {"id": 2928520, "name": "Euerbach", "state": "", "country": "DE", "coord": {"lon": 10.13695, "lat": 50.061989}}, {"id": 2928521, "name": "Euenheim", "state": "", "country": "DE", "coord": {"lon": 6.75, "lat": 50.650002}}, {"id": 2928541, "name": "Euba", "state": "", "country": "DE", "coord": {"lon": 13.03333, "lat": 50.833328}}, {"id": 2928553, "name": "Etzleben", "state": "", "country": "DE", "coord": {"lon": 11.16667, "lat": 51.26667}}, {"id": 2928556, "name": "Etzin", "state": "", "country": "DE", "coord": {"lon": 12.85, "lat": 52.51667}}, {"id": 2928562, "name": "Etzenrot", "state": "", "country": "DE", "coord": {"lon": 8.46642, "lat": 48.912121}}, {"id": 2928564, "name": "Etzenricht", "state": "", "country": "DE", "coord": {"lon": 12.1, "lat": 49.633331}}, {"id": 2928568, "name": "Etzenhausen", "state": "", "country": "DE", "coord": {"lon": 11.43956, "lat": 48.27}}, {"id": 2928572, "name": "Etzenborn", "state": "", "country": "DE", "coord": {"lon": 10.16459, "lat": 51.461712}}, {"id": 2928583, "name": "Etzelwang", "state": "", "country": "DE", "coord": {"lon": 11.58333, "lat": 49.533329}}, {"id": 2928584, "name": "Etzelsrode", "state": "", "country": "DE", "coord": {"lon": 10.61667, "lat": 51.5}}, {"id": 2928590, "name": "Etzel", "state": "", "country": "DE", "coord": {"lon": 7.9, "lat": 53.466671}}, {"id": 2928596, "name": "Etzdorf", "state": "", "country": "DE", "coord": {"lon": 11.31667, "lat": 49.75}}, {"id": 2928600, "name": "Etzbach", "state": "", "country": "DE", "coord": {"lon": 7.68333, "lat": 50.783329}}, {"id": 2928605, "name": "Ettringen", "state": "", "country": "DE", "coord": {"lon": 7.21667, "lat": 50.349998}}, {"id": 2928615, "name": "Ettlingen", "state": "", "country": "DE", "coord": {"lon": 8.40763, "lat": 48.940941}}, {"id": 2928617, "name": "Ettling", "state": "", "country": "DE", "coord": {"lon": 12.8, "lat": 48.700001}}, {"id": 2928619, "name": "Ettlenschie\u00df", "state": "", "country": "DE", "coord": {"lon": 9.92473, "lat": 48.563831}}, {"id": 2928625, "name": "Ettingshausen", "state": "", "country": "DE", "coord": {"lon": 8.90854, "lat": 50.556198}}, {"id": 2928626, "name": "Ettinghausen", "state": "", "country": "DE", "coord": {"lon": 7.87252, "lat": 50.51564}}, {"id": 2928632, "name": "Etting", "state": "", "country": "DE", "coord": {"lon": 11.16667, "lat": 47.799999}}, {"id": 2928634, "name": "Ettiching", "state": "", "country": "DE", "coord": {"lon": 12.5, "lat": 48.316669}}, {"id": 2928635, "name": "Etterzhausen", "state": "", "country": "DE", "coord": {"lon": 11.98333, "lat": 49.033329}}, {"id": 2928636, "name": "Etterwinden", "state": "", "country": "DE", "coord": {"lon": 10.3, "lat": 50.900002}}, {"id": 2928640, "name": "Etterschlag", "state": "", "country": "DE", "coord": {"lon": 11.20116, "lat": 48.086681}}, {"id": 2928642, "name": "Ettersburg", "state": "", "country": "DE", "coord": {"lon": 11.28333, "lat": 51.049999}}, {"id": 2928647, "name": "Ettenstatt", "state": "", "country": "DE", "coord": {"lon": 11.05538, "lat": 49.077518}}, {"id": 2928659, "name": "Ettenheim", "state": "", "country": "DE", "coord": {"lon": 7.81667, "lat": 48.25}}, {"id": 2928661, "name": "Ettenhausen", "state": "", "country": "DE", "coord": {"lon": 10.23333, "lat": 50.883331}}, {"id": 2928665, "name": "Ettendorf", "state": "", "country": "DE", "coord": {"lon": 12.65, "lat": 47.883331}}, {"id": 2928666, "name": "Ettenb\u00fcttel", "state": "", "country": "DE", "coord": {"lon": 10.41667, "lat": 52.5}}, {"id": 2928670, "name": "Ettenbeuren", "state": "", "country": "DE", "coord": {"lon": 10.36491, "lat": 48.373241}}, {"id": 2928679, "name": "Etteln", "state": "", "country": "DE", "coord": {"lon": 8.76667, "lat": 51.633331}}, {"id": 2928681, "name": "Etteldorf", "state": "", "country": "DE", "coord": {"lon": 6.56667, "lat": 50.033329}}, {"id": 2928684, "name": "Ettal", "state": "", "country": "DE", "coord": {"lon": 11.1, "lat": 47.566669}}, {"id": 2928686, "name": "Etsdorf", "state": "", "country": "DE", "coord": {"lon": 12.01667, "lat": 49.450001}}, {"id": 2928692, "name": "Etschberg", "state": "", "country": "DE", "coord": {"lon": 7.43333, "lat": 49.51667}}, {"id": 2928698, "name": "Etgert", "state": "", "country": "DE", "coord": {"lon": 7.01667, "lat": 49.783329}}, {"id": 2928700, "name": "Etgersleben", "state": "", "country": "DE", "coord": {"lon": 11.41667, "lat": 51.98333}}, {"id": 2928711, "name": "Estorf", "state": "", "country": "DE", "coord": {"lon": 9.2, "lat": 53.583328}}, {"id": 2928712, "name": "Estorf", "state": "", "country": "DE", "coord": {"lon": 9.15, "lat": 52.583328}}, {"id": 2928714, "name": "Esting", "state": "", "country": "DE", "coord": {"lon": 11.31667, "lat": 48.200001}}, {"id": 2928715, "name": "Esthal", "state": "", "country": "DE", "coord": {"lon": 7.98333, "lat": 49.383331}}, {"id": 2928717, "name": "Esterwegen", "state": "", "country": "DE", "coord": {"lon": 7.63327, "lat": 52.992882}}, {"id": 2928729, "name": "Esterhofen", "state": "", "country": "DE", "coord": {"lon": 11.45, "lat": 48.366669}}, {"id": 2928738, "name": "Estenfeld", "state": "", "country": "DE", "coord": {"lon": 10.01667, "lat": 49.833328}}, {"id": 2928740, "name": "Estedt", "state": "", "country": "DE", "coord": {"lon": 11.36667, "lat": 52.583328}}, {"id": 2928743, "name": "E\u00dfweiler", "state": "", "country": "DE", "coord": {"lon": 7.56667, "lat": 49.549999}}, {"id": 2928748, "name": "Landkreis Esslingen", "state": "", "country": "DE", "coord": {"lon": 9.36333, "lat": 48.66917}}, {"id": 2928750, "name": "E\u00dflingen", "state": "", "country": "DE", "coord": {"lon": 11.0198, "lat": 48.887859}}, {"id": 2928751, "name": "Esslingen", "state": "", "country": "DE", "coord": {"lon": 9.30473, "lat": 48.739609}}, {"id": 2928754, "name": "E\u00dfleben", "state": "", "country": "DE", "coord": {"lon": 11.46667, "lat": 51.150002}}, {"id": 2928760, "name": "Essingen", "state": "", "country": "DE", "coord": {"lon": 8.17472, "lat": 49.235828}}, {"id": 2928761, "name": "Essingen", "state": "", "country": "DE", "coord": {"lon": 10.02773, "lat": 48.80859}}, {"id": 2928764, "name": "Essing", "state": "", "country": "DE", "coord": {"lon": 11.78333, "lat": 48.933331}}, {"id": 2928770, "name": "E\u00dffeld", "state": "", "country": "DE", "coord": {"lon": 9.95, "lat": 49.666672}}, {"id": 2928775, "name": "Esseratsweiler", "state": "", "country": "DE", "coord": {"lon": 9.71667, "lat": 47.616669}}, {"id": 2928779, "name": "Essentho", "state": "", "country": "DE", "coord": {"lon": 8.83333, "lat": 51.48333}}, {"id": 2928785, "name": "Essenrode", "state": "", "country": "DE", "coord": {"lon": 10.63333, "lat": 52.366669}}, {"id": 2928793, "name": "Essenheim", "state": "", "country": "DE", "coord": {"lon": 8.15556, "lat": 49.930561}}, {"id": 2928804, "name": "Essenbach", "state": "", "country": "DE", "coord": {"lon": 12.21667, "lat": 48.616669}}, {"id": 2928809, "name": "Essen", "state": "", "country": "DE", "coord": {"lon": 7.91667, "lat": 52.700001}}, {"id": 2928810, "name": "Essen", "state": "", "country": "DE", "coord": {"lon": 7.01667, "lat": 51.450001}}, {"id": 2928816, "name": "Esselborn", "state": "", "country": "DE", "coord": {"lon": 8.11861, "lat": 49.715279}}, {"id": 2928819, "name": "Esselbach", "state": "", "country": "DE", "coord": {"lon": 9.52583, "lat": 49.855282}}, {"id": 2928821, "name": "Essel", "state": "", "country": "DE", "coord": {"lon": 9.65, "lat": 52.683331}}, {"id": 2928823, "name": "Esseite", "state": "", "country": "DE", "coord": {"lon": 7.03333, "lat": 52.200001}}, {"id": 2928836, "name": "E\u00dfbach", "state": "", "country": "DE", "coord": {"lon": 11.68333, "lat": 50.583328}}, {"id": 2928838, "name": "Esprehm", "state": "", "country": "DE", "coord": {"lon": 9.63333, "lat": 54.466671}}, {"id": 2928845, "name": "Esperstoft", "state": "", "country": "DE", "coord": {"lon": 9.33333, "lat": 54.549999}}, {"id": 2928850, "name": "Esperke", "state": "", "country": "DE", "coord": {"lon": 9.60703, "lat": 52.632751}}, {"id": 2928856, "name": "Espenscheid", "state": "", "country": "DE", "coord": {"lon": 7.9, "lat": 50.116669}}, {"id": 2928862, "name": "Espenhain", "state": "", "country": "DE", "coord": {"lon": 12.46667, "lat": 51.183331}}, {"id": 2928868, "name": "Espenau", "state": "", "country": "DE", "coord": {"lon": 9.47021, "lat": 51.396641}}, {"id": 2928874, "name": "Espelkamp", "state": "", "country": "DE", "coord": {"lon": 8.61667, "lat": 52.383331}}, {"id": 2928885, "name": "Espa", "state": "", "country": "DE", "coord": {"lon": 8.59577, "lat": 50.42263}}, {"id": 2928890, "name": "Eslohe", "state": "", "country": "DE", "coord": {"lon": 8.16667, "lat": 51.25}}, {"id": 2928894, "name": "Eslarn", "state": "", "country": "DE", "coord": {"lon": 12.53333, "lat": 49.583328}}, {"id": 2928905, "name": "Esgrus", "state": "", "country": "DE", "coord": {"lon": 9.78333, "lat": 54.716671}}, {"id": 2928911, "name": "Esens", "state": "", "country": "DE", "coord": {"lon": 7.61267, "lat": 53.648659}}, {"id": 2928921, "name": "Eselsheide", "state": "", "country": "DE", "coord": {"lon": 8.66667, "lat": 51.866669}}, {"id": 2928927, "name": "Eselsburg", "state": "", "country": "DE", "coord": {"lon": 14.1, "lat": 51.26667}}, {"id": 2928957, "name": "Esebeck", "state": "", "country": "DE", "coord": {"lon": 9.85, "lat": 51.566669}}, {"id": 2928959, "name": "Eschweiler \u00fcber Feld", "state": "", "country": "DE", "coord": {"lon": 6.58333, "lat": 50.816669}}, {"id": 2928963, "name": "Eschweiler", "state": "", "country": "DE", "coord": {"lon": 6.28333, "lat": 50.816669}}, {"id": 2928967, "name": "Eschwege", "state": "", "country": "DE", "coord": {"lon": 10.06667, "lat": 51.183331}}, {"id": 2928971, "name": "Eschringen", "state": "", "country": "DE", "coord": {"lon": 7.1, "lat": 49.183331}}, {"id": 2928979, "name": "Eschlkam", "state": "", "country": "DE", "coord": {"lon": 12.91667, "lat": 49.299999}}, {"id": 2929000, "name": "Eschhofen", "state": "", "country": "DE", "coord": {"lon": 8.11667, "lat": 50.383331}}, {"id": 2929002, "name": "Eschfeld", "state": "", "country": "DE", "coord": {"lon": 6.2, "lat": 50.116669}}, {"id": 2929008, "name": "Eschershausen", "state": "", "country": "DE", "coord": {"lon": 9.64282, "lat": 51.92664}}, {"id": 2929009, "name": "Eschershausen", "state": "", "country": "DE", "coord": {"lon": 9.63535, "lat": 51.678089}}, {"id": 2929012, "name": "Escherode", "state": "", "country": "DE", "coord": {"lon": 9.66667, "lat": 51.316669}}, {"id": 2929035, "name": "Eschenried", "state": "", "country": "DE", "coord": {"lon": 11.41179, "lat": 48.217468}}, {"id": 2929038, "name": "Eschenlohe", "state": "", "country": "DE", "coord": {"lon": 12.03012, "lat": 48.017311}}, {"id": 2929039, "name": "Eschenlohe", "state": "", "country": "DE", "coord": {"lon": 11.18333, "lat": 47.599998}}, {"id": 2929049, "name": "Eschenhahn", "state": "", "country": "DE", "coord": {"lon": 8.23333, "lat": 50.183331}}, {"id": 2929053, "name": "Eschenfelden", "state": "", "country": "DE", "coord": {"lon": 11.61667, "lat": 49.583328}}, {"id": 2929063, "name": "Eschenbergen", "state": "", "country": "DE", "coord": {"lon": 10.75, "lat": 51.033329}}, {"id": 2929090, "name": "Eschenbach", "state": "", "country": "DE", "coord": {"lon": 10.66667, "lat": 49.48333}}, {"id": 2929091, "name": "Eschenbach", "state": "", "country": "DE", "coord": {"lon": 9.67037, "lat": 48.652641}}, {"id": 2929095, "name": "Eschenau", "state": "", "country": "DE", "coord": {"lon": 7.48333, "lat": 49.599998}}, {"id": 2929112, "name": "Eschelbronn", "state": "", "country": "DE", "coord": {"lon": 8.86528, "lat": 49.319439}}, {"id": 2929114, "name": "Eschelbacherhof", "state": "", "country": "DE", "coord": {"lon": 7.31667, "lat": 49.583328}}, {"id": 2929122, "name": "Eschede", "state": "", "country": "DE", "coord": {"lon": 10.2354, "lat": 52.73494}}, {"id": 2929123, "name": "Escheburg", "state": "", "country": "DE", "coord": {"lon": 10.31667, "lat": 53.466671}}, {"id": 2929131, "name": "Esche", "state": "", "country": "DE", "coord": {"lon": 6.96667, "lat": 52.533329}}, {"id": 2929134, "name": "Eschborn", "state": "", "country": "DE", "coord": {"lon": 8.55, "lat": 50.133331}}, {"id": 2929156, "name": "Eschbach", "state": "", "country": "DE", "coord": {"lon": 7.72717, "lat": 50.213928}}, {"id": 2929157, "name": "Eschbach", "state": "", "country": "DE", "coord": {"lon": 8.01917, "lat": 49.174438}}, {"id": 2929158, "name": "Eschbach", "state": "", "country": "DE", "coord": {"lon": 7.65541, "lat": 47.891022}}, {"id": 2929159, "name": "Eschbach", "state": "", "country": "DE", "coord": {"lon": 8.18333, "lat": 47.633331}}, {"id": 2929165, "name": "Eschau", "state": "", "country": "DE", "coord": {"lon": 9.2575, "lat": 49.82}}, {"id": 2929177, "name": "Eschach", "state": "", "country": "DE", "coord": {"lon": 9.86999, "lat": 48.888321}}, {"id": 2929180, "name": "Eschach", "state": "", "country": "DE", "coord": {"lon": 9.6, "lat": 47.73333}}, {"id": 2929189, "name": "Esch", "state": "", "country": "DE", "coord": {"lon": 6.83333, "lat": 50.5}}, {"id": 2929190, "name": "Esch", "state": "", "country": "DE", "coord": {"lon": 6.61667, "lat": 50.366669}}, {"id": 2929192, "name": "Esch", "state": "", "country": "DE", "coord": {"lon": 6.85, "lat": 49.900002}}, {"id": 2929224, "name": "Erzhausen", "state": "", "country": "DE", "coord": {"lon": 8.6475, "lat": 49.95528}}, {"id": 2929227, "name": "Erzenhausen", "state": "", "country": "DE", "coord": {"lon": 7.61667, "lat": 49.5}}, {"id": 2929242, "name": "Erzbach", "state": "", "country": "DE", "coord": {"lon": 8.86667, "lat": 49.683331}}, {"id": 2929245, "name": "Erxleben", "state": "", "country": "DE", "coord": {"lon": 11.24245, "lat": 52.218121}}, {"id": 2929247, "name": "Erwitte", "state": "", "country": "DE", "coord": {"lon": 8.35, "lat": 51.616669}}, {"id": 2929252, "name": "Ertingen", "state": "", "country": "DE", "coord": {"lon": 9.46667, "lat": 48.099998}}, {"id": 2929253, "name": "Erter", "state": "", "country": "DE", "coord": {"lon": 7.85, "lat": 51.933331}}, {"id": 2929264, "name": "Ersingen", "state": "", "country": "DE", "coord": {"lon": 9.85, "lat": 48.283329}}, {"id": 2929267, "name": "Ershausen", "state": "", "country": "DE", "coord": {"lon": 10.16132, "lat": 51.25708}}, {"id": 2929269, "name": "Ersfeld", "state": "", "country": "DE", "coord": {"lon": 7.51667, "lat": 50.700001}}, {"id": 2929279, "name": "Erpolzheim", "state": "", "country": "DE", "coord": {"lon": 8.22472, "lat": 49.48917}}, {"id": 2929296, "name": "Erpenburg", "state": "", "country": "DE", "coord": {"lon": 8.6, "lat": 51.583328}}, {"id": 2929298, "name": "Erpen", "state": "", "country": "DE", "coord": {"lon": 8.16667, "lat": 52.116669}}, {"id": 2929302, "name": "Erpel", "state": "", "country": "DE", "coord": {"lon": 7.23333, "lat": 50.583328}}, {"id": 2929305, "name": "Erolzheim", "state": "", "country": "DE", "coord": {"lon": 10.073, "lat": 48.090012}}, {"id": 2929307, "name": "Ernzen", "state": "", "country": "DE", "coord": {"lon": 6.41667, "lat": 49.849998}}, {"id": 2929311, "name": "Ernst-Th\u00e4lmann-Siedlung", "state": "", "country": "DE", "coord": {"lon": 14.63937, "lat": 52.228588}}, {"id": 2929314, "name": "Ernstroda", "state": "", "country": "DE", "coord": {"lon": 10.61667, "lat": 50.866669}}, {"id": 2929320, "name": "Ernsting", "state": "", "country": "DE", "coord": {"lon": 13.54846, "lat": 48.729221}}, {"id": 2929333, "name": "Ernsthausen", "state": "", "country": "DE", "coord": {"lon": 8.35, "lat": 50.450001}}, {"id": 2929350, "name": "Ernst", "state": "", "country": "DE", "coord": {"lon": 7.23333, "lat": 50.150002}}, {"id": 2929353, "name": "Ernsgaden", "state": "", "country": "DE", "coord": {"lon": 11.58333, "lat": 48.73333}}, {"id": 2929355, "name": "Ernsee", "state": "", "country": "DE", "coord": {"lon": 12.03333, "lat": 50.883331}}, {"id": 2929370, "name": "Erndtebr\u00fcck", "state": "", "country": "DE", "coord": {"lon": 8.26667, "lat": 50.98333}}, {"id": 2929375, "name": "Ermstedt", "state": "", "country": "DE", "coord": {"lon": 10.88333, "lat": 50.966671}}, {"id": 2929377, "name": "Ermsleben", "state": "", "country": "DE", "coord": {"lon": 11.33333, "lat": 51.73333}}, {"id": 2929379, "name": "Ermschwerd", "state": "", "country": "DE", "coord": {"lon": 9.81667, "lat": 51.366669}}, {"id": 2929383, "name": "Ermlitz", "state": "", "country": "DE", "coord": {"lon": 12.15946, "lat": 51.391819}}, {"id": 2929385, "name": "Ermke", "state": "", "country": "DE", "coord": {"lon": 7.88333, "lat": 52.833328}}, {"id": 2929393, "name": "Ermershausen", "state": "", "country": "DE", "coord": {"lon": 10.61667, "lat": 50.216671}}, {"id": 2929396, "name": "Ermengerst", "state": "", "country": "DE", "coord": {"lon": 10.26667, "lat": 47.73333}}, {"id": 2929408, "name": "Erlst\u00e4tt", "state": "", "country": "DE", "coord": {"lon": 12.58333, "lat": 47.883331}}, {"id": 2929418, "name": "Erlingshofen", "state": "", "country": "DE", "coord": {"lon": 10.71667, "lat": 48.683331}}, {"id": 2929422, "name": "Erlinghagen", "state": "", "country": "DE", "coord": {"lon": 7.48333, "lat": 51.049999}}, {"id": 2929423, "name": "Erlingen", "state": "", "country": "DE", "coord": {"lon": 10.83333, "lat": 48.533329}}, {"id": 2929424, "name": "Andechs", "state": "", "country": "DE", "coord": {"lon": 11.18333, "lat": 47.966671}}, {"id": 2929429, "name": "Erligheim", "state": "", "country": "DE", "coord": {"lon": 9.09722, "lat": 49.022499}}, {"id": 2929439, "name": "Erlhammer", "state": "", "country": "DE", "coord": {"lon": 12.11667, "lat": 49.849998}}, {"id": 2929451, "name": "Erlensee", "state": "", "country": "DE", "coord": {"lon": 8.97823, "lat": 50.16304}}, {"id": 2929452, "name": "Erlenmoos", "state": "", "country": "DE", "coord": {"lon": 9.98333, "lat": 48.066669}}, {"id": 2929483, "name": "Erlenbach bei Marktheidenfeld", "state": "", "country": "DE", "coord": {"lon": 9.62889, "lat": 49.819439}}, {"id": 2929484, "name": "Erlenbach am Main", "state": "", "country": "DE", "coord": {"lon": 9.16389, "lat": 49.80389}}, {"id": 2929499, "name": "Erlenbach", "state": "", "country": "DE", "coord": {"lon": 9.63333, "lat": 49.98333}}, {"id": 2929506, "name": "Erlenbach", "state": "", "country": "DE", "coord": {"lon": 9.26833, "lat": 49.172501}}, {"id": 2929530, "name": "Erle", "state": "", "country": "DE", "coord": {"lon": 7.08333, "lat": 51.549999}}, {"id": 2929541, "name": "Erlbach", "state": "", "country": "DE", "coord": {"lon": 12.36667, "lat": 50.316669}}, {"id": 2929549, "name": "Erlbach", "state": "", "country": "DE", "coord": {"lon": 12.78333, "lat": 48.299999}}, {"id": 2929557, "name": "Erlau", "state": "", "country": "DE", "coord": {"lon": 12.93333, "lat": 51.01667}}, {"id": 2929558, "name": "Erlau", "state": "", "country": "DE", "coord": {"lon": 10.75, "lat": 50.533329}}, {"id": 2929567, "name": "Erlangen", "state": "", "country": "DE", "coord": {"lon": 11.00389, "lat": 49.589722}}, {"id": 2929594, "name": "Erlabrunn", "state": "", "country": "DE", "coord": {"lon": 9.84417, "lat": 49.859718}}, {"id": 2929595, "name": "Erlabronn", "state": "", "country": "DE", "coord": {"lon": 10.46667, "lat": 49.700001}}, {"id": 2929596, "name": "Erla", "state": "", "country": "DE", "coord": {"lon": 12.8, "lat": 50.51667}}, {"id": 2929600, "name": "Erkrath", "state": "", "country": "DE", "coord": {"lon": 6.9, "lat": 51.216671}}, {"id": 2929602, "name": "Erkner", "state": "", "country": "DE", "coord": {"lon": 13.75, "lat": 52.416672}}, {"id": 2929603, "name": "Erkmannsdorf", "state": "", "country": "DE", "coord": {"lon": 11.7, "lat": 50.599998}}, {"id": 2929605, "name": "Erkheim", "state": "", "country": "DE", "coord": {"lon": 10.35, "lat": 48.049999}}, {"id": 2929607, "name": "Erkertshofen", "state": "", "country": "DE", "coord": {"lon": 11.2215, "lat": 48.978409}}, {"id": 2929610, "name": "Erkerode", "state": "", "country": "DE", "coord": {"lon": 10.71667, "lat": 52.216671}}, {"id": 2929613, "name": "Erkenschwick", "state": "", "country": "DE", "coord": {"lon": 7.25, "lat": 51.633331}}, {"id": 2929614, "name": "Erkenbrechtsweiler", "state": "", "country": "DE", "coord": {"lon": 9.43211, "lat": 48.556561}}, {"id": 2929622, "name": "Erkelenz", "state": "", "country": "DE", "coord": {"lon": 6.31667, "lat": 51.083328}}, {"id": 2929625, "name": "Erisried", "state": "", "country": "DE", "coord": {"lon": 10.43333, "lat": 48.0}}, {"id": 2929626, "name": "Eriskirch", "state": "", "country": "DE", "coord": {"lon": 9.53333, "lat": 47.633331}}, {"id": 2929631, "name": "Ering", "state": "", "country": "DE", "coord": {"lon": 13.15029, "lat": 48.29921}}, {"id": 2929642, "name": "Erharting", "state": "", "country": "DE", "coord": {"lon": 12.58333, "lat": 48.283329}}, {"id": 2929648, "name": "Ergste", "state": "", "country": "DE", "coord": {"lon": 7.56667, "lat": 51.416672}}, {"id": 2929649, "name": "Ergoldsbach", "state": "", "country": "DE", "coord": {"lon": 12.2, "lat": 48.683331}}, {"id": 2929650, "name": "Ergolding", "state": "", "country": "DE", "coord": {"lon": 12.16667, "lat": 48.583328}}, {"id": 2929655, "name": "Ergeshausen", "state": "", "country": "DE", "coord": {"lon": 7.93333, "lat": 50.26667}}, {"id": 2929658, "name": "Ergersheim", "state": "", "country": "DE", "coord": {"lon": 10.33333, "lat": 49.51667}}, {"id": 2929665, "name": "Erfweiler", "state": "", "country": "DE", "coord": {"lon": 7.81231, "lat": 49.15712}}, {"id": 2929670, "name": "Erfurt", "state": "", "country": "DE", "coord": {"lon": 11.03333, "lat": 50.98333}}, {"id": 2929671, "name": "Erftstadt", "state": "", "country": "DE", "coord": {"lon": 6.76667, "lat": 50.816669}}, {"id": 2929680, "name": "Erfelden", "state": "", "country": "DE", "coord": {"lon": 8.46806, "lat": 49.83556}}, {"id": 2929685, "name": "Erfde", "state": "", "country": "DE", "coord": {"lon": 9.31667, "lat": 54.299999}}, {"id": 2929689, "name": "Eresing", "state": "", "country": "DE", "coord": {"lon": 11.03333, "lat": 48.083328}}, {"id": 2929692, "name": "Erdweg", "state": "", "country": "DE", "coord": {"lon": 11.30339, "lat": 48.331799}}, {"id": 2929704, "name": "Erdmannsdorf", "state": "", "country": "DE", "coord": {"lon": 13.06667, "lat": 50.816669}}, {"id": 2929708, "name": "Erdmannhausen", "state": "", "country": "DE", "coord": {"lon": 9.3, "lat": 48.933331}}, {"id": 2929715, "name": "Erding", "state": "", "country": "DE", "coord": {"lon": 11.90686, "lat": 48.30603}}, {"id": 2929716, "name": "Landkreis Erding", "state": "", "country": "DE", "coord": {"lon": 12.00611, "lat": 48.305279}}, {"id": 2929720, "name": "Erdesbach", "state": "", "country": "DE", "coord": {"lon": 7.45, "lat": 49.566669}}, {"id": 2929724, "name": "Erden", "state": "", "country": "DE", "coord": {"lon": 7.01667, "lat": 49.98333}}, {"id": 2929737, "name": "Erda", "state": "", "country": "DE", "coord": {"lon": 8.51667, "lat": 50.666672}}, {"id": 2929747, "name": "Erbshausen", "state": "", "country": "DE", "coord": {"lon": 10.0, "lat": 49.916672}}, {"id": 2929753, "name": "Erbsen", "state": "", "country": "DE", "coord": {"lon": 9.8, "lat": 51.583328}}, {"id": 2929769, "name": "Erbes-B\u00fcdesheim", "state": "", "country": "DE", "coord": {"lon": 8.03139, "lat": 49.75444}}, {"id": 2929781, "name": "Erbenhausen", "state": "", "country": "DE", "coord": {"lon": 10.15, "lat": 50.566669}}, {"id": 2929783, "name": "Erbendorf", "state": "", "country": "DE", "coord": {"lon": 12.04472, "lat": 49.840279}}, {"id": 2929800, "name": "Erbach", "state": "", "country": "DE", "coord": {"lon": 7.68333, "lat": 50.033329}}, {"id": 2929802, "name": "Erbach", "state": "", "country": "DE", "coord": {"lon": 8.99639, "lat": 49.656109}}, {"id": 2929804, "name": "Erbach", "state": "", "country": "DE", "coord": {"lon": 9.88752, "lat": 48.328411}}, {"id": 2929808, "name": "Equord", "state": "", "country": "DE", "coord": {"lon": 10.11669, "lat": 52.293049}}, {"id": 2929817, "name": "Eppstein", "state": "", "country": "DE", "coord": {"lon": 8.4, "lat": 50.133331}}, {"id": 2929826, "name": "Eppishofen", "state": "", "country": "DE", "coord": {"lon": 10.60095, "lat": 48.460739}}, {"id": 2929827, "name": "Eppishausen", "state": "", "country": "DE", "coord": {"lon": 10.51667, "lat": 48.166672}}, {"id": 2929828, "name": "Eppisburg", "state": "", "country": "DE", "coord": {"lon": 10.55752, "lat": 48.52013}}, {"id": 2929831, "name": "Eppingen", "state": "", "country": "DE", "coord": {"lon": 8.91028, "lat": 49.13694}}, {"id": 2929837, "name": "Eppertshausen", "state": "", "country": "DE", "coord": {"lon": 8.85389, "lat": 49.950562}}, {"id": 2929840, "name": "Eppenschlag", "state": "", "country": "DE", "coord": {"lon": 13.29989, "lat": 48.889381}}, {"id": 2929841, "name": "Eppenrod", "state": "", "country": "DE", "coord": {"lon": 7.93333, "lat": 50.416672}}, {"id": 2929853, "name": "Eppendorf", "state": "", "country": "DE", "coord": {"lon": 9.96667, "lat": 53.583328}}, {"id": 2929855, "name": "Eppendorf", "state": "", "country": "DE", "coord": {"lon": 13.23333, "lat": 50.799999}}, {"id": 2929858, "name": "Eppenbrunn", "state": "", "country": "DE", "coord": {"lon": 7.56667, "lat": 49.116669}}, {"id": 2929859, "name": "Eppenberg", "state": "", "country": "DE", "coord": {"lon": 7.06667, "lat": 50.25}}, {"id": 2929862, "name": "Eppelsheim", "state": "", "country": "DE", "coord": {"lon": 8.16528, "lat": 49.705559}}, {"id": 2929863, "name": "Eppelheim", "state": "", "country": "DE", "coord": {"lon": 8.63306, "lat": 49.4025}}, {"id": 2929865, "name": "Eppelborn", "state": "", "country": "DE", "coord": {"lon": 6.96667, "lat": 49.400002}}, {"id": 2929866, "name": "Eppe", "state": "", "country": "DE", "coord": {"lon": 8.76667, "lat": 51.23333}}, {"id": 2929867, "name": "Epgert", "state": "", "country": "DE", "coord": {"lon": 7.48333, "lat": 50.583328}}, {"id": 2929871, "name": "Epfendorf", "state": "", "country": "DE", "coord": {"lon": 8.6, "lat": 48.25}}, {"id": 2929872, "name": "Epfenbach", "state": "", "country": "DE", "coord": {"lon": 8.90778, "lat": 49.339169}}, {"id": 2929873, "name": "Epfenbach", "state": "", "country": "DE", "coord": {"lon": 8.91667, "lat": 49.333328}}, {"id": 2929874, "name": "Epfach", "state": "", "country": "DE", "coord": {"lon": 10.91667, "lat": 47.916672}}, {"id": 2929877, "name": "Epenw\u00f6hrden", "state": "", "country": "DE", "coord": {"lon": 9.05, "lat": 54.116669}}, {"id": 2929883, "name": "Enzweiler", "state": "", "country": "DE", "coord": {"lon": 7.3, "lat": 49.700001}}, {"id": 2929889, "name": "Enzkreis", "state": "", "country": "DE", "coord": {"lon": 8.75, "lat": 48.916672}}, {"id": 2929892, "name": "Enzkl\u00f6sterle", "state": "", "country": "DE", "coord": {"lon": 8.48333, "lat": 48.666672}}, {"id": 2929896, "name": "Enzisweiler", "state": "", "country": "DE", "coord": {"lon": 9.66667, "lat": 47.566669}}, {"id": 2929915, "name": "Enzendorf", "state": "", "country": "DE", "coord": {"lon": 11.48333, "lat": 49.583328}}, {"id": 2929920, "name": "Enzen", "state": "", "country": "DE", "coord": {"lon": 6.36667, "lat": 49.916672}}, {"id": 2929936, "name": "Entrup", "state": "", "country": "DE", "coord": {"lon": 8.16667, "lat": 51.716671}}, {"id": 2929996, "name": "Enste", "state": "", "country": "DE", "coord": {"lon": 8.25, "lat": 51.366669}}, {"id": 2929997, "name": "Enspel", "state": "", "country": "DE", "coord": {"lon": 7.88333, "lat": 50.616669}}, {"id": 2930006, "name": "Ensheim", "state": "", "country": "DE", "coord": {"lon": 8.11556, "lat": 49.806389}}, {"id": 2930007, "name": "Ensheim", "state": "", "country": "DE", "coord": {"lon": 7.1, "lat": 49.200001}}, {"id": 2930018, "name": "Ensdorf", "state": "", "country": "DE", "coord": {"lon": 11.93587, "lat": 49.340618}}, {"id": 2930019, "name": "Ensdorf", "state": "", "country": "DE", "coord": {"lon": 6.78333, "lat": 49.299999}}, {"id": 2930021, "name": "Ensch", "state": "", "country": "DE", "coord": {"lon": 6.83333, "lat": 49.833328}}, {"id": 2930030, "name": "Ennigerloh", "state": "", "country": "DE", "coord": {"lon": 8.01667, "lat": 51.833328}}, {"id": 2930032, "name": "Enniger", "state": "", "country": "DE", "coord": {"lon": 7.8463, "lat": 51.719002}}, {"id": 2930035, "name": "Ennetach", "state": "", "country": "DE", "coord": {"lon": 9.3201, "lat": 48.05238}}, {"id": 2930043, "name": "Ennepetal", "state": "", "country": "DE", "coord": {"lon": 7.3629, "lat": 51.298481}}, {"id": 2930053, "name": "Enkirch", "state": "", "country": "DE", "coord": {"lon": 7.11667, "lat": 49.98333}}, {"id": 2930063, "name": "Enkering", "state": "", "country": "DE", "coord": {"lon": 11.36312, "lat": 48.9925}}, {"id": 2930071, "name": "Enkenbach-Alsenborn", "state": "", "country": "DE", "coord": {"lon": 7.9, "lat": 49.48333}}, {"id": 2930080, "name": "Eningen unter Achalm", "state": "", "country": "DE", "coord": {"lon": 9.25946, "lat": 48.486858}}, {"id": 2930086, "name": "Enheim", "state": "", "country": "DE", "coord": {"lon": 10.13746, "lat": 49.632622}}, {"id": 2930104, "name": "Englschalking", "state": "", "country": "DE", "coord": {"lon": 11.64843, "lat": 48.157612}}, {"id": 2930105, "name": "Englpolding", "state": "", "country": "DE", "coord": {"lon": 11.99879, "lat": 48.28154}}, {"id": 2930109, "name": "Sankt Englmar", "state": "", "country": "DE", "coord": {"lon": 12.81667, "lat": 49.0}}, {"id": 2930143, "name": "Engkofen", "state": "", "country": "DE", "coord": {"lon": 12.25, "lat": 48.533329}}, {"id": 2930154, "name": "Engetried", "state": "", "country": "DE", "coord": {"lon": 10.4, "lat": 47.933331}}, {"id": 2930157, "name": "Engertshofen", "state": "", "country": "DE", "coord": {"lon": 10.55, "lat": 48.349998}}, {"id": 2930166, "name": "Engers", "state": "", "country": "DE", "coord": {"lon": 7.55, "lat": 50.433331}}, {"id": 2930178, "name": "Engerda", "state": "", "country": "DE", "coord": {"lon": 11.4, "lat": 50.783329}}, {"id": 2930182, "name": "Enger", "state": "", "country": "DE", "coord": {"lon": 8.56667, "lat": 52.133331}}, {"id": 2930192, "name": "Engensen", "state": "", "country": "DE", "coord": {"lon": 9.94331, "lat": 52.498619}}, {"id": 2930197, "name": "Engenhahn", "state": "", "country": "DE", "coord": {"lon": 8.25, "lat": 50.166672}}, {"id": 2930201, "name": "Engen", "state": "", "country": "DE", "coord": {"lon": 8.76667, "lat": 47.849998}}, {"id": 2930205, "name": "Engelthal", "state": "", "country": "DE", "coord": {"lon": 11.39943, "lat": 49.471809}}, {"id": 2930210, "name": "Engelstadt", "state": "", "country": "DE", "coord": {"lon": 8.06528, "lat": 49.904171}}, {"id": 2930216, "name": "Engelskirchen", "state": "", "country": "DE", "coord": {"lon": 7.4, "lat": 50.98333}}, {"id": 2930220, "name": "Engelshof", "state": "", "country": "DE", "coord": {"lon": 7.75, "lat": 49.450001}}, {"id": 2930227, "name": "Engelsdorf", "state": "", "country": "DE", "coord": {"lon": 12.48333, "lat": 51.333328}}, {"id": 2930229, "name": "Engelsdorf", "state": "", "country": "DE", "coord": {"lon": 6.25, "lat": 50.033329}}, {"id": 2930237, "name": "Engelschoff", "state": "", "country": "DE", "coord": {"lon": 9.33333, "lat": 53.666672}}, {"id": 2930248, "name": "Engelsbrand", "state": "", "country": "DE", "coord": {"lon": 8.65, "lat": 48.833328}}, {"id": 2930252, "name": "Engelsberg", "state": "", "country": "DE", "coord": {"lon": 12.55, "lat": 48.116669}}, {"id": 2930268, "name": "Engelsbach", "state": "", "country": "DE", "coord": {"lon": 10.6, "lat": 50.849998}}, {"id": 2930270, "name": "Engelrod", "state": "", "country": "DE", "coord": {"lon": 9.25, "lat": 50.583328}}, {"id": 2930278, "name": "Engeln", "state": "", "country": "DE", "coord": {"lon": 8.91815, "lat": 52.793629}}, {"id": 2930295, "name": "Engelhelms", "state": "", "country": "DE", "coord": {"lon": 9.71329, "lat": 50.514679}}, {"id": 2930303, "name": "Engelfangen", "state": "", "country": "DE", "coord": {"lon": 6.88333, "lat": 49.283329}}, {"id": 2930311, "name": "Engelbostel", "state": "", "country": "DE", "coord": {"lon": 9.66667, "lat": 52.450001}}, {"id": 2930331, "name": "Engeh\u00f6ll", "state": "", "country": "DE", "coord": {"lon": 7.71667, "lat": 50.099998}}, {"id": 2930333, "name": "Engehausen", "state": "", "country": "DE", "coord": {"lon": 9.7, "lat": 52.683331}}, {"id": 2930335, "name": "Engedey", "state": "", "country": "DE", "coord": {"lon": 12.95, "lat": 47.616669}}, {"id": 2930338, "name": "Engden", "state": "", "country": "DE", "coord": {"lon": 7.18333, "lat": 52.400002}}, {"id": 2930341, "name": "Engbr\u00fcck", "state": "", "country": "DE", "coord": {"lon": 6.51667, "lat": 51.183331}}, {"id": 2930350, "name": "Enerke", "state": "", "country": "DE", "coord": {"lon": 7.38333, "lat": 51.366669}}, {"id": 2930360, "name": "Endsee", "state": "", "country": "DE", "coord": {"lon": 10.23333, "lat": 49.450001}}, {"id": 2930361, "name": "Endsch\u00fctz", "state": "", "country": "DE", "coord": {"lon": 12.13333, "lat": 50.783329}}, {"id": 2930367, "name": "Bad Endorf", "state": "", "country": "DE", "coord": {"lon": 12.29795, "lat": 47.909012}}, {"id": 2930375, "name": "Endlichhofen", "state": "", "country": "DE", "coord": {"lon": 7.81815, "lat": 50.201851}}, {"id": 2930376, "name": "Endlhausen", "state": "", "country": "DE", "coord": {"lon": 11.5759, "lat": 47.9436}}, {"id": 2930383, "name": "Endingen", "state": "", "country": "DE", "coord": {"lon": 7.7, "lat": 48.133331}}, {"id": 2930389, "name": "Enderndorf", "state": "", "country": "DE", "coord": {"lon": 10.9162, "lat": 49.1478}}, {"id": 2930394, "name": "Endenich", "state": "", "country": "DE", "coord": {"lon": 7.06667, "lat": 50.73333}}, {"id": 2930400, "name": "Endeholz", "state": "", "country": "DE", "coord": {"lon": 10.31667, "lat": 52.716671}}, {"id": 2930408, "name": "Bad Endbach", "state": "", "country": "DE", "coord": {"lon": 8.5, "lat": 50.75}}, {"id": 2930416, "name": "Emtmannsberg", "state": "", "country": "DE", "coord": {"lon": 11.65, "lat": 49.900002}}, {"id": 2930417, "name": "Emtinghausen", "state": "", "country": "DE", "coord": {"lon": 8.96667, "lat": 52.933331}}, {"id": 2930426, "name": "Emstek", "state": "", "country": "DE", "coord": {"lon": 8.15, "lat": 52.833328}}, {"id": 2930432, "name": "Emskirchen", "state": "", "country": "DE", "coord": {"lon": 10.71667, "lat": 49.549999}}, {"id": 2930433, "name": "Emskeim", "state": "", "country": "DE", "coord": {"lon": 11.01667, "lat": 48.799999}}, {"id": 2930444, "name": "Emseloh", "state": "", "country": "DE", "coord": {"lon": 11.4, "lat": 51.5}}, {"id": 2930447, "name": "Emsdorf", "state": "", "country": "DE", "coord": {"lon": 12.16667, "lat": 51.48333}}, {"id": 2930449, "name": "Emsdetten", "state": "", "country": "DE", "coord": {"lon": 7.53333, "lat": 52.183331}}, {"id": 2930454, "name": "Emsb\u00fcren", "state": "", "country": "DE", "coord": {"lon": 7.3, "lat": 52.400002}}, {"id": 2930461, "name": "Empfingen", "state": "", "country": "DE", "coord": {"lon": 8.71036, "lat": 48.392578}}, {"id": 2930463, "name": "Empfertshausen", "state": "", "country": "DE", "coord": {"lon": 10.1, "lat": 50.666672}}, {"id": 2930468, "name": "Empelde", "state": "", "country": "DE", "coord": {"lon": 9.66471, "lat": 52.342579}}, {"id": 2930477, "name": "Emming", "state": "", "country": "DE", "coord": {"lon": 13.18333, "lat": 48.75}}, {"id": 2930480, "name": "Emmerzhausen", "state": "", "country": "DE", "coord": {"lon": 8.03333, "lat": 50.716671}}, {"id": 2930489, "name": "Emmershausen", "state": "", "country": "DE", "coord": {"lon": 8.3757, "lat": 50.365719}}, {"id": 2930491, "name": "Emmersdorf", "state": "", "country": "DE", "coord": {"lon": 13.0, "lat": 48.566669}}, {"id": 2930500, "name": "Emmering", "state": "", "country": "DE", "coord": {"lon": 11.28333, "lat": 48.183331}}, {"id": 2930502, "name": "Emmering", "state": "", "country": "DE", "coord": {"lon": 12.05642, "lat": 47.99762}}, {"id": 2930509, "name": "Emmerich", "state": "", "country": "DE", "coord": {"lon": 6.25, "lat": 51.833328}}, {"id": 2930520, "name": "Emmenhausen", "state": "", "country": "DE", "coord": {"lon": 10.8, "lat": 48.0}}, {"id": 2930521, "name": "Emmendorf", "state": "", "country": "DE", "coord": {"lon": 10.56667, "lat": 53.01667}}, {"id": 2930522, "name": "Landkreis Emmendingen", "state": "", "country": "DE", "coord": {"lon": 7.88556, "lat": 48.149719}}, {"id": 2930523, "name": "Emmendingen", "state": "", "country": "DE", "coord": {"lon": 7.85359, "lat": 48.12096}}, {"id": 2930528, "name": "Emmelshausen", "state": "", "country": "DE", "coord": {"lon": 7.56667, "lat": 50.150002}}, {"id": 2930539, "name": "Emmelbaum", "state": "", "country": "DE", "coord": {"lon": 6.26667, "lat": 50.049999}}, {"id": 2930546, "name": "Emlichheim", "state": "", "country": "DE", "coord": {"lon": 6.85, "lat": 52.616669}}, {"id": 2930547, "name": "Emleben", "state": "", "country": "DE", "coord": {"lon": 10.7, "lat": 50.900002}}, {"id": 2930550, "name": "Emkendorf", "state": "", "country": "DE", "coord": {"lon": 9.85, "lat": 54.26667}}, {"id": 2930566, "name": "Emhof", "state": "", "country": "DE", "coord": {"lon": 11.93047, "lat": 49.23761}}, {"id": 2930570, "name": "Emertsham", "state": "", "country": "DE", "coord": {"lon": 12.48333, "lat": 48.066669}}, {"id": 2930571, "name": "Emersleben", "state": "", "country": "DE", "coord": {"lon": 11.13333, "lat": 51.933331}}, {"id": 2930575, "name": "Emersacker", "state": "", "country": "DE", "coord": {"lon": 10.66667, "lat": 48.5}}, {"id": 2930579, "name": "Emerkingen", "state": "", "country": "DE", "coord": {"lon": 9.65647, "lat": 48.211922}}, {"id": 2930580, "name": "Emerkam", "state": "", "country": "DE", "coord": {"lon": 12.43333, "lat": 48.283329}}, {"id": 2930581, "name": "Emeringen", "state": "", "country": "DE", "coord": {"lon": 9.51781, "lat": 48.233879}}, {"id": 2930593, "name": "Harsweg", "state": "", "country": "DE", "coord": {"lon": 7.21667, "lat": 53.400002}}, {"id": 2930596, "name": "Emden", "state": "", "country": "DE", "coord": {"lon": 7.21667, "lat": 53.366669}}, {"id": 2930599, "name": "Emb\u00fchren", "state": "", "country": "DE", "coord": {"lon": 9.58333, "lat": 54.166672}}, {"id": 2930602, "name": "Embsen", "state": "", "country": "DE", "coord": {"lon": 10.35, "lat": 53.183331}}, {"id": 2930603, "name": "Embsen", "state": "", "country": "DE", "coord": {"lon": 9.01667, "lat": 53.033329}}, {"id": 2930613, "name": "Elzweiler", "state": "", "country": "DE", "coord": {"lon": 7.51667, "lat": 49.583328}}, {"id": 2930622, "name": "Elze", "state": "", "country": "DE", "coord": {"lon": 9.73492, "lat": 52.58157}}, {"id": 2930623, "name": "Elze", "state": "", "country": "DE", "coord": {"lon": 9.73595, "lat": 52.122631}}, {"id": 2930626, "name": "Elzach", "state": "", "country": "DE", "coord": {"lon": 8.06667, "lat": 48.183331}}, {"id": 2930628, "name": "Elz", "state": "", "country": "DE", "coord": {"lon": 8.03333, "lat": 50.416672}}, {"id": 2930630, "name": "Elxleben", "state": "", "country": "DE", "coord": {"lon": 10.95, "lat": 51.049999}}, {"id": 2930631, "name": "Elxleben", "state": "", "country": "DE", "coord": {"lon": 11.05, "lat": 50.866669}}, {"id": 2930635, "name": "Elvershausen", "state": "", "country": "DE", "coord": {"lon": 10.1, "lat": 51.700001}}, {"id": 2930645, "name": "Eltze", "state": "", "country": "DE", "coord": {"lon": 10.26295, "lat": 52.454128}}, {"id": 2930646, "name": "Eltville", "state": "", "country": "DE", "coord": {"lon": 8.11667, "lat": 50.033329}}, {"id": 2930648, "name": "Eltmannsee", "state": "", "country": "DE", "coord": {"lon": 9.81667, "lat": 51.083328}}, {"id": 2930650, "name": "Eltmann", "state": "", "country": "DE", "coord": {"lon": 10.66667, "lat": 49.966671}}, {"id": 2930651, "name": "Eltingshausen", "state": "", "country": "DE", "coord": {"lon": 10.11667, "lat": 50.166672}}, {"id": 2930659, "name": "Elters", "state": "", "country": "DE", "coord": {"lon": 9.88091, "lat": 50.57975}}, {"id": 2930660, "name": "Eltern", "state": "", "country": "DE", "coord": {"lon": 7.51667, "lat": 52.683331}}, {"id": 2930662, "name": "Elterlein", "state": "", "country": "DE", "coord": {"lon": 12.86667, "lat": 50.583328}}, {"id": 2930665, "name": "Elten", "state": "", "country": "DE", "coord": {"lon": 6.15, "lat": 51.866669}}, {"id": 2930672, "name": "Elstra", "state": "", "country": "DE", "coord": {"lon": 14.15, "lat": 51.216671}}, {"id": 2930673, "name": "Elstorf", "state": "", "country": "DE", "coord": {"lon": 9.8, "lat": 53.433331}}, {"id": 2930680, "name": "Elsterwerda", "state": "", "country": "DE", "coord": {"lon": 13.53333, "lat": 51.450001}}, {"id": 2930682, "name": "Elstertrebnitz", "state": "", "country": "DE", "coord": {"lon": 12.23333, "lat": 51.150002}}, {"id": 2930687, "name": "Elsterberg", "state": "", "country": "DE", "coord": {"lon": 12.16787, "lat": 50.60841}}, {"id": 2930695, "name": "Elster", "state": "", "country": "DE", "coord": {"lon": 12.83333, "lat": 51.833328}}, {"id": 2930697, "name": "Elstal", "state": "", "country": "DE", "coord": {"lon": 13.0, "lat": 52.533329}}, {"id": 2930705, "name": "Elsoff", "state": "", "country": "DE", "coord": {"lon": 8.5, "lat": 51.01667}}, {"id": 2930707, "name": "Elsnigk", "state": "", "country": "DE", "coord": {"lon": 12.05, "lat": 51.783329}}, {"id": 2930708, "name": "Elsnig", "state": "", "country": "DE", "coord": {"lon": 12.92833, "lat": 51.610241}}, {"id": 2930715, "name": "Elskop", "state": "", "country": "DE", "coord": {"lon": 9.48333, "lat": 53.816669}}, {"id": 2930722, "name": "Elsheim", "state": "", "country": "DE", "coord": {"lon": 8.12222, "lat": 49.916939}}, {"id": 2930726, "name": "Elsfleth", "state": "", "country": "DE", "coord": {"lon": 8.45664, "lat": 53.23748}}, {"id": 2930747, "name": "Elsenfeld", "state": "", "country": "DE", "coord": {"lon": 9.16222, "lat": 49.841671}}, {"id": 2930750, "name": "Elsendorf", "state": "", "country": "DE", "coord": {"lon": 11.81667, "lat": 48.700001}}, {"id": 2930751, "name": "Elsenberg", "state": "", "country": "DE", "coord": {"lon": 11.11667, "lat": 49.700001}}, {"id": 2930771, "name": "Elsdorf-Westerm\u00fchlen", "state": "", "country": "DE", "coord": {"lon": 9.51667, "lat": 54.26667}}, {"id": 2930776, "name": "Elsdorf", "state": "", "country": "DE", "coord": {"lon": 9.35, "lat": 53.23333}}, {"id": 2930778, "name": "Elsdorf", "state": "", "country": "DE", "coord": {"lon": 6.56828, "lat": 50.937389}}, {"id": 2930801, "name": "Elsa", "state": "", "country": "DE", "coord": {"lon": 10.81667, "lat": 50.333328}}, {"id": 2930810, "name": "Elpersb\u00fcttelerdonn", "state": "", "country": "DE", "coord": {"lon": 9.06667, "lat": 54.066669}}, {"id": 2930811, "name": "Elpersb\u00fcttel", "state": "", "country": "DE", "coord": {"lon": 9.04673, "lat": 54.072479}}, {"id": 2930817, "name": "Elp", "state": "", "country": "DE", "coord": {"lon": 7.0, "lat": 51.200001}}, {"id": 2930819, "name": "Elnhausen", "state": "", "country": "DE", "coord": {"lon": 8.69173, "lat": 50.810871}}, {"id": 2930820, "name": "Elmstein", "state": "", "country": "DE", "coord": {"lon": 7.93333, "lat": 49.366669}}, {"id": 2930821, "name": "Elmshorn", "state": "", "country": "DE", "coord": {"lon": 9.65, "lat": 53.75}}, {"id": 2930823, "name": "Elmshausen", "state": "", "country": "DE", "coord": {"lon": 8.6725, "lat": 49.702782}}, {"id": 2930831, "name": "Elmpt", "state": "", "country": "DE", "coord": {"lon": 6.16667, "lat": 51.216671}}, {"id": 2930832, "name": "Elmlohe", "state": "", "country": "DE", "coord": {"lon": 8.74254, "lat": 53.5867}}, {"id": 2930846, "name": "Elmenthal", "state": "", "country": "DE", "coord": {"lon": 10.4, "lat": 50.799999}}, {"id": 2930850, "name": "Elmenhorst", "state": "", "country": "DE", "coord": {"lon": 12.0, "lat": 54.150002}}, {"id": 2930852, "name": "Elmenhorst", "state": "", "country": "DE", "coord": {"lon": 10.26667, "lat": 53.76667}}, {"id": 2930853, "name": "Elmenhorst", "state": "", "country": "DE", "coord": {"lon": 10.5352, "lat": 53.545609}}, {"id": 2930855, "name": "Elmenhorst", "state": "", "country": "DE", "coord": {"lon": 13.06667, "lat": 54.216671}}, {"id": 2930881, "name": "Ellzee", "state": "", "country": "DE", "coord": {"lon": 10.31891, "lat": 48.33971}}, {"id": 2930887, "name": "Ellweiler", "state": "", "country": "DE", "coord": {"lon": 7.15, "lat": 49.616669}}, {"id": 2930889, "name": "Ellwangen", "state": "", "country": "DE", "coord": {"lon": 10.13173, "lat": 48.961639}}, {"id": 2930895, "name": "Ellscheid", "state": "", "country": "DE", "coord": {"lon": 6.91667, "lat": 50.150002}}, {"id": 2930900, "name": "Ellrich", "state": "", "country": "DE", "coord": {"lon": 10.66326, "lat": 51.586559}}, {"id": 2930901, "name": "Ellnrode", "state": "", "country": "DE", "coord": {"lon": 8.96667, "lat": 50.98333}}, {"id": 2930908, "name": "Ellmau", "state": "", "country": "DE", "coord": {"lon": 11.8, "lat": 47.683331}}, {"id": 2930913, "name": "Ellingstedtfeld", "state": "", "country": "DE", "coord": {"lon": 9.4, "lat": 54.48333}}, {"id": 2930914, "name": "Ellingstedt", "state": "", "country": "DE", "coord": {"lon": 9.4, "lat": 54.48333}}, {"id": 2930916, "name": "Ellingshausen", "state": "", "country": "DE", "coord": {"lon": 10.46667, "lat": 50.549999}}, {"id": 2930934, "name": "Ellingen", "state": "", "country": "DE", "coord": {"lon": 10.96783, "lat": 49.06076}}, {"id": 2930941, "name": "Ellierode", "state": "", "country": "DE", "coord": {"lon": 9.8, "lat": 51.633331}}, {"id": 2930946, "name": "Ellh\u00f6ft", "state": "", "country": "DE", "coord": {"lon": 8.95, "lat": 54.883331}}, {"id": 2930948, "name": "Ellhofen", "state": "", "country": "DE", "coord": {"lon": 9.32194, "lat": 49.146671}}, {"id": 2930952, "name": "Ellgau", "state": "", "country": "DE", "coord": {"lon": 10.86667, "lat": 48.599998}}, {"id": 2930965, "name": "Ellerstadt", "state": "", "country": "DE", "coord": {"lon": 8.25944, "lat": 49.46167}}, {"id": 2930968, "name": "Ellersleben", "state": "", "country": "DE", "coord": {"lon": 11.31667, "lat": 51.150002}}, {"id": 2930970, "name": "Ellershausen bei M\u00fcnden", "state": "", "country": "DE", "coord": {"lon": 9.68333, "lat": 51.51667}}, {"id": 2930996, "name": "Ellern", "state": "", "country": "DE", "coord": {"lon": 7.63333, "lat": 49.98333}}, {"id": 2931000, "name": "Ellerhoop", "state": "", "country": "DE", "coord": {"lon": 9.76667, "lat": 53.73333}}, {"id": 2931008, "name": "Ellerdorf", "state": "", "country": "DE", "coord": {"lon": 9.85, "lat": 54.200001}}, {"id": 2931018, "name": "Ellerbrock", "state": "", "country": "DE", "coord": {"lon": 7.81667, "lat": 52.98333}}, {"id": 2931024, "name": "Ellerbek", "state": "", "country": "DE", "coord": {"lon": 9.86667, "lat": 53.650002}}, {"id": 2931034, "name": "Ellerbach", "state": "", "country": "DE", "coord": {"lon": 10.56215, "lat": 48.497952}}, {"id": 2931038, "name": "Ellerau", "state": "", "country": "DE", "coord": {"lon": 9.91667, "lat": 53.75}}, {"id": 2931047, "name": "Ellenstedt", "state": "", "country": "DE", "coord": {"lon": 8.40918, "lat": 52.813141}}, {"id": 2931060, "name": "Ellenhausen", "state": "", "country": "DE", "coord": {"lon": 7.71667, "lat": 50.51667}}, {"id": 2931079, "name": "Ellenberg", "state": "", "country": "DE", "coord": {"lon": 7.15, "lat": 49.650002}}, {"id": 2931080, "name": "Ellenberg", "state": "", "country": "DE", "coord": {"lon": 10.21667, "lat": 49.01667}}, {"id": 2931096, "name": "Ellen", "state": "", "country": "DE", "coord": {"lon": 6.49687, "lat": 50.859711}}, {"id": 2931097, "name": "Ellefeld", "state": "", "country": "DE", "coord": {"lon": 12.3888, "lat": 50.483669}}, {"id": 2931098, "name": "Elleben", "state": "", "country": "DE", "coord": {"lon": 11.08333, "lat": 50.866669}}, {"id": 2931123, "name": "Elkerhausen", "state": "", "country": "DE", "coord": {"lon": 8.28333, "lat": 50.416672}}, {"id": 2931125, "name": "Elkenroth", "state": "", "country": "DE", "coord": {"lon": 7.88333, "lat": 50.73333}}, {"id": 2931150, "name": "Elisabethszell", "state": "", "country": "DE", "coord": {"lon": 12.75, "lat": 49.033329}}, {"id": 2931152, "name": "Elisabeth-Sophien-Koog", "state": "", "country": "DE", "coord": {"lon": 8.88333, "lat": 54.51667}}, {"id": 2931164, "name": "Elhorn", "state": "", "country": "DE", "coord": {"lon": 8.8, "lat": 54.299999}}, {"id": 2931165, "name": "Elgert", "state": "", "country": "DE", "coord": {"lon": 7.66667, "lat": 50.583328}}, {"id": 2931168, "name": "Elgershausen", "state": "", "country": "DE", "coord": {"lon": 9.37572, "lat": 51.272709}}, {"id": 2931169, "name": "Elgersdorf", "state": "", "country": "DE", "coord": {"lon": 13.38333, "lat": 51.066669}}, {"id": 2931171, "name": "Elgersburg", "state": "", "country": "DE", "coord": {"lon": 10.85, "lat": 50.700001}}, {"id": 2931172, "name": "Elgendorf", "state": "", "country": "DE", "coord": {"lon": 7.8, "lat": 50.450001}}, {"id": 2931180, "name": "Elfershude", "state": "", "country": "DE", "coord": {"lon": 8.7731, "lat": 53.420528}}, {"id": 2931182, "name": "Elfershausen", "state": "", "country": "DE", "coord": {"lon": 9.96151, "lat": 50.14743}}, {"id": 2931200, "name": "Elende", "state": "", "country": "DE", "coord": {"lon": 10.63333, "lat": 51.433331}}, {"id": 2931205, "name": "Elend", "state": "", "country": "DE", "coord": {"lon": 13.69068, "lat": 50.88446}}, {"id": 2931210, "name": "Eldingen", "state": "", "country": "DE", "coord": {"lon": 10.33333, "lat": 52.683331}}, {"id": 2931217, "name": "Eldena", "state": "", "country": "DE", "coord": {"lon": 11.41667, "lat": 53.23333}}, {"id": 2931221, "name": "Eldagsen", "state": "", "country": "DE", "coord": {"lon": 9.65926, "lat": 52.171219}}, {"id": 2931222, "name": "Elchweiler", "state": "", "country": "DE", "coord": {"lon": 7.2, "lat": 49.666672}}, {"id": 2931223, "name": "Elchweiler", "state": "", "country": "DE", "coord": {"lon": 7.2, "lat": 49.666672}}, {"id": 2931224, "name": "Elchingen", "state": "", "country": "DE", "coord": {"lon": 10.26667, "lat": 48.799999}}, {"id": 2931226, "name": "Elchesheim", "state": "", "country": "DE", "coord": {"lon": 8.21667, "lat": 48.933331}}, {"id": 2931241, "name": "Elbrichshof", "state": "", "country": "DE", "coord": {"lon": 9.57072, "lat": 50.562141}}, {"id": 2931242, "name": "Elbitz", "state": "", "country": "DE", "coord": {"lon": 11.71667, "lat": 51.533329}}, {"id": 2931245, "name": "Elbingerode", "state": "", "country": "DE", "coord": {"lon": 10.8, "lat": 51.76667}}, {"id": 2931246, "name": "Elbingerode", "state": "", "country": "DE", "coord": {"lon": 10.27771, "lat": 51.659248}}, {"id": 2931262, "name": "Elbersreuth", "state": "", "country": "DE", "coord": {"lon": 11.56667, "lat": 50.25}}, {"id": 2931275, "name": "Elbergen", "state": "", "country": "DE", "coord": {"lon": 7.3, "lat": 52.450001}}, {"id": 2931276, "name": "Elberfeld", "state": "", "country": "DE", "coord": {"lon": 7.13333, "lat": 51.26667}}, {"id": 2931283, "name": "Elbenau", "state": "", "country": "DE", "coord": {"lon": 11.76667, "lat": 52.033329}}, {"id": 2931288, "name": "Elben", "state": "", "country": "DE", "coord": {"lon": 7.83333, "lat": 50.75}}, {"id": 2931308, "name": "Ekholt", "state": "", "country": "DE", "coord": {"lon": 9.71667, "lat": 53.75}}, {"id": 2931314, "name": "Ekenis", "state": "", "country": "DE", "coord": {"lon": 9.85, "lat": 54.633331}}, {"id": 2931321, "name": "Ekeberg", "state": "", "country": "DE", "coord": {"lon": 9.61667, "lat": 54.650002}}, {"id": 2931333, "name": "Eixen", "state": "", "country": "DE", "coord": {"lon": 12.72384, "lat": 54.16143}}, {"id": 2931334, "name": "Eixe", "state": "", "country": "DE", "coord": {"lon": 10.18333, "lat": 52.349998}}, {"id": 2931340, "name": "Eitzum", "state": "", "country": "DE", "coord": {"lon": 9.84693, "lat": 52.07914}}, {"id": 2931356, "name": "Eitting", "state": "", "country": "DE", "coord": {"lon": 12.91667, "lat": 48.5}}, {"id": 2931357, "name": "Eitting", "state": "", "country": "DE", "coord": {"lon": 11.9, "lat": 48.366669}}, {"id": 2931361, "name": "Eitorf", "state": "", "country": "DE", "coord": {"lon": 7.45, "lat": 50.76667}}, {"id": 2931372, "name": "Eiterfeld", "state": "", "country": "DE", "coord": {"lon": 9.8, "lat": 50.76667}}, {"id": 2931378, "name": "Eitensheim", "state": "", "country": "DE", "coord": {"lon": 11.31667, "lat": 48.816669}}, {"id": 2931385, "name": "Eitelborn", "state": "", "country": "DE", "coord": {"lon": 7.71667, "lat": 50.366669}}, {"id": 2931392, "name": "Eisten", "state": "", "country": "DE", "coord": {"lon": 7.55, "lat": 52.799999}}, {"id": 2931397, "name": "Eissen", "state": "", "country": "DE", "coord": {"lon": 9.16667, "lat": 51.566669}}, {"id": 2931403, "name": "Eisolzried", "state": "", "country": "DE", "coord": {"lon": 11.33969, "lat": 48.25848}}, {"id": 2931404, "name": "Eismerszell", "state": "", "country": "DE", "coord": {"lon": 11.05984, "lat": 48.149738}}, {"id": 2931414, "name": "Eislingen", "state": "", "country": "DE", "coord": {"lon": 9.70676, "lat": 48.695148}}, {"id": 2931423, "name": "Eisingen", "state": "", "country": "DE", "coord": {"lon": 9.83111, "lat": 49.75972}}, {"id": 2931424, "name": "Eisingen", "state": "", "country": "DE", "coord": {"lon": 8.66667, "lat": 48.950001}}, {"id": 2931425, "name": "Eisighofen", "state": "", "country": "DE", "coord": {"lon": 8.01667, "lat": 50.23333}}, {"id": 2931433, "name": "Eisfeld", "state": "", "country": "DE", "coord": {"lon": 10.91667, "lat": 50.416672}}, {"id": 2931467, "name": "Eisenschmitt", "state": "", "country": "DE", "coord": {"lon": 6.71667, "lat": 50.049999}}, {"id": 2931481, "name": "Eisenh\u00fcttenstadt", "state": "", "country": "DE", "coord": {"lon": 14.65, "lat": 52.150002}}, {"id": 2931488, "name": "Eisenharz", "state": "", "country": "DE", "coord": {"lon": 9.96667, "lat": 47.683331}}, {"id": 2931497, "name": "Eisendorf", "state": "", "country": "DE", "coord": {"lon": 9.86667, "lat": 54.200001}}, {"id": 2931501, "name": "Eisenburg", "state": "", "country": "DE", "coord": {"lon": 10.2087, "lat": 48.014042}}, {"id": 2931511, "name": "Eisenbernreut", "state": "", "country": "DE", "coord": {"lon": 13.45, "lat": 48.76667}}, {"id": 2931521, "name": "Eisenberg", "state": "", "country": "DE", "coord": {"lon": 11.9, "lat": 50.966671}}, {"id": 2931522, "name": "Eisenberg", "state": "", "country": "DE", "coord": {"lon": 8.07, "lat": 49.56583}}, {"id": 2931550, "name": "Eisenberg", "state": "", "country": "DE", "coord": {"lon": 10.60524, "lat": 47.612011}}, {"id": 2931569, "name": "Eisenbach", "state": "", "country": "DE", "coord": {"lon": 8.26667, "lat": 47.966671}}, {"id": 2931574, "name": "Eisenach", "state": "", "country": "DE", "coord": {"lon": 10.31667, "lat": 50.98333}}, {"id": 2931575, "name": "Eisenach", "state": "", "country": "DE", "coord": {"lon": 6.51667, "lat": 49.849998}}, {"id": 2931576, "name": "Eisen", "state": "", "country": "DE", "coord": {"lon": 7.9, "lat": 50.5}}, {"id": 2931578, "name": "Eisemroth", "state": "", "country": "DE", "coord": {"lon": 8.41667, "lat": 50.73333}}, {"id": 2931594, "name": "Eisdorf am Harz", "state": "", "country": "DE", "coord": {"lon": 10.17591, "lat": 51.76152}}, {"id": 2931598, "name": "Eischott", "state": "", "country": "DE", "coord": {"lon": 10.84179, "lat": 52.486229}}, {"id": 2931599, "name": "Eischleben", "state": "", "country": "DE", "coord": {"lon": 10.98333, "lat": 50.883331}}, {"id": 2931608, "name": "Eisbergen", "state": "", "country": "DE", "coord": {"lon": 9.01667, "lat": 52.200001}}, {"id": 2931660, "name": "Einste", "state": "", "country": "DE", "coord": {"lon": 9.11667, "lat": 52.916672}}, {"id": 2931666, "name": "Einsiedlerhof", "state": "", "country": "DE", "coord": {"lon": 7.66667, "lat": 49.433331}}, {"id": 2931691, "name": "Einselthum", "state": "", "country": "DE", "coord": {"lon": 8.12472, "lat": 49.651669}}, {"id": 2931694, "name": "Einsbach", "state": "", "country": "DE", "coord": {"lon": 11.26678, "lat": 48.269032}}, {"id": 2931703, "name": "Ein\u00f6llen", "state": "", "country": "DE", "coord": {"lon": 7.63333, "lat": 49.616669}}, {"id": 2931714, "name": "Ein\u00f6de", "state": "", "country": "DE", "coord": {"lon": 10.4, "lat": 47.76667}}, {"id": 2931742, "name": "Einig", "state": "", "country": "DE", "coord": {"lon": 7.28333, "lat": 50.283329}}, {"id": 2931752, "name": "Einhausen", "state": "", "country": "DE", "coord": {"lon": 10.46667, "lat": 50.533329}}, {"id": 2931753, "name": "Einhausen", "state": "", "country": "DE", "coord": {"lon": 8.54833, "lat": 49.67667}}, {"id": 2931759, "name": "Einhaus", "state": "", "country": "DE", "coord": {"lon": 10.73333, "lat": 53.716671}}, {"id": 2931784, "name": "Markt Einersheim", "state": "", "country": "DE", "coord": {"lon": 10.3, "lat": 49.683331}}, {"id": 2931795, "name": "Eineborn", "state": "", "country": "DE", "coord": {"lon": 11.86667, "lat": 50.833328}}, {"id": 2931804, "name": "Einbeck", "state": "", "country": "DE", "coord": {"lon": 9.86667, "lat": 51.816669}}, {"id": 2931809, "name": "Einbach", "state": "", "country": "DE", "coord": {"lon": 8.15, "lat": 48.316669}}, {"id": 2931815, "name": "Eimsheim", "state": "", "country": "DE", "coord": {"lon": 8.28944, "lat": 49.79583}}, {"id": 2931818, "name": "Eimke", "state": "", "country": "DE", "coord": {"lon": 10.31324, "lat": 52.966011}}, {"id": 2931821, "name": "Eimersleben", "state": "", "country": "DE", "coord": {"lon": 11.20056, "lat": 52.221909}}, {"id": 2931825, "name": "Eimen", "state": "", "country": "DE", "coord": {"lon": 9.78333, "lat": 51.883331}}, {"id": 2931826, "name": "Eimelrod", "state": "", "country": "DE", "coord": {"lon": 8.7, "lat": 51.299999}}, {"id": 2931827, "name": "Eimeldingen", "state": "", "country": "DE", "coord": {"lon": 7.6, "lat": 47.633331}}, {"id": 2931828, "name": "Eime", "state": "", "country": "DE", "coord": {"lon": 9.72118, "lat": 52.07449}}, {"id": 2931830, "name": "Eimbeckhausen", "state": "", "country": "DE", "coord": {"lon": 9.42284, "lat": 52.232738}}, {"id": 2931834, "name": "Eilum", "state": "", "country": "DE", "coord": {"lon": 10.72575, "lat": 52.16256}}, {"id": 2931837, "name": "Eilsum", "state": "", "country": "DE", "coord": {"lon": 7.15, "lat": 53.466671}}, {"id": 2931838, "name": "Eilsleben", "state": "", "country": "DE", "coord": {"lon": 11.21035, "lat": 52.147079}}, {"id": 2931842, "name": "Eilsdorf", "state": "", "country": "DE", "coord": {"lon": 11.0, "lat": 52.0}}, {"id": 2931843, "name": "Eilscheid", "state": "", "country": "DE", "coord": {"lon": 6.38333, "lat": 50.133331}}, {"id": 2931856, "name": "Eilern", "state": "", "country": "DE", "coord": {"lon": 8.78333, "lat": 51.549999}}, {"id": 2931864, "name": "Eilenstedt", "state": "", "country": "DE", "coord": {"lon": 11.03333, "lat": 51.98333}}, {"id": 2931867, "name": "Eilendorf", "state": "", "country": "DE", "coord": {"lon": 9.7, "lat": 53.450001}}, {"id": 2931871, "name": "Eilenburg", "state": "", "country": "DE", "coord": {"lon": 12.63338, "lat": 51.459839}}, {"id": 2931877, "name": "Eilbek", "state": "", "country": "DE", "coord": {"lon": 10.05, "lat": 53.566669}}, {"id": 2931881, "name": "Eil", "state": "", "country": "DE", "coord": {"lon": 7.08333, "lat": 50.900002}}, {"id": 2931900, "name": "Eigenrode", "state": "", "country": "DE", "coord": {"lon": 10.43333, "lat": 51.283329}}, {"id": 2931901, "name": "Eigenrieden", "state": "", "country": "DE", "coord": {"lon": 10.33333, "lat": 51.216671}}, {"id": 2931911, "name": "Eigeltingen", "state": "", "country": "DE", "coord": {"lon": 8.9, "lat": 47.866669}}, {"id": 2931916, "name": "Eigelbach", "state": "", "country": "DE", "coord": {"lon": 6.58333, "lat": 50.183331}}, {"id": 2931976, "name": "Eickum", "state": "", "country": "DE", "coord": {"lon": 8.6, "lat": 52.116669}}, {"id": 2931985, "name": "Eicklingen", "state": "", "country": "DE", "coord": {"lon": 10.18333, "lat": 52.549999}}, {"id": 2932012, "name": "Eickendorf", "state": "", "country": "DE", "coord": {"lon": 11.67538, "lat": 51.947651}}, {"id": 2932019, "name": "Eicken", "state": "", "country": "DE", "coord": {"lon": 6.3, "lat": 51.216671}}, {"id": 2932024, "name": "Eickeloh", "state": "", "country": "DE", "coord": {"lon": 9.60686, "lat": 52.729221}}, {"id": 2932026, "name": "Eickelerbruch", "state": "", "country": "DE", "coord": {"lon": 7.16667, "lat": 51.51667}}, {"id": 2932027, "name": "Eickelborn", "state": "", "country": "DE", "coord": {"lon": 8.21667, "lat": 51.650002}}, {"id": 2932029, "name": "Eickel", "state": "", "country": "DE", "coord": {"lon": 7.18333, "lat": 51.51667}}, {"id": 2932031, "name": "Eickel", "state": "", "country": "DE", "coord": {"lon": 8.56667, "lat": 52.316669}}, {"id": 2932033, "name": "Eickbusch", "state": "", "country": "DE", "coord": {"lon": 8.48866, "lat": 52.648579}}, {"id": 2932040, "name": "Eichwalde", "state": "", "country": "DE", "coord": {"lon": 13.61667, "lat": 52.366669}}, {"id": 2932056, "name": "Eichtersheim", "state": "", "country": "DE", "coord": {"lon": 8.77361, "lat": 49.238892}}, {"id": 2932061, "name": "Eichstruth", "state": "", "country": "DE", "coord": {"lon": 10.08333, "lat": 51.299999}}, {"id": 2932063, "name": "Eichstetten", "state": "", "country": "DE", "coord": {"lon": 7.73333, "lat": 48.083328}}, {"id": 2932066, "name": "Eichstegen", "state": "", "country": "DE", "coord": {"lon": 9.5, "lat": 47.933331}}, {"id": 2932067, "name": "Eichstedt", "state": "", "country": "DE", "coord": {"lon": 11.85, "lat": 52.683331}}, {"id": 2932069, "name": "Eichst\u00e4tt", "state": "", "country": "DE", "coord": {"lon": 11.18333, "lat": 48.883331}}, {"id": 2932082, "name": "Eichrodt", "state": "", "country": "DE", "coord": {"lon": 10.4, "lat": 50.966671}}, {"id": 2932119, "name": "Eichigt", "state": "", "country": "DE", "coord": {"lon": 12.16667, "lat": 50.349998}}, {"id": 2932126, "name": "Eichicht", "state": "", "country": "DE", "coord": {"lon": 11.43548, "lat": 50.611301}}, {"id": 2932131, "name": "Eichhorst", "state": "", "country": "DE", "coord": {"lon": 13.5, "lat": 53.599998}}, {"id": 2932132, "name": "Eichhorst", "state": "", "country": "DE", "coord": {"lon": 13.63807, "lat": 52.890831}}, {"id": 2932158, "name": "Eichholz", "state": "", "country": "DE", "coord": {"lon": 13.65, "lat": 51.616669}}, {"id": 2932161, "name": "Eichholz", "state": "", "country": "DE", "coord": {"lon": 7.71667, "lat": 50.916672}}, {"id": 2932163, "name": "Eichholz", "state": "", "country": "DE", "coord": {"lon": 11.55, "lat": 50.066669}}, {"id": 2932241, "name": "Eichfeld", "state": "", "country": "DE", "coord": {"lon": 11.26667, "lat": 50.716671}}, {"id": 2932259, "name": "Eicherscheid", "state": "", "country": "DE", "coord": {"lon": 6.76667, "lat": 50.533329}}, {"id": 2932260, "name": "Eicherloh", "state": "", "country": "DE", "coord": {"lon": 11.78333, "lat": 48.25}}, {"id": 2932266, "name": "Eichenzell", "state": "", "country": "DE", "coord": {"lon": 9.69672, "lat": 50.495361}}, {"id": 2932277, "name": "Eichenstein", "state": "", "country": "DE", "coord": {"lon": 11.70409, "lat": 50.384659}}, {"id": 2932286, "name": "Eichenried", "state": "", "country": "DE", "coord": {"lon": 11.78206, "lat": 48.277481}}, {"id": 2932296, "name": "Eichenkofen", "state": "", "country": "DE", "coord": {"lon": 11.91667, "lat": 48.349998}}, {"id": 2932304, "name": "Eichenhofen", "state": "", "country": "DE", "coord": {"lon": 10.48333, "lat": 48.466671}}, {"id": 2932313, "name": "Eichenhausen", "state": "", "country": "DE", "coord": {"lon": 10.3, "lat": 50.316669}}, {"id": 2932321, "name": "Eichendorf", "state": "", "country": "DE", "coord": {"lon": 12.85, "lat": 48.633331}}, {"id": 2932322, "name": "Eichendorf", "state": "", "country": "DE", "coord": {"lon": 11.25, "lat": 47.799999}}, {"id": 2932329, "name": "Eichenb\u00fchl", "state": "", "country": "DE", "coord": {"lon": 9.32917, "lat": 49.705559}}, {"id": 2932343, "name": "Eichenberg", "state": "", "country": "DE", "coord": {"lon": 11.53333, "lat": 50.799999}}, {"id": 2932344, "name": "Eichenberg", "state": "", "country": "DE", "coord": {"lon": 10.66667, "lat": 50.549999}}, {"id": 2932376, "name": "Eichenbarleben", "state": "", "country": "DE", "coord": {"lon": 11.4, "lat": 52.166672}}, {"id": 2932379, "name": "Eichenbach", "state": "", "country": "DE", "coord": {"lon": 6.81667, "lat": 50.433331}}, {"id": 2932382, "name": "Eichenau", "state": "", "country": "DE", "coord": {"lon": 11.31667, "lat": 48.166672}}, {"id": 2932390, "name": "Eichen", "state": "", "country": "DE", "coord": {"lon": 7.53333, "lat": 50.633331}}, {"id": 2932426, "name": "Eichelsbach", "state": "", "country": "DE", "coord": {"lon": 9.23528, "lat": 49.849171}}, {"id": 2932440, "name": "Eichelhardt", "state": "", "country": "DE", "coord": {"lon": 7.7, "lat": 50.716671}}, {"id": 2932448, "name": "Eichelborn", "state": "", "country": "DE", "coord": {"lon": 11.18333, "lat": 50.950001}}, {"id": 2932548, "name": "Eiche-Golm", "state": "", "country": "DE", "coord": {"lon": 12.96667, "lat": 52.400002}}, {"id": 2932549, "name": "Eichede", "state": "", "country": "DE", "coord": {"lon": 10.4, "lat": 53.716671}}, {"id": 2932550, "name": "Eiche", "state": "", "country": "DE", "coord": {"lon": 13.58906, "lat": 52.563461}}, {"id": 2932553, "name": "Eiche", "state": "", "country": "DE", "coord": {"lon": 14.08333, "lat": 51.883331}}, {"id": 2932706, "name": "Eicha", "state": "", "country": "DE", "coord": {"lon": 12.56922, "lat": 51.296059}}, {"id": 2932715, "name": "Eich", "state": "", "country": "DE", "coord": {"lon": 8.39889, "lat": 49.75}}, {"id": 2932738, "name": "Eibenstock", "state": "", "country": "DE", "coord": {"lon": 12.6, "lat": 50.51667}}, {"id": 2932748, "name": "Eibelstadt", "state": "", "country": "DE", "coord": {"lon": 9.99962, "lat": 49.723919}}, {"id": 2932750, "name": "Eibelshausen", "state": "", "country": "DE", "coord": {"lon": 8.35, "lat": 50.816669}}, {"id": 2932756, "name": "Eibau", "state": "", "country": "DE", "coord": {"lon": 14.66667, "lat": 50.98333}}, {"id": 2932757, "name": "Eibach", "state": "", "country": "DE", "coord": {"lon": 8.33333, "lat": 50.75}}, {"id": 2932764, "name": "Ehweiler", "state": "", "country": "DE", "coord": {"lon": 7.36667, "lat": 49.51667}}, {"id": 2932774, "name": "Ehrsberg", "state": "", "country": "DE", "coord": {"lon": 7.90561, "lat": 47.743649}}, {"id": 2932782, "name": "Ehrlich", "state": "", "country": "DE", "coord": {"lon": 7.75, "lat": 50.716671}}, {"id": 2932786, "name": "Ehrl", "state": "", "country": "DE", "coord": {"lon": 11.05, "lat": 50.0}}, {"id": 2932788, "name": "Ehringshausen", "state": "", "country": "DE", "coord": {"lon": 8.38333, "lat": 50.599998}}, {"id": 2932809, "name": "Ehrenthal", "state": "", "country": "DE", "coord": {"lon": 7.66667, "lat": 50.166672}}, {"id": 2932828, "name": "Ehrenfriedersdorf", "state": "", "country": "DE", "coord": {"lon": 12.95, "lat": 50.650002}}, {"id": 2932841, "name": "Ehrenburg", "state": "", "country": "DE", "coord": {"lon": 8.7, "lat": 52.75}}, {"id": 2932849, "name": "Ehrenberg", "state": "", "country": "DE", "coord": {"lon": 10.65, "lat": 50.48333}}, {"id": 2932860, "name": "Ehrenbach", "state": "", "country": "DE", "coord": {"lon": 8.21667, "lat": 50.200001}}, {"id": 2932877, "name": "Ehr", "state": "", "country": "DE", "coord": {"lon": 7.78467, "lat": 50.237869}}, {"id": 2932882, "name": "Ehningen", "state": "", "country": "DE", "coord": {"lon": 8.94124, "lat": 48.658821}}, {"id": 2932887, "name": "Ehndorf", "state": "", "country": "DE", "coord": {"lon": 9.9, "lat": 54.049999}}, {"id": 2932893, "name": "Ehlscheid", "state": "", "country": "DE", "coord": {"lon": 7.45, "lat": 50.51667}}, {"id": 2932899, "name": "Ehlershausen", "state": "", "country": "DE", "coord": {"lon": 10.02073, "lat": 52.520401}}, {"id": 2932904, "name": "Ehlenz", "state": "", "country": "DE", "coord": {"lon": 6.46667, "lat": 50.049999}}, {"id": 2932913, "name": "Ehlen", "state": "", "country": "DE", "coord": {"lon": 9.3086, "lat": 51.323212}}, {"id": 2932920, "name": "Ehingen", "state": "", "country": "DE", "coord": {"lon": 6.7, "lat": 51.366669}}, {"id": 2932921, "name": "Ehingen", "state": "", "country": "DE", "coord": {"lon": 10.53333, "lat": 49.083328}}, {"id": 2932922, "name": "Ehingen", "state": "", "country": "DE", "coord": {"lon": 10.8, "lat": 48.599998}}, {"id": 2932923, "name": "Ehingen", "state": "", "country": "DE", "coord": {"lon": 8.93274, "lat": 48.47298}}, {"id": 2932924, "name": "Ehingen", "state": "", "country": "DE", "coord": {"lon": 9.72749, "lat": 48.282589}}, {"id": 2932930, "name": "Ehestorf", "state": "", "country": "DE", "coord": {"lon": 9.9, "lat": 53.450001}}, {"id": 2932931, "name": "Ehestorf", "state": "", "country": "DE", "coord": {"lon": 9.38333, "lat": 53.25}}, {"id": 2932935, "name": "Ehenfeld", "state": "", "country": "DE", "coord": {"lon": 11.95, "lat": 49.583328}}, {"id": 2932938, "name": "Ehekirchen", "state": "", "country": "DE", "coord": {"lon": 11.1, "lat": 48.633331}}, {"id": 2932952, "name": "Egweil", "state": "", "country": "DE", "coord": {"lon": 11.23333, "lat": 48.783329}}, {"id": 2932954, "name": "Egstedt", "state": "", "country": "DE", "coord": {"lon": 11.05, "lat": 50.916672}}, {"id": 2932958, "name": "Egsdorf", "state": "", "country": "DE", "coord": {"lon": 13.8, "lat": 51.833328}}, {"id": 2932960, "name": "Egmating", "state": "", "country": "DE", "coord": {"lon": 11.79528, "lat": 48.004051}}, {"id": 2932987, "name": "Egloffstein", "state": "", "country": "DE", "coord": {"lon": 11.25, "lat": 49.700001}}, {"id": 2932991, "name": "Egling", "state": "", "country": "DE", "coord": {"lon": 10.98333, "lat": 48.183331}}, {"id": 2932992, "name": "Egling", "state": "", "country": "DE", "coord": {"lon": 11.50517, "lat": 47.923161}}, {"id": 2932993, "name": "Egling", "state": "", "country": "DE", "coord": {"lon": 11.21667, "lat": 47.700001}}, {"id": 2932996, "name": "Eglhausen", "state": "", "country": "DE", "coord": {"lon": 11.55, "lat": 48.433331}}, {"id": 2932997, "name": "Eglhartinger Kolonie", "state": "", "country": "DE", "coord": {"lon": 11.86667, "lat": 48.083328}}, {"id": 2933009, "name": "Eging", "state": "", "country": "DE", "coord": {"lon": 12.2, "lat": 48.466671}}, {"id": 2933010, "name": "Eging", "state": "", "country": "DE", "coord": {"lon": 12.71667, "lat": 47.966671}}, {"id": 2933017, "name": "Eggstedt", "state": "", "country": "DE", "coord": {"lon": 9.26667, "lat": 54.049999}}, {"id": 2933018, "name": "Eggst\u00e4tt", "state": "", "country": "DE", "coord": {"lon": 12.37919, "lat": 47.926979}}, {"id": 2933019, "name": "Eggolsheim", "state": "", "country": "DE", "coord": {"lon": 11.05806, "lat": 49.771111}}, {"id": 2933025, "name": "Egglkofen", "state": "", "country": "DE", "coord": {"lon": 12.45, "lat": 48.400002}}, {"id": 2933029, "name": "Egglham", "state": "", "country": "DE", "coord": {"lon": 13.06667, "lat": 48.533329}}, {"id": 2933032, "name": "Egglfing", "state": "", "country": "DE", "coord": {"lon": 13.31423, "lat": 48.327671}}, {"id": 2933034, "name": "Eggisried", "state": "", "country": "DE", "coord": {"lon": 10.3, "lat": 47.966671}}, {"id": 2933042, "name": "Eggesin", "state": "", "country": "DE", "coord": {"lon": 14.08333, "lat": 53.683331}}, {"id": 2933063, "name": "Eggersdorf", "state": "", "country": "DE", "coord": {"lon": 14.1, "lat": 52.48333}}, {"id": 2933064, "name": "Eggersdorf", "state": "", "country": "DE", "coord": {"lon": 11.70971, "lat": 51.976212}}, {"id": 2933070, "name": "Eggerscheidt", "state": "", "country": "DE", "coord": {"lon": 6.88333, "lat": 51.316669}}, {"id": 2933071, "name": "Eggersberg", "state": "", "country": "DE", "coord": {"lon": 13.1, "lat": 49.183331}}, {"id": 2933079, "name": "Eggerode", "state": "", "country": "DE", "coord": {"lon": 7.23333, "lat": 52.066669}}, {"id": 2933099, "name": "Eggenthal", "state": "", "country": "DE", "coord": {"lon": 10.51667, "lat": 47.916672}}, {"id": 2933101, "name": "Eggenstein-Leopoldshafen", "state": "", "country": "DE", "coord": {"lon": 8.39879, "lat": 49.090061}}, {"id": 2933103, "name": "Eggenstedt", "state": "", "country": "DE", "coord": {"lon": 11.23333, "lat": 52.099998}}, {"id": 2933114, "name": "Eggenhof", "state": "", "country": "DE", "coord": {"lon": 11.08333, "lat": 49.599998}}, {"id": 2933115, "name": "Eggenfelden", "state": "", "country": "DE", "coord": {"lon": 12.76264, "lat": 48.405392}}, {"id": 2933133, "name": "Eggelstetten", "state": "", "country": "DE", "coord": {"lon": 10.85, "lat": 48.683331}}, {"id": 2933139, "name": "Eggelhof", "state": "", "country": "DE", "coord": {"lon": 10.83333, "lat": 48.5}}, {"id": 2933150, "name": "Eggebek", "state": "", "country": "DE", "coord": {"lon": 9.36667, "lat": 54.616669}}, {"id": 2933168, "name": "Egg an der G\u00fcnz", "state": "", "country": "DE", "coord": {"lon": 10.28333, "lat": 48.083328}}, {"id": 2933178, "name": "Egg", "state": "", "country": "DE", "coord": {"lon": 9.96667, "lat": 47.633331}}, {"id": 2933179, "name": "Egg", "state": "", "country": "DE", "coord": {"lon": 7.96097, "lat": 47.587818}}, {"id": 2933187, "name": "Egestorf", "state": "", "country": "DE", "coord": {"lon": 10.063, "lat": 53.193001}}, {"id": 2933188, "name": "Egestorf", "state": "", "country": "DE", "coord": {"lon": 9.51667, "lat": 52.283329}}, {"id": 2933189, "name": "Egestorf", "state": "", "country": "DE", "coord": {"lon": 9.40069, "lat": 52.21912}}, {"id": 2933190, "name": "Egesheim", "state": "", "country": "DE", "coord": {"lon": 8.86667, "lat": 48.116669}}, {"id": 2933203, "name": "Egerer", "state": "", "country": "DE", "coord": {"lon": 12.5366, "lat": 47.907829}}, {"id": 2933209, "name": "Egenroth", "state": "", "country": "DE", "coord": {"lon": 7.95, "lat": 50.183331}}, {"id": 2933210, "name": "Egenried", "state": "", "country": "DE", "coord": {"lon": 11.23333, "lat": 47.76667}}, {"id": 2933212, "name": "Egenhofen", "state": "", "country": "DE", "coord": {"lon": 11.16667, "lat": 48.283329}}, {"id": 2933214, "name": "Egenhausen", "state": "", "country": "DE", "coord": {"lon": 10.08991, "lat": 50.031952}}, {"id": 2933216, "name": "Egenhausen", "state": "", "country": "DE", "coord": {"lon": 8.61667, "lat": 48.566669}}, {"id": 2933220, "name": "Egenburg", "state": "", "country": "DE", "coord": {"lon": 11.15, "lat": 48.299999}}, {"id": 2933240, "name": "Egelsdorf", "state": "", "country": "DE", "coord": {"lon": 11.08333, "lat": 50.633331}}, {"id": 2933246, "name": "Egelsbach", "state": "", "country": "DE", "coord": {"lon": 8.67028, "lat": 49.971111}}, {"id": 2933256, "name": "Egeln", "state": "", "country": "DE", "coord": {"lon": 11.43265, "lat": 51.94384}}, {"id": 2933274, "name": "Efringen-Kirchen", "state": "", "country": "DE", "coord": {"lon": 7.56667, "lat": 47.650002}}, {"id": 2933287, "name": "Effeltrich", "state": "", "country": "DE", "coord": {"lon": 11.09319, "lat": 49.65929}}, {"id": 2933297, "name": "Effelder", "state": "", "country": "DE", "coord": {"lon": 10.25, "lat": 51.23333}}, {"id": 2933333, "name": "Edling", "state": "", "country": "DE", "coord": {"lon": 12.1647, "lat": 48.05611}}, {"id": 2933343, "name": "Edlau", "state": "", "country": "DE", "coord": {"lon": 11.81667, "lat": 51.666672}}, {"id": 2933345, "name": "Edingen-Neckarhausen", "state": "", "country": "DE", "coord": {"lon": 8.60639, "lat": 49.457218}}, {"id": 2933347, "name": "Edingen", "state": "", "country": "DE", "coord": {"lon": 6.48333, "lat": 49.816669}}, {"id": 2933349, "name": "Edigheim", "state": "", "country": "DE", "coord": {"lon": 8.38417, "lat": 49.53167}}, {"id": 2933350, "name": "Ediger", "state": "", "country": "DE", "coord": {"lon": 7.16667, "lat": 50.099998}}, {"id": 2933363, "name": "Edewechterdamm", "state": "", "country": "DE", "coord": {"lon": 7.93333, "lat": 53.083328}}, {"id": 2933364, "name": "Edewecht", "state": "", "country": "DE", "coord": {"lon": 7.98333, "lat": 53.133331}}, {"id": 2933367, "name": "Edesheim", "state": "", "country": "DE", "coord": {"lon": 8.135, "lat": 49.263329}}, {"id": 2933372, "name": "Edersleben", "state": "", "country": "DE", "coord": {"lon": 11.28333, "lat": 51.416672}}, {"id": 2933385, "name": "Ederheim", "state": "", "country": "DE", "coord": {"lon": 10.46667, "lat": 48.816669}}, {"id": 2933388, "name": "Ederbringhausen", "state": "", "country": "DE", "coord": {"lon": 8.8664, "lat": 51.12949}}, {"id": 2933410, "name": "Edenkoben", "state": "", "country": "DE", "coord": {"lon": 8.12714, "lat": 49.283932}}, {"id": 2933429, "name": "Edenb\u00fcttel", "state": "", "country": "DE", "coord": {"lon": 8.61667, "lat": 53.150002}}, {"id": 2933442, "name": "Edemissen", "state": "", "country": "DE", "coord": {"lon": 10.2614, "lat": 52.38702}}, {"id": 2933446, "name": "Edelzell", "state": "", "country": "DE", "coord": {"lon": 9.70299, "lat": 50.526409}}, {"id": 2933452, "name": "Edelsfeld", "state": "", "country": "DE", "coord": {"lon": 11.69589, "lat": 49.576439}}, {"id": 2933478, "name": "Edelbach", "state": "", "country": "DE", "coord": {"lon": 9.3, "lat": 50.116669}}, {"id": 2933484, "name": "Eddersheim", "state": "", "country": "DE", "coord": {"lon": 8.46667, "lat": 50.033329}}, {"id": 2933485, "name": "Edderitz", "state": "", "country": "DE", "coord": {"lon": 11.93333, "lat": 51.683331}}, {"id": 2933487, "name": "Eddelsen", "state": "", "country": "DE", "coord": {"lon": 9.96667, "lat": 53.383331}}, {"id": 2933488, "name": "Eddelak", "state": "", "country": "DE", "coord": {"lon": 9.15, "lat": 53.950001}}, {"id": 2933524, "name": "Eckstedt", "state": "", "country": "DE", "coord": {"lon": 11.13333, "lat": 51.066669}}, {"id": 2933529, "name": "Ecksberg", "state": "", "country": "DE", "coord": {"lon": 12.48333, "lat": 48.25}}, {"id": 2933534, "name": "Eckolst\u00e4dt", "state": "", "country": "DE", "coord": {"lon": 11.63333, "lat": 51.033329}}, {"id": 2933543, "name": "Ecklingerode", "state": "", "country": "DE", "coord": {"lon": 10.31667, "lat": 51.5}}, {"id": 2933550, "name": "Ecklak", "state": "", "country": "DE", "coord": {"lon": 9.26667, "lat": 53.950001}}, {"id": 2933560, "name": "Eckhorst", "state": "", "country": "DE", "coord": {"lon": 10.6, "lat": 53.900002}}, {"id": 2933566, "name": "Eckhofen", "state": "", "country": "DE", "coord": {"lon": 11.27463, "lat": 48.35117}}, {"id": 2933587, "name": "Eckfeld", "state": "", "country": "DE", "coord": {"lon": 6.85, "lat": 50.116669}}, {"id": 2933599, "name": "Eckersweiler", "state": "", "country": "DE", "coord": {"lon": 7.28333, "lat": 49.566669}}, {"id": 2933601, "name": "Eckerstampf", "state": "", "country": "DE", "coord": {"lon": 13.63691, "lat": 48.5709}}, {"id": 2933606, "name": "Eckersdorf", "state": "", "country": "DE", "coord": {"lon": 13.63333, "lat": 50.966671}}, {"id": 2933607, "name": "Eckersdorf", "state": "", "country": "DE", "coord": {"lon": 11.4, "lat": 50.033329}}, {"id": 2933608, "name": "Eckersdorf", "state": "", "country": "DE", "coord": {"lon": 11.49621, "lat": 49.934799}}, {"id": 2933618, "name": "Eckersbach", "state": "", "country": "DE", "coord": {"lon": 12.5, "lat": 50.73333}}, {"id": 2933627, "name": "Eckernf\u00f6rde", "state": "", "country": "DE", "coord": {"lon": 9.83333, "lat": 54.466671}}, {"id": 2933632, "name": "Eckerding", "state": "", "country": "DE", "coord": {"lon": 11.68333, "lat": 49.099998}}, {"id": 2933643, "name": "Eckenroth", "state": "", "country": "DE", "coord": {"lon": 7.78333, "lat": 49.916672}}, {"id": 2933653, "name": "Eckenhaid", "state": "", "country": "DE", "coord": {"lon": 11.23333, "lat": 49.583328}}, {"id": 2933654, "name": "Eckenhagen", "state": "", "country": "DE", "coord": {"lon": 7.7, "lat": 50.98333}}, {"id": 2933663, "name": "Eckenbach", "state": "", "country": "DE", "coord": {"lon": 7.46667, "lat": 50.700001}}, {"id": 2933669, "name": "Eckelsheim", "state": "", "country": "DE", "coord": {"lon": 7.98333, "lat": 49.799999}}, {"id": 2933670, "name": "Eckelshausen", "state": "", "country": "DE", "coord": {"lon": 8.53333, "lat": 50.883331}}, {"id": 2933672, "name": "Ekelsdorf", "state": "", "country": "DE", "coord": {"lon": 10.68498, "lat": 54.057949}}, {"id": 2933680, "name": "Eckel", "state": "", "country": "DE", "coord": {"lon": 9.91667, "lat": 53.366669}}, {"id": 2933701, "name": "Eckartsweiler", "state": "", "country": "DE", "coord": {"lon": 10.35, "lat": 49.26667}}, {"id": 2933706, "name": "Eckartsreuth", "state": "", "country": "DE", "coord": {"lon": 11.78333, "lat": 49.933331}}, {"id": 2933720, "name": "Eckartsberga", "state": "", "country": "DE", "coord": {"lon": 11.55, "lat": 51.116669}}, {"id": 2933721, "name": "Eckartsberg", "state": "", "country": "DE", "coord": {"lon": 14.8, "lat": 50.916672}}, {"id": 2933733, "name": "Eckardtsheim", "state": "", "country": "DE", "coord": {"lon": 8.56667, "lat": 51.933331}}, {"id": 2933734, "name": "Eckardtshausen", "state": "", "country": "DE", "coord": {"lon": 10.26667, "lat": 50.916672}}, {"id": 2933736, "name": "Eckardts", "state": "", "country": "DE", "coord": {"lon": 10.25, "lat": 50.700001}}, {"id": 2933772, "name": "Echzell", "state": "", "country": "DE", "coord": {"lon": 8.9, "lat": 50.400002}}, {"id": 2933773, "name": "Echtz", "state": "", "country": "DE", "coord": {"lon": 6.41667, "lat": 50.833328}}, {"id": 2933774, "name": "Echtrop", "state": "", "country": "DE", "coord": {"lon": 8.18104, "lat": 51.509331}}, {"id": 2933781, "name": "Echtershausen", "state": "", "country": "DE", "coord": {"lon": 6.41667, "lat": 50.01667}}, {"id": 2933787, "name": "Echternacherbr\u00fcck", "state": "", "country": "DE", "coord": {"lon": 6.43333, "lat": 49.816669}}, {"id": 2933789, "name": "Echterdingen", "state": "", "country": "DE", "coord": {"lon": 9.16775, "lat": 48.688438}}, {"id": 2933792, "name": "Echte", "state": "", "country": "DE", "coord": {"lon": 10.06667, "lat": 51.783329}}, {"id": 2933794, "name": "Echsheim", "state": "", "country": "DE", "coord": {"lon": 11.01667, "lat": 48.599998}}, {"id": 2933798, "name": "Eching", "state": "", "country": "DE", "coord": {"lon": 12.06667, "lat": 48.5}}, {"id": 2933799, "name": "Eching", "state": "", "country": "DE", "coord": {"lon": 11.61667, "lat": 48.299999}}, {"id": 2933800, "name": "Eching", "state": "", "country": "DE", "coord": {"lon": 11.85305, "lat": 48.282509}}, {"id": 2933801, "name": "Eching", "state": "", "country": "DE", "coord": {"lon": 11.11336, "lat": 48.07991}}, {"id": 2933808, "name": "Echem", "state": "", "country": "DE", "coord": {"lon": 10.53333, "lat": 53.333328}}, {"id": 2933817, "name": "Ebstorf", "state": "", "country": "DE", "coord": {"lon": 10.41839, "lat": 53.027851}}, {"id": 2933818, "name": "Ebschied", "state": "", "country": "DE", "coord": {"lon": 7.51667, "lat": 50.083328}}, {"id": 2933821, "name": "Ebringen", "state": "", "country": "DE", "coord": {"lon": 7.77652, "lat": 47.957802}}, {"id": 2933838, "name": "Ebnet", "state": "", "country": "DE", "coord": {"lon": 8.3, "lat": 47.799999}}, {"id": 2933840, "name": "Ebnath", "state": "", "country": "DE", "coord": {"lon": 11.93333, "lat": 49.950001}}, {"id": 2933857, "name": "Ebhausen", "state": "", "country": "DE", "coord": {"lon": 8.68333, "lat": 48.583328}}, {"id": 2933863, "name": "Ebertsheim", "state": "", "country": "DE", "coord": {"lon": 8.10861, "lat": 49.568329}}, {"id": 2933865, "name": "Ebertshausen", "state": "", "country": "DE", "coord": {"lon": 7.98333, "lat": 50.283329}}, {"id": 2933882, "name": "Eberswalde", "state": "", "country": "DE", "coord": {"lon": 13.81951, "lat": 52.834919}}, {"id": 2933889, "name": "Eberstedt", "state": "", "country": "DE", "coord": {"lon": 11.58333, "lat": 51.066669}}, {"id": 2933891, "name": "Eberstall", "state": "", "country": "DE", "coord": {"lon": 10.44319, "lat": 48.363781}}, {"id": 2933897, "name": "Eberstadt", "state": "", "country": "DE", "coord": {"lon": 9.32111, "lat": 49.180279}}, {"id": 2933903, "name": "Eberspoint", "state": "", "country": "DE", "coord": {"lon": 12.31667, "lat": 48.383331}}, {"id": 2933907, "name": "Mainz-Ebersheim", "state": "", "country": "DE", "coord": {"lon": 8.24083, "lat": 49.912781}}, {"id": 2933909, "name": "Ebershausen", "state": "", "country": "DE", "coord": {"lon": 10.31565, "lat": 48.20546}}, {"id": 2933911, "name": "Ebersgr\u00fcn", "state": "", "country": "DE", "coord": {"lon": 12.01667, "lat": 50.599998}}, {"id": 2933912, "name": "Ebersg\u00f6ns", "state": "", "country": "DE", "coord": {"lon": 8.60916, "lat": 50.45335}}, {"id": 2933915, "name": "Ebersdorf bei Coburg", "state": "", "country": "DE", "coord": {"lon": 11.06667, "lat": 50.216671}}, {"id": 2933916, "name": "Ebersdorf", "state": "", "country": "DE", "coord": {"lon": 9.06667, "lat": 53.51667}}, {"id": 2933922, "name": "Ebersdorf", "state": "", "country": "DE", "coord": {"lon": 11.15, "lat": 50.333328}}, {"id": 2933931, "name": "Ebersbrunn", "state": "", "country": "DE", "coord": {"lon": 12.43333, "lat": 50.650002}}, {"id": 2933937, "name": "Landkreis Ebersberg", "state": "", "country": "DE", "coord": {"lon": 11.91444, "lat": 48.081108}}, {"id": 2933945, "name": "Ebersberg", "state": "", "country": "DE", "coord": {"lon": 11.97063, "lat": 48.077099}}, {"id": 2933959, "name": "Ebersbach an der Fils", "state": "", "country": "DE", "coord": {"lon": 9.5236, "lat": 48.716}}, {"id": 2933963, "name": "Ebersbach", "state": "", "country": "DE", "coord": {"lon": 13.1, "lat": 51.099998}}, {"id": 2933965, "name": "Ebersbach", "state": "", "country": "DE", "coord": {"lon": 14.58333, "lat": 51.01667}}, {"id": 2933981, "name": "Ebernhahn", "state": "", "country": "DE", "coord": {"lon": 7.76667, "lat": 50.466671}}, {"id": 2933984, "name": "Ebern", "state": "", "country": "DE", "coord": {"lon": 10.8, "lat": 50.083328}}, {"id": 2933986, "name": "Ebermannstadt", "state": "", "country": "DE", "coord": {"lon": 11.18111, "lat": 49.782219}}, {"id": 2933987, "name": "Ebermannsdorf", "state": "", "country": "DE", "coord": {"lon": 11.95, "lat": 49.400002}}, {"id": 2933994, "name": "Eberholzen", "state": "", "country": "DE", "coord": {"lon": 9.85, "lat": 52.049999}}, {"id": 2933997, "name": "Eberhausen", "state": "", "country": "DE", "coord": {"lon": 9.71667, "lat": 51.549999}}, {"id": 2934000, "name": "Eberhardzell", "state": "", "country": "DE", "coord": {"lon": 9.81667, "lat": 48.0}}, {"id": 2934002, "name": "Eberhardsweiler", "state": "", "country": "DE", "coord": {"lon": 9.64982, "lat": 48.880871}}, {"id": 2934009, "name": "Eberg\u00f6tzen", "state": "", "country": "DE", "coord": {"lon": 10.11667, "lat": 51.566669}}, {"id": 2934014, "name": "Eberdingen", "state": "", "country": "DE", "coord": {"lon": 8.96667, "lat": 48.883331}}, {"id": 2934015, "name": "Eberding", "state": "", "country": "DE", "coord": {"lon": 12.85, "lat": 47.950001}}, {"id": 2934020, "name": "Eberbach", "state": "", "country": "DE", "coord": {"lon": 8.99278, "lat": 49.46944}}, {"id": 2934023, "name": "Ebenweiler", "state": "", "country": "DE", "coord": {"lon": 9.51667, "lat": 47.900002}}, {"id": 2934032, "name": "Ebenshausen", "state": "", "country": "DE", "coord": {"lon": 10.3, "lat": 51.083328}}, {"id": 2934033, "name": "Ebensfeld", "state": "", "country": "DE", "coord": {"lon": 10.95835, "lat": 50.066399}}, {"id": 2934047, "name": "Ebenhofen", "state": "", "country": "DE", "coord": {"lon": 10.61667, "lat": 47.816669}}, {"id": 2934056, "name": "Ebenheim", "state": "", "country": "DE", "coord": {"lon": 10.51667, "lat": 50.98333}}, {"id": 2934067, "name": "Ebene", "state": "", "country": "DE", "coord": {"lon": 10.75, "lat": 50.183331}}, {"id": 2934073, "name": "Ebendorf", "state": "", "country": "DE", "coord": {"lon": 11.57478, "lat": 52.185509}}, {"id": 2934094, "name": "Ebelsbach", "state": "", "country": "DE", "coord": {"lon": 10.68333, "lat": 49.98333}}, {"id": 2934097, "name": "Ebeleben", "state": "", "country": "DE", "coord": {"lon": 10.73333, "lat": 51.283329}}, {"id": 2934136, "name": "Dyck", "state": "", "country": "DE", "coord": {"lon": 6.28333, "lat": 51.283329}}, {"id": 2934142, "name": "Dwergte", "state": "", "country": "DE", "coord": {"lon": 7.9, "lat": 52.883331}}, {"id": 2934158, "name": "D\u00fcvier", "state": "", "country": "DE", "coord": {"lon": 13.06858, "lat": 54.015491}}, {"id": 2934163, "name": "Duvenstedt", "state": "", "country": "DE", "coord": {"lon": 10.10444, "lat": 53.708061}}, {"id": 2934167, "name": "Duvensee", "state": "", "country": "DE", "coord": {"lon": 10.56667, "lat": 53.700001}}, {"id": 2934170, "name": "Duvendiek", "state": "", "country": "DE", "coord": {"lon": 12.9279, "lat": 54.336239}}, {"id": 2934184, "name": "Duttweiler", "state": "", "country": "DE", "coord": {"lon": 8.21389, "lat": 49.299171}}, {"id": 2934190, "name": "Duttenbrunn", "state": "", "country": "DE", "coord": {"lon": 9.71667, "lat": 49.900002}}, {"id": 2934195, "name": "D\u00fctschow", "state": "", "country": "DE", "coord": {"lon": 11.67486, "lat": 53.406971}}, {"id": 2934198, "name": "Dutenhofen", "state": "", "country": "DE", "coord": {"lon": 8.6, "lat": 50.566669}}, {"id": 2934218, "name": "D\u00fcsternbrook", "state": "", "country": "DE", "coord": {"lon": 10.15068, "lat": 54.334042}}, {"id": 2934235, "name": "Du\u00dflingen", "state": "", "country": "DE", "coord": {"lon": 9.05552, "lat": 48.453571}}, {"id": 2934245, "name": "D\u00fcsseldorf District", "state": "", "country": "DE", "coord": {"lon": 7.0, "lat": 51.25}}, {"id": 2934246, "name": "D\u00fcsseldorf", "state": "", "country": "DE", "coord": {"lon": 6.77616, "lat": 51.221722}}, {"id": 2934249, "name": "D\u00fcsselbach", "state": "", "country": "DE", "coord": {"lon": 11.47848, "lat": 49.55233}}, {"id": 2934251, "name": "D\u00fcssel", "state": "", "country": "DE", "coord": {"lon": 7.05, "lat": 51.26667}}, {"id": 2934260, "name": "D\u00fcsedau", "state": "", "country": "DE", "coord": {"lon": 11.8, "lat": 52.76667}}, {"id": 2934263, "name": "Duschlberg", "state": "", "country": "DE", "coord": {"lon": 13.63333, "lat": 48.650002}}, {"id": 2934270, "name": "D\u00fcrselen", "state": "", "country": "DE", "coord": {"lon": 6.48623, "lat": 51.134338}}, {"id": 2934279, "name": "D\u00fcrrweitzschen", "state": "", "country": "DE", "coord": {"lon": 13.2, "lat": 51.150002}}, {"id": 2934281, "name": "D\u00fcrrwangen", "state": "", "country": "DE", "coord": {"lon": 10.38333, "lat": 49.116669}}, {"id": 2934286, "name": "D\u00fcrrr\u00f6hrsdorf", "state": "", "country": "DE", "coord": {"lon": 13.99718, "lat": 51.033951}}, {"id": 2934295, "name": "D\u00fcrrnhaar", "state": "", "country": "DE", "coord": {"lon": 11.73597, "lat": 47.993019}}, {"id": 2934317, "name": "D\u00fcrrlauingen", "state": "", "country": "DE", "coord": {"lon": 10.4286, "lat": 48.46666}}, {"id": 2934324, "name": "D\u00fcrrhennersdorf", "state": "", "country": "DE", "coord": {"lon": 14.61667, "lat": 51.049999}}, {"id": 2934350, "name": "D\u00fcrrenuhlsdorf", "state": "", "country": "DE", "coord": {"lon": 12.61667, "lat": 50.900002}}, {"id": 2934406, "name": "D\u00fcrrbrunn", "state": "", "country": "DE", "coord": {"lon": 11.15713, "lat": 49.83577}}, {"id": 2934430, "name": "D\u00fcrn\u00f6d", "state": "", "country": "DE", "coord": {"lon": 13.29466, "lat": 48.35585}}, {"id": 2934452, "name": "D\u00fcrnau", "state": "", "country": "DE", "coord": {"lon": 9.63544, "lat": 48.640789}}, {"id": 2934453, "name": "D\u00fcrnau", "state": "", "country": "DE", "coord": {"lon": 9.56667, "lat": 48.066669}}, {"id": 2934461, "name": "D\u00fcrn", "state": "", "country": "DE", "coord": {"lon": 11.59504, "lat": 49.087021}}, {"id": 2934462, "name": "Durmersheim", "state": "", "country": "DE", "coord": {"lon": 8.26667, "lat": 48.933331}}, {"id": 2934464, "name": "D\u00fcrmentingen", "state": "", "country": "DE", "coord": {"lon": 9.53333, "lat": 48.116669}}, {"id": 2934466, "name": "Durlangen", "state": "", "country": "DE", "coord": {"lon": 9.79654, "lat": 48.856319}}, {"id": 2934469, "name": "Durlach", "state": "", "country": "DE", "coord": {"lon": 8.47432, "lat": 48.99976}}, {"id": 2934486, "name": "D\u00fcren", "state": "", "country": "DE", "coord": {"lon": 6.48333, "lat": 50.799999}}, {"id": 2934495, "name": "Durchhausen", "state": "", "country": "DE", "coord": {"lon": 8.68333, "lat": 48.033329}}, {"id": 2934499, "name": "D\u00fcrbheim", "state": "", "country": "DE", "coord": {"lon": 8.78333, "lat": 48.049999}}, {"id": 2934505, "name": "Durbach", "state": "", "country": "DE", "coord": {"lon": 8.01736, "lat": 48.493519}}, {"id": 2934506, "name": "Durbach", "state": "", "country": "DE", "coord": {"lon": 8.01667, "lat": 48.48333}}, {"id": 2934509, "name": "Durach", "state": "", "country": "DE", "coord": {"lon": 10.35, "lat": 47.700001}}, {"id": 2934519, "name": "Duppach", "state": "", "country": "DE", "coord": {"lon": 6.56667, "lat": 50.26667}}, {"id": 2934529, "name": "Dunzweiler", "state": "", "country": "DE", "coord": {"lon": 7.30548, "lat": 49.415859}}, {"id": 2934532, "name": "D\u00fcnzing", "state": "", "country": "DE", "coord": {"lon": 11.65, "lat": 48.783329}}, {"id": 2934541, "name": "Dunum", "state": "", "country": "DE", "coord": {"lon": 7.65, "lat": 53.599998}}, {"id": 2934543, "name": "Dunsum", "state": "", "country": "DE", "coord": {"lon": 8.42488, "lat": 54.731258}}, {"id": 2934547, "name": "D\u00fcnstekoven", "state": "", "country": "DE", "coord": {"lon": 6.93333, "lat": 50.700001}}, {"id": 2934548, "name": "D\u00fcnsen", "state": "", "country": "DE", "coord": {"lon": 8.63333, "lat": 52.916672}}, {"id": 2934560, "name": "Dunningen", "state": "", "country": "DE", "coord": {"lon": 8.50619, "lat": 48.212421}}, {"id": 2934571, "name": "D\u00fcnkirchen", "state": "", "country": "DE", "coord": {"lon": 7.96667, "lat": 53.416672}}, {"id": 2934576, "name": "Dunkelsdorf", "state": "", "country": "DE", "coord": {"lon": 10.6, "lat": 53.98333}}, {"id": 2934580, "name": "D\u00fcnkelhammer", "state": "", "country": "DE", "coord": {"lon": 12.01667, "lat": 50.01667}}, {"id": 2934594, "name": "D\u00fcngenheim", "state": "", "country": "DE", "coord": {"lon": 7.16667, "lat": 50.26667}}, {"id": 2934595, "name": "Dungelbeck", "state": "", "country": "DE", "coord": {"lon": 10.26758, "lat": 52.294361}}, {"id": 2934599, "name": "D\u00fcnfus", "state": "", "country": "DE", "coord": {"lon": 7.23333, "lat": 50.216671}}, {"id": 2934624, "name": "D\u00fcmpelfeld", "state": "", "country": "DE", "coord": {"lon": 6.95, "lat": 50.433331}}, {"id": 2934635, "name": "Dummerstorf", "state": "", "country": "DE", "coord": {"lon": 12.23333, "lat": 54.01667}}, {"id": 2934643, "name": "D\u00fcmmer", "state": "", "country": "DE", "coord": {"lon": 11.2, "lat": 53.583328}}, {"id": 2934655, "name": "D\u00fcmde", "state": "", "country": "DE", "coord": {"lon": 13.31667, "lat": 52.066669}}, {"id": 2934662, "name": "D\u00fclmen", "state": "", "country": "DE", "coord": {"lon": 7.3, "lat": 51.833328}}, {"id": 2934681, "name": "Duissern", "state": "", "country": "DE", "coord": {"lon": 6.78333, "lat": 51.433331}}, {"id": 2934683, "name": "Duisdorf", "state": "", "country": "DE", "coord": {"lon": 7.05, "lat": 50.716671}}, {"id": 2934691, "name": "Duisburg", "state": "", "country": "DE", "coord": {"lon": 6.75, "lat": 51.433331}}, {"id": 2934697, "name": "Duingen", "state": "", "country": "DE", "coord": {"lon": 9.69578, "lat": 52.00449}}, {"id": 2934707, "name": "Duggendorf", "state": "", "country": "DE", "coord": {"lon": 11.91667, "lat": 49.116669}}, {"id": 2934721, "name": "Dudweiler", "state": "", "country": "DE", "coord": {"lon": 7.03333, "lat": 49.283329}}, {"id": 2934728, "name": "Duderstadt", "state": "", "country": "DE", "coord": {"lon": 10.25951, "lat": 51.513119}}, {"id": 2934729, "name": "D\u00fcderode", "state": "", "country": "DE", "coord": {"lon": 10.11667, "lat": 51.799999}}, {"id": 2934732, "name": "Dudenrode", "state": "", "country": "DE", "coord": {"lon": 9.86667, "lat": 51.25}}, {"id": 2934737, "name": "Dudenhofen", "state": "", "country": "DE", "coord": {"lon": 8.38861, "lat": 49.318611}}, {"id": 2934739, "name": "Dudendorf", "state": "", "country": "DE", "coord": {"lon": 12.58432, "lat": 54.090912}}, {"id": 2934740, "name": "D\u00fcdenb\u00fcttel", "state": "", "country": "DE", "coord": {"lon": 9.35, "lat": 53.583328}}, {"id": 2934742, "name": "Dudenbostel", "state": "", "country": "DE", "coord": {"lon": 9.65, "lat": 52.566669}}, {"id": 2934745, "name": "D\u00fcdelsheim", "state": "", "country": "DE", "coord": {"lon": 9.03333, "lat": 50.299999}}, {"id": 2934747, "name": "Dudeldorf", "state": "", "country": "DE", "coord": {"lon": 6.63333, "lat": 49.98333}}, {"id": 2934756, "name": "Duckow", "state": "", "country": "DE", "coord": {"lon": 12.8, "lat": 53.700001}}, {"id": 2934757, "name": "D\u00fcckerswisch", "state": "", "country": "DE", "coord": {"lon": 9.31667, "lat": 54.049999}}, {"id": 2934762, "name": "Duchroth", "state": "", "country": "DE", "coord": {"lon": 7.73333, "lat": 49.799999}}, {"id": 2934764, "name": "Duchroth", "state": "", "country": "DE", "coord": {"lon": 7.73333, "lat": 49.783329}}, {"id": 2934766, "name": "Ducherow", "state": "", "country": "DE", "coord": {"lon": 13.78333, "lat": 53.76667}}, {"id": 2934767, "name": "D\u00fcchelsdorf", "state": "", "country": "DE", "coord": {"lon": 10.56667, "lat": 53.73333}}, {"id": 2934773, "name": "Dubro", "state": "", "country": "DE", "coord": {"lon": 13.26667, "lat": 51.76667}},