[{"id": 2977947, "name": "Saint-Mitre-les-Remparts", "state": "", "country": "FR", "coord": {"lon": 5.01702, "lat": 43.45488}}, {"id": 2977948, "name": "Saint-Mihiel", "state": "", "country": "FR", "coord": {"lon": 5.55099, "lat": 48.887459}}, {"id": 2977952, "name": "Saint-Michel-sur-Orge", "state": "", "country": "FR", "coord": {"lon": 2.30831, "lat": 48.634789}}, {"id": 2977953, "name": "Saint-Michel-sur-Meurthe", "state": "", "country": "FR", "coord": {"lon": 6.89024, "lat": 48.322189}}, {"id": 2977957, "name": "Saint-Michel-Mont-Mercure", "state": "", "country": "FR", "coord": {"lon": -0.88298, "lat": 46.829411}}, {"id": 2977961, "name": "Saint-Michel-l'\u00c9cluse-et-L\u00e9paron", "state": "", "country": "FR", "coord": {"lon": 0.08333, "lat": 45.150002}}, {"id": 2977962, "name": "Saint-Michel-le-Cloucq", "state": "", "country": "FR", "coord": {"lon": -0.75262, "lat": 46.485001}}, {"id": 2977963, "name": "Saint-Michel-de-Lapujade", "state": "", "country": "FR", "coord": {"lon": 0.08333, "lat": 44.583328}}, {"id": 2977967, "name": "Escalus", "state": "", "country": "FR", "coord": {"lon": -1.26314, "lat": 43.892288}}, {"id": 2977974, "name": "Saint-Michel-de-Villadeix", "state": "", "country": "FR", "coord": {"lon": 0.72144, "lat": 44.986568}}, {"id": 2977978, "name": "Saint-Michel-des-Loups", "state": "", "country": "FR", "coord": {"lon": -1.52987, "lat": 48.762341}}, {"id": 2977979, "name": "Saint-Michel-des-Andaines", "state": "", "country": "FR", "coord": {"lon": -0.41598, "lat": 48.579842}}, {"id": 2977981, "name": "Saint-Michel-de-Rivi\u00e8re", "state": "", "country": "FR", "coord": {"lon": -0.01667, "lat": 45.133331}}, {"id": 2977982, "name": "Saint-Michel-de-Rieufret", "state": "", "country": "FR", "coord": {"lon": -0.4344, "lat": 44.622501}}, {"id": 2977985, "name": "Saint-Michel-de-Montaigne", "state": "", "country": "FR", "coord": {"lon": 0.03333, "lat": 44.866669}}, {"id": 2977986, "name": "Saint-Michel-de-Maurienne", "state": "", "country": "FR", "coord": {"lon": 6.47258, "lat": 45.218418}}, {"id": 2977992, "name": "Saint-Michel-de-Fronsac", "state": "", "country": "FR", "coord": {"lon": -0.31667, "lat": 44.933331}}, {"id": 2977995, "name": "Saint-Michel-de-Double", "state": "", "country": "FR", "coord": {"lon": 0.28333, "lat": 45.083328}}, {"id": 2978004, "name": "Saint-Michel-Chef-Chef", "state": "", "country": "FR", "coord": {"lon": -2.14869, "lat": 47.180721}}, {"id": 2978017, "name": "Saint-Michel", "state": "", "country": "FR", "coord": {"lon": 4.13278, "lat": 49.919521}}, {"id": 2978023, "name": "Saint-Michel", "state": "", "country": "FR", "coord": {"lon": 0.1, "lat": 45.650002}}, {"id": 2978040, "name": "Saint-Mexant", "state": "", "country": "FR", "coord": {"lon": 1.65, "lat": 45.283329}}, {"id": 2978043, "name": "Saint-Mesmin", "state": "", "country": "FR", "coord": {"lon": -0.73262, "lat": 46.79369}}, {"id": 2978048, "name": "Saint-Merri", "state": "", "country": "FR", "coord": {"lon": 2.35214, "lat": 48.85923}}, {"id": 2978052, "name": "Saint-Menoux", "state": "", "country": "FR", "coord": {"lon": 3.15723, "lat": 46.584862}}, {"id": 2978053, "name": "Saint-Menges", "state": "", "country": "FR", "coord": {"lon": 4.92628, "lat": 49.738731}}, {"id": 2978056, "name": "Saint-Memmie", "state": "", "country": "FR", "coord": {"lon": 4.38409, "lat": 48.952469}}, {"id": 2978057, "name": "Saint-M\u00eame-le-Tenu", "state": "", "country": "FR", "coord": {"lon": -1.79459, "lat": 47.02005}}, {"id": 2978058, "name": "Saint-M\u00eame-les-Carri\u00e8res", "state": "", "country": "FR", "coord": {"lon": -0.15, "lat": 45.650002}}, {"id": 2978062, "name": "Saint-M\u00e9loir-des-Ondes", "state": "", "country": "FR", "coord": {"lon": -1.90448, "lat": 48.637901}}, {"id": 2978065, "name": "Saint-Melaine-sur-Aubance", "state": "", "country": "FR", "coord": {"lon": -0.5, "lat": 47.366669}}, {"id": 2978067, "name": "Saint-M\u00e9en-le-Grand", "state": "", "country": "FR", "coord": {"lon": -2.19486, "lat": 48.189709}}, {"id": 2978070, "name": "Saint-M\u00e9dard-sur-Ille", "state": "", "country": "FR", "coord": {"lon": -1.65968, "lat": 48.272018}}, {"id": 2978072, "name": "Saint-M\u00e9dard-en-Jalles", "state": "", "country": "FR", "coord": {"lon": -0.72136, "lat": 44.896919}}, {"id": 2978074, "name": "Saint-M\u00e9dard-d'Eyrans", "state": "", "country": "FR", "coord": {"lon": -0.51667, "lat": 44.716671}}, {"id": 2978078, "name": "Saint-M\u00e9dard-de-Mussidan", "state": "", "country": "FR", "coord": {"lon": 0.35, "lat": 45.033329}}, {"id": 2978079, "name": "Saint-M\u00e9dard-de-Guizi\u00e8res", "state": "", "country": "FR", "coord": {"lon": -0.05, "lat": 45.01667}}, {"id": 2978080, "name": "Saint-M\u00e9dard-d'Aunis", "state": "", "country": "FR", "coord": {"lon": -0.97121, "lat": 46.15889}}, {"id": 2978093, "name": "Saint-M\u00e9ard-de-Gur\u00e7on", "state": "", "country": "FR", "coord": {"lon": 0.18333, "lat": 44.900002}}, {"id": 2978099, "name": "Saint-Maxire", "state": "", "country": "FR", "coord": {"lon": -0.47988, "lat": 46.399109}}, {"id": 2978100, "name": "Saint-Maximin-la-Sainte-Baume", "state": "", "country": "FR", "coord": {"lon": 5.86219, "lat": 43.452141}}, {"id": 2978101, "name": "Saint-Maximin", "state": "", "country": "FR", "coord": {"lon": 2.4536, "lat": 49.221821}}, {"id": 2978105, "name": "Saint-Max", "state": "", "country": "FR", "coord": {"lon": 6.20999, "lat": 48.704288}}, {"id": 2978108, "name": "Saint-Maurin", "state": "", "country": "FR", "coord": {"lon": 0.89224, "lat": 44.206779}}, {"id": 2978112, "name": "Saint-Maurice-sur-Moselle", "state": "", "country": "FR", "coord": {"lon": 6.82478, "lat": 47.858891}}, {"id": 2978116, "name": "Saint-Maurice-sur-Fessard", "state": "", "country": "FR", "coord": {"lon": 2.62157, "lat": 47.99231}}, {"id": 2978118, "name": "Saint-Maurice-sur-Dargoire", "state": "", "country": "FR", "coord": {"lon": 4.63113, "lat": 45.581169}}, {"id": 2978120, "name": "Saint-Maurice-sur-Adour", "state": "", "country": "FR", "coord": {"lon": -0.46713, "lat": 43.78524}}, {"id": 2978123, "name": "Saint-Maurice-pr\u00e8s-Pionsat", "state": "", "country": "FR", "coord": {"lon": 2.6, "lat": 46.066669}}, {"id": 2978126, "name": "Saint-Maurice-Montcouronne", "state": "", "country": "FR", "coord": {"lon": 2.12504, "lat": 48.582878}}, {"id": 2978131, "name": "Saint-Maurice-l\u00e8s-Charencey", "state": "", "country": "FR", "coord": {"lon": 0.75783, "lat": 48.64846}}, {"id": 2978134, "name": "Saint-Maurice-la-Souterraine", "state": "", "country": "FR", "coord": {"lon": 1.4313, "lat": 46.213879}}, {"id": 2978136, "name": "Saint-Maurice-la-Clou\u00e8re", "state": "", "country": "FR", "coord": {"lon": 0.41253, "lat": 46.37804}}, {"id": 2978142, "name": "Saint-Maurice-en-Gourgois", "state": "", "country": "FR", "coord": {"lon": 4.18235, "lat": 45.402458}}, {"id": 2978156, "name": "Saint-Maurice-de-Roche", "state": "", "country": "FR", "coord": {"lon": 3.94263, "lat": 45.233509}}, {"id": 2978158, "name": "Saint-Maurice-de-Lignon", "state": "", "country": "FR", "coord": {"lon": 4.13911, "lat": 45.224312}}, {"id": 2978159, "name": "Saint-Maurice-de-Lestapel", "state": "", "country": "FR", "coord": {"lon": 0.5689, "lat": 44.57365}}, {"id": 2978161, "name": "Saint-Maurice-de-Gourdans", "state": "", "country": "FR", "coord": {"lon": 5.19464, "lat": 45.8214}}, {"id": 2978163, "name": "Saint-Maurice-de-Beynost", "state": "", "country": "FR", "coord": {"lon": 4.9775, "lat": 45.8344}}, {"id": 2978170, "name": "Saint-Maurice", "state": "", "country": "FR", "coord": {"lon": 2.42716, "lat": 48.821819}}, {"id": 2978179, "name": "Saint-Maur-des-Foss\u00e9s", "state": "", "country": "FR", "coord": {"lon": 2.49323, "lat": 48.793941}}, {"id": 2978180, "name": "Saint-Maur-des-Bois", "state": "", "country": "FR", "coord": {"lon": -1.15238, "lat": 48.82333}}, {"id": 2978184, "name": "Saint-Maur", "state": "", "country": "FR", "coord": {"lon": 1.63904, "lat": 46.806568}}, {"id": 2978197, "name": "Saint-Mathurin-sur-Loire", "state": "", "country": "FR", "coord": {"lon": -0.31667, "lat": 47.416672}}, {"id": 2978198, "name": "Saint-Mathurin", "state": "", "country": "FR", "coord": {"lon": -1.71389, "lat": 46.56493}}, {"id": 2978199, "name": "Saint-Mathieu-de-Tr\u00e9viers", "state": "", "country": "FR", "coord": {"lon": 3.85814, "lat": 43.767948}}, {"id": 2978202, "name": "Saint-Mathieu", "state": "", "country": "FR", "coord": {"lon": 0.75908, "lat": 45.706741}}, {"id": 2978208, "name": "Saint-Martin-V\u00e9subie", "state": "", "country": "FR", "coord": {"lon": 7.25547, "lat": 44.070042}}, {"id": 2978211, "name": "Saint-Martin-sur-Oust", "state": "", "country": "FR", "coord": {"lon": -2.25343, "lat": 47.745998}}, {"id": 2978215, "name": "Saint-Martin-sur-Ocre", "state": "", "country": "FR", "coord": {"lon": 2.6581, "lat": 47.65942}}, {"id": 2978219, "name": "Saint-Martin-sur-la-Renne", "state": "", "country": "FR", "coord": {"lon": 4.95387, "lat": 48.145119}}, {"id": 2978224, "name": "Saint-Martin-sous-Vigouroux", "state": "", "country": "FR", "coord": {"lon": 2.80307, "lat": 44.922951}}, {"id": 2978225, "name": "Saint-Martin-sous-Mouzeuil", "state": "", "country": "FR", "coord": {"lon": -0.98892, "lat": 46.459049}}, {"id": 2978233, "name": "Saint-Martin-Osmonville", "state": "", "country": "FR", "coord": {"lon": 1.29952, "lat": 49.638721}}, {"id": 2978235, "name": "Saint-Martin-Longueau", "state": "", "country": "FR", "coord": {"lon": 2.60276, "lat": 49.342812}}, {"id": 2978238, "name": "Saint-Martin-le-Vinoux", "state": "", "country": "FR", "coord": {"lon": 5.71667, "lat": 45.202999}}, {"id": 2978252, "name": "Saint-Martin-le-Gr\u00e9ard", "state": "", "country": "FR", "coord": {"lon": -1.64869, "lat": 49.556541}}, {"id": 2978256, "name": "Saint-Martin-le-Bouillant", "state": "", "country": "FR", "coord": {"lon": -1.17596, "lat": 48.784168}}, {"id": 2978257, "name": "Saint-Martin-le-Beau", "state": "", "country": "FR", "coord": {"lon": 0.90953, "lat": 47.355659}}, {"id": 2978263, "name": "Saint-Martin-la-Plaine", "state": "", "country": "FR", "coord": {"lon": 4.59115, "lat": 45.54739}}, {"id": 2978266, "name": "Saint-Martin-Lalande", "state": "", "country": "FR", "coord": {"lon": 2.02004, "lat": 43.299278}}, {"id": 2978267, "name": "Saint-Martin-l'Aiguillon", "state": "", "country": "FR", "coord": {"lon": -0.17407, "lat": 48.616058}}, {"id": 2978270, "name": "Saint-Martin-Lacaussade", "state": "", "country": "FR", "coord": {"lon": -0.6431, "lat": 45.146309}}, {"id": 2978273, "name": "Saint-Martinien", "state": "", "country": "FR", "coord": {"lon": 2.46667, "lat": 46.333328}}, {"id": 2978276, "name": "Saint-Martin-en-Haut", "state": "", "country": "FR", "coord": {"lon": 4.56153, "lat": 45.659691}}, {"id": 2978279, "name": "Saint-Martin-en-Campagne", "state": "", "country": "FR", "coord": {"lon": 1.22233, "lat": 49.956478}}, {"id": 2978280, "name": "Saint-Martin-en-Bresse", "state": "", "country": "FR", "coord": {"lon": 5.06027, "lat": 46.817249}}, {"id": 2978282, "name": "Saint-Martin-du-Vivier", "state": "", "country": "FR", "coord": {"lon": 1.16667, "lat": 49.466671}}, {"id": 2978283, "name": "Saint-Martin-du-Vieux-Bell\u00eame", "state": "", "country": "FR", "coord": {"lon": 0.54338, "lat": 48.380531}}, {"id": 2978284, "name": "Saint-Martin-du-Var", "state": "", "country": "FR", "coord": {"lon": 7.1903, "lat": 43.818119}}, {"id": 2978287, "name": "Saint-Martin-du-Tertre", "state": "", "country": "FR", "coord": {"lon": 2.34533, "lat": 49.10743}}, {"id": 2978288, "name": "Saint-Martin-du-Tertre", "state": "", "country": "FR", "coord": {"lon": 3.2615, "lat": 48.216591}}, {"id": 2978297, "name": "Saint-Martin-du-Mont", "state": "", "country": "FR", "coord": {"lon": 5.32834, "lat": 46.10247}}, {"id": 2978299, "name": "Saint-Martin-du-Manoir", "state": "", "country": "FR", "coord": {"lon": 0.23759, "lat": 49.53212}}, {"id": 2978302, "name": "Saint-Martin-du-Fr\u00eane", "state": "", "country": "FR", "coord": {"lon": 5.55302, "lat": 46.138569}}, {"id": 2978303, "name": "Saint-Martin-du-Fouilloux", "state": "", "country": "FR", "coord": {"lon": -0.70357, "lat": 47.433601}}, {"id": 2978313, "name": "Saint-Martin-d'Oney", "state": "", "country": "FR", "coord": {"lon": -0.64133, "lat": 43.92757}}, {"id": 2978317, "name": "Saint-Martin-d'H\u00e8res", "state": "", "country": "FR", "coord": {"lon": 5.76337, "lat": 45.165279}}, {"id": 2978320, "name": "Saint-Martin-de-Viller\u00e9al", "state": "", "country": "FR", "coord": {"lon": 0.82018, "lat": 44.64373}}, {"id": 2978325, "name": "Saint-Martin-de-Valgalgues", "state": "", "country": "FR", "coord": {"lon": 4.08364, "lat": 44.163151}}, {"id": 2978326, "name": "Saint-Martin-de-Valamas", "state": "", "country": "FR", "coord": {"lon": 4.36557, "lat": 44.936481}}, {"id": 2978328, "name": "Saint-Martin-de-Tallevende", "state": "", "country": "FR", "coord": {"lon": -0.92738, "lat": 48.836899}}, {"id": 2978336, "name": "Saint-Martin-des-Olmes", "state": "", "country": "FR", "coord": {"lon": 3.79789, "lat": 45.531101}}, {"id": 2978337, "name": "Saint-Martin-des-Noyers", "state": "", "country": "FR", "coord": {"lon": -1.17726, "lat": 46.72226}}, {"id": 2978340, "name": "Saint-Martin-des-Lais", "state": "", "country": "FR", "coord": {"lon": 3.65702, "lat": 46.665951}}, {"id": 2978342, "name": "Saint-Martin-de-Sescas", "state": "", "country": "FR", "coord": {"lon": -0.162, "lat": 44.575378}}, {"id": 2978344, "name": "Saint-Martin-de-Seignanx", "state": "", "country": "FR", "coord": {"lon": -1.38946, "lat": 43.542831}}, {"id": 2978349, "name": "Saint-Martin-des-Champs", "state": "", "country": "FR", "coord": {"lon": -1.33393, "lat": 48.668411}}, {"id": 2978351, "name": "Saint-Martin-des-Champs", "state": "", "country": "FR", "coord": {"lon": -3.83333, "lat": 48.583328}}, {"id": 2978355, "name": "Saint-Martin-des-Besaces", "state": "", "country": "FR", "coord": {"lon": -0.845, "lat": 49.01091}}, {"id": 2978357, "name": "Saint-Martin-de-Sallen", "state": "", "country": "FR", "coord": {"lon": -0.52256, "lat": 48.967209}}, {"id": 2978361, "name": "Saint-Martin-de-R\u00e9", "state": "", "country": "FR", "coord": {"lon": -1.36726, "lat": 46.20311}}, {"id": 2978362, "name": "Saint-Martin-de-Queyri\u00e8res", "state": "", "country": "FR", "coord": {"lon": 6.57901, "lat": 44.823189}}, {"id": 2978365, "name": "Saint-Martin-de-Nigelles", "state": "", "country": "FR", "coord": {"lon": 1.6092, "lat": 48.612339}}, {"id": 2978366, "name": "Saint-Martin-de-Mieux", "state": "", "country": "FR", "coord": {"lon": -0.22967, "lat": 48.87114}}, {"id": 2978369, "name": "Saint-Martin-de-Londres", "state": "", "country": "FR", "coord": {"lon": 3.73066, "lat": 43.790401}}, {"id": 2978373, "name": "Saint-Martin-de-Laye", "state": "", "country": "FR", "coord": {"lon": -0.21667, "lat": 45.033329}}, {"id": 2978376, "name": "Saint-Martin-de-la-Place", "state": "", "country": "FR", "coord": {"lon": -0.14849, "lat": 47.317471}}, {"id": 2978378, "name": "Saint-Martin-de-Landelles", "state": "", "country": "FR", "coord": {"lon": -1.1724, "lat": 48.5453}}, {"id": 2978386, "name": "Saint-Martin-de-Hinx", "state": "", "country": "FR", "coord": {"lon": -1.2681, "lat": 43.582378}}, {"id": 2978391, "name": "Saint-Martin-de-Fressengeas", "state": "", "country": "FR", "coord": {"lon": 0.84522, "lat": 45.444172}}, {"id": 2978394, "name": "Saint-Martin-de-Fontenay", "state": "", "country": "FR", "coord": {"lon": -0.37391, "lat": 49.115231}}, {"id": 2978395, "name": "Saint-Martin-d'\u00c9cublei", "state": "", "country": "FR", "coord": {"lon": 0.67968, "lat": 48.790798}}, {"id": 2978396, "name": "Saint-Martin-de-Crau", "state": "", "country": "FR", "coord": {"lon": 4.8127, "lat": 43.639549}}, {"id": 2978403, "name": "Chaulieu", "state": "", "country": "FR", "coord": {"lon": -0.86667, "lat": 48.73333}}, {"id": 2978404, "name": "Saint-Martin-de-Cenilly", "state": "", "country": "FR", "coord": {"lon": -1.28202, "lat": 48.98214}}, {"id": 2978407, "name": "Saint-Martin-de-Br\u00f4mes", "state": "", "country": "FR", "coord": {"lon": 5.93877, "lat": 43.76852}}, {"id": 2978412, "name": "Saint-Martin-de-Boscherville", "state": "", "country": "FR", "coord": {"lon": 0.96271, "lat": 49.443771}}, {"id": 2978413, "name": "Saint-Martin-de-Bonfoss\u00e9", "state": "", "country": "FR", "coord": {"lon": -1.1697, "lat": 49.052662}}, {"id": 2978414, "name": "Saint-Martin-de-Blagny", "state": "", "country": "FR", "coord": {"lon": -0.94417, "lat": 49.24691}}, {"id": 2978417, "name": "Saint-Martin-de-Belleville", "state": "", "country": "FR", "coord": {"lon": 6.50519, "lat": 45.381748}}, {"id": 2978422, "name": "Saint-Martin-d'Aubigny", "state": "", "country": "FR", "coord": {"lon": -1.34976, "lat": 49.165119}}, {"id": 2978425, "name": "Saint-Martin-d'Arrossa", "state": "", "country": "FR", "coord": {"lon": -1.31386, "lat": 43.236969}}, {"id": 2978427, "name": "Saint-Martin-d'Ard\u00e8che", "state": "", "country": "FR", "coord": {"lon": 4.57057, "lat": 44.302799}}, {"id": 2978430, "name": "Saint-Martin-d'Arberoue", "state": "", "country": "FR", "coord": {"lon": -1.19318, "lat": 43.3456}}, {"id": 2978439, "name": "Saint-Martin-Boulogne", "state": "", "country": "FR", "coord": {"lon": 1.61864, "lat": 50.72691}}, {"id": 2978440, "name": "Saint-Martin-Bellevue", "state": "", "country": "FR", "coord": {"lon": 6.15763, "lat": 45.96262}}, {"id": 2978441, "name": "Saint-Martin-Belle-Roche", "state": "", "country": "FR", "coord": {"lon": 4.85539, "lat": 46.383121}}, {"id": 2978442, "name": "Saint-Martin-aux-Chartrains", "state": "", "country": "FR", "coord": {"lon": 0.16148, "lat": 49.313278}}, {"id": 2978447, "name": "Saint-Martin-au-La\u00ebrt", "state": "", "country": "FR", "coord": {"lon": 2.24051, "lat": 50.751789}}, {"id": 2978482, "name": "Saint-Martin", "state": "", "country": "FR", "coord": {"lon": 1.83604, "lat": 44.895771}}, {"id": 2978486, "name": "Saint-Martin-de-Beauville", "state": "", "country": "FR", "coord": {"lon": 0.83333, "lat": 44.23333}}, {"id": 2978500, "name": "Saint-Martial-Entraygues", "state": "", "country": "FR", "coord": {"lon": 1.97315, "lat": 45.1203}}, {"id": 2978502, "name": "Saint-Martial-de-Valette", "state": "", "country": "FR", "coord": {"lon": 0.65, "lat": 45.51667}}, {"id": 2978506, "name": "Saint-Martial-d'Artenset", "state": "", "country": "FR", "coord": {"lon": 0.18333, "lat": 45.01667}}, {"id": 2978520, "name": "Saint-Mars-la-Jaille", "state": "", "country": "FR", "coord": {"lon": -1.18483, "lat": 47.525661}}, {"id": 2978521, "name": "Saint-Mars-la-Bri\u00e8re", "state": "", "country": "FR", "coord": {"lon": 0.37319, "lat": 48.03046}}, {"id": 2978524, "name": "Saint-Mars-du-D\u00e9sert", "state": "", "country": "FR", "coord": {"lon": -1.40678, "lat": 47.365601}}, {"id": 2978528, "name": "Saint-Mars-d'\u00c9grenne", "state": "", "country": "FR", "coord": {"lon": -0.73012, "lat": 48.56002}}, {"id": 2978529, "name": "Saint-Mars-de-Coutais", "state": "", "country": "FR", "coord": {"lon": -1.73437, "lat": 47.11153}}, {"id": 2978535, "name": "Saint-Mariens", "state": "", "country": "FR", "coord": {"lon": -0.40084, "lat": 45.11631}}, {"id": 2978550, "name": "Saint-Mard", "state": "", "country": "FR", "coord": {"lon": 2.69645, "lat": 49.03701}}, {"id": 2978558, "name": "Saint-Marcouf", "state": "", "country": "FR", "coord": {"lon": -0.99107, "lat": 49.251671}}, {"id": 2978559, "name": "Saint-Marcory", "state": "", "country": "FR", "coord": {"lon": 0.93196, "lat": 44.7229}}, {"id": 2978560, "name": "Saint-Marc-le-Blanc", "state": "", "country": "FR", "coord": {"lon": -1.40938, "lat": 48.364979}}, {"id": 2978561, "name": "Saint-Marc-Jaumegarde", "state": "", "country": "FR", "coord": {"lon": 5.51272, "lat": 43.54599}}, {"id": 2978565, "name": "Saint-Marcellin-en-Forez", "state": "", "country": "FR", "coord": {"lon": 4.16923, "lat": 45.495491}}, {"id": 2978566, "name": "Saint-Marcellin", "state": "", "country": "FR", "coord": {"lon": 5.32388, "lat": 45.15192}}, {"id": 2978568, "name": "Saint-Marcel-l\u00e8s-Valence", "state": "", "country": "FR", "coord": {"lon": 4.96011, "lat": 44.972462}}, {"id": 2978569, "name": "Saint-Marcel-l\u00e8s-Sauzet", "state": "", "country": "FR", "coord": {"lon": 4.80623, "lat": 44.595009}}, {"id": 2978570, "name": "Saint-Marcel-l\u00e8s-Annonay", "state": "", "country": "FR", "coord": {"lon": 4.62474, "lat": 45.285549}}, {"id": 2978578, "name": "Saint-Marcel-du-P\u00e9rigord", "state": "", "country": "FR", "coord": {"lon": 0.71137, "lat": 44.915241}}, {"id": 2978586, "name": "Saint-Marcel", "state": "", "country": "FR", "coord": {"lon": 1.45, "lat": 49.099998}}, {"id": 2978589, "name": "Saint-Marcel", "state": "", "country": "FR", "coord": {"lon": 4.89205, "lat": 46.773708}}, {"id": 2978590, "name": "Saint-Marcel", "state": "", "country": "FR", "coord": {"lon": 1.51324, "lat": 46.601929}}, {"id": 2978596, "name": "Saint-Marcel-sur-Aude", "state": "", "country": "FR", "coord": {"lon": 2.93333, "lat": 43.25}}, {"id": 2978613, "name": "Saint-Marc", "state": "", "country": "FR", "coord": {"lon": 3.19171, "lat": 44.901482}}, {"id": 2978616, "name": "Saint-Manvieu-Bocage", "state": "", "country": "FR", "coord": {"lon": -0.97774, "lat": 48.825722}}, {"id": 2978617, "name": "Saint-Manvieu", "state": "", "country": "FR", "coord": {"lon": -0.50211, "lat": 49.180672}}, {"id": 2978618, "name": "Saint-Mandrier-sur-Mer", "state": "", "country": "FR", "coord": {"lon": 5.929, "lat": 43.077999}}, {"id": 2978621, "name": "Saint-Mand\u00e9", "state": "", "country": "FR", "coord": {"lon": 2.41579, "lat": 48.838638}}, {"id": 2978622, "name": "Saint-Mamm\u00e8s", "state": "", "country": "FR", "coord": {"lon": 2.81578, "lat": 48.384579}}, {"id": 2978623, "name": "Saint-Mamet-la-Salvetat", "state": "", "country": "FR", "coord": {"lon": 2.30616, "lat": 44.857651}}, {"id": 2978625, "name": "Saint-Mamet", "state": "", "country": "FR", "coord": {"lon": 0.60262, "lat": 42.778091}}, {"id": 2978627, "name": "Saint-Mamert-du-Gard", "state": "", "country": "FR", "coord": {"lon": 4.18725, "lat": 43.888351}}, {"id": 2978632, "name": "Saint-Mal\u00f4-du-Bois", "state": "", "country": "FR", "coord": {"lon": -0.9, "lat": 46.933331}}, {"id": 2978635, "name": "Saint-Malo-de-la-Lande", "state": "", "country": "FR", "coord": {"lon": -1.54052, "lat": 49.07114}}, {"id": 2978636, "name": "Saint-Malo-de-Guersac", "state": "", "country": "FR", "coord": {"lon": -2.17773, "lat": 47.353451}}, {"id": 2978639, "name": "Arrondissement de Saint-Malo", "state": "", "country": "FR", "coord": {"lon": -1.83333, "lat": 48.5}}, {"id": 2978640, "name": "Saint-Malo", "state": "", "country": "FR", "coord": {"lon": -2.01667, "lat": 48.650002}}, {"id": 2978647, "name": "Saint-Maixant", "state": "", "country": "FR", "coord": {"lon": -0.2592, "lat": 44.578678}}, {"id": 2978652, "name": "Saint-Magne", "state": "", "country": "FR", "coord": {"lon": -0.65921, "lat": 44.526669}}, {"id": 2978658, "name": "Saint-Macaire-en-Mauges", "state": "", "country": "FR", "coord": {"lon": -0.9912, "lat": 47.123569}}, {"id": 2978660, "name": "Saint-Macaire", "state": "", "country": "FR", "coord": {"lon": -0.22431, "lat": 44.565269}}, {"id": 2978661, "name": "Saint-Lys", "state": "", "country": "FR", "coord": {"lon": 1.17557, "lat": 43.511269}}, {"id": 2978662, "name": "Saint-Lyphard", "state": "", "country": "FR", "coord": {"lon": -2.30642, "lat": 47.39822}}, {"id": 2978664, "name": "Saint-Ly\u00e9", "state": "", "country": "FR", "coord": {"lon": 3.999, "lat": 48.365021}}, {"id": 2978666, "name": "Saint-Lupicin", "state": "", "country": "FR", "coord": {"lon": 5.7922, "lat": 46.400341}}, {"id": 2978668, "name": "Saint-Lunaire", "state": "", "country": "FR", "coord": {"lon": -2.11392, "lat": 48.638111}}, {"id": 2978669, "name": "Saint-Lumine-de-Coutais", "state": "", "country": "FR", "coord": {"lon": -1.72777, "lat": 47.053989}}, {"id": 2978670, "name": "Saint-Lumine-de-Clisson", "state": "", "country": "FR", "coord": {"lon": -1.33524, "lat": 47.084122}}, {"id": 2978678, "name": "Saint-Lubin-des-Joncherets", "state": "", "country": "FR", "coord": {"lon": 1.21667, "lat": 48.76667}}, {"id": 2978684, "name": "Saint-Loyer-des-Champs", "state": "", "country": "FR", "coord": {"lon": 0.01715, "lat": 48.698761}}, {"id": 2978688, "name": "Saint-Loup-sur-Semouse", "state": "", "country": "FR", "coord": {"lon": 6.2753, "lat": 47.88345}}, {"id": 2978706, "name": "Saint-Loup-Cammas", "state": "", "country": "FR", "coord": {"lon": 1.48127, "lat": 43.69767}}, {"id": 2978726, "name": "Saint-Louis-de-Montferrand", "state": "", "country": "FR", "coord": {"lon": -0.53543, "lat": 44.950001}}, {"id": 2978742, "name": "Saint-Louis", "state": "", "country": "FR", "coord": {"lon": 7.56247, "lat": 47.58836}}, {"id": 2978746, "name": "Saint-Louet-sur-Vire", "state": "", "country": "FR", "coord": {"lon": -0.98845, "lat": 48.988571}}, {"id": 2978747, "name": "Saint-Louet-sur-Seulles", "state": "", "country": "FR", "coord": {"lon": -0.66714, "lat": 49.096668}}, {"id": 2978748, "name": "Saint-Loubouer", "state": "", "country": "FR", "coord": {"lon": -0.41774, "lat": 43.678341}}, {"id": 2978749, "name": "Saint-Loub\u00e8s", "state": "", "country": "FR", "coord": {"lon": -0.42703, "lat": 44.915359}}, {"id": 2978750, "name": "Saint-Loubert", "state": "", "country": "FR", "coord": {"lon": -0.16093, "lat": 44.550171}}, {"id": 2978752, "name": "Saint-Lothain", "state": "", "country": "FR", "coord": {"lon": 5.64383, "lat": 46.824951}}, {"id": 2978754, "name": "Saint-Lon-les-Mines", "state": "", "country": "FR", "coord": {"lon": -1.12702, "lat": 43.61274}}, {"id": 2978756, "name": "Saint-L\u00f4-d'Ourville", "state": "", "country": "FR", "coord": {"lon": -1.66667, "lat": 49.333328}}, {"id": 2978757, "name": "Arrondissement de Saint-L\u00f4", "state": "", "country": "FR", "coord": {"lon": -1.08456, "lat": 49.108261}}, {"id": 2978758, "name": "Saint-L\u00f4", "state": "", "country": "FR", "coord": {"lon": -1.09031, "lat": 49.116241}}, {"id": 2978760, "name": "Saint-Lizier", "state": "", "country": "FR", "coord": {"lon": 1.13686, "lat": 43.001831}}, {"id": 2978768, "name": "Saint-Leu-la-For\u00eat", "state": "", "country": "FR", "coord": {"lon": 2.25, "lat": 49.01667}}, {"id": 2978771, "name": "Saint-Leu", "state": "", "country": "FR", "coord": {"lon": 4.50083, "lat": 46.730598}}, {"id": 2978775, "name": "Saint-L\u00e9on-sur-V\u00e9z\u00e8re", "state": "", "country": "FR", "coord": {"lon": 1.09442, "lat": 45.010441}}, {"id": 2978776, "name": "Saint-L\u00e9on-sur-l'Isle", "state": "", "country": "FR", "coord": {"lon": 0.50444, "lat": 45.11491}}, {"id": 2978782, "name": "Saint-L\u00e9onard-de-Noblat", "state": "", "country": "FR", "coord": {"lon": 1.49174, "lat": 45.835659}}, {"id": 2978783, "name": "Saint-L\u00e9onard", "state": "", "country": "FR", "coord": {"lon": 1.62536, "lat": 50.690578}}, {"id": 2978784, "name": "Saint-L\u00e9onard", "state": "", "country": "FR", "coord": {"lon": 0.35907, "lat": 49.742519}}, {"id": 2978789, "name": "Saint-L\u00e9onard", "state": "", "country": "FR", "coord": {"lon": 6.94355, "lat": 48.216381}}, {"id": 2978802, "name": "Saint-L\u00e9ger-sur-Sarthe", "state": "", "country": "FR", "coord": {"lon": 0.34033, "lat": 48.503792}}, {"id": 2978803, "name": "Saint-L\u00e9ger-sur-Roanne", "state": "", "country": "FR", "coord": {"lon": 3.99764, "lat": 46.04126}}, {"id": 2978804, "name": "Saint-L\u00e9ger-sur-Dheune", "state": "", "country": "FR", "coord": {"lon": 4.63607, "lat": 46.845482}}, {"id": 2978809, "name": "Saint-L\u00e9ger-sous-Cholet", "state": "", "country": "FR", "coord": {"lon": -0.91024, "lat": 47.094051}}, {"id": 2978814, "name": "Saint-L\u00e9ger-les-Vignes", "state": "", "country": "FR", "coord": {"lon": -1.7306, "lat": 47.135872}}, {"id": 2978817, "name": "Saint-L\u00e9ger-l\u00e8s-Domart", "state": "", "country": "FR", "coord": {"lon": 2.14067, "lat": 50.052078}}, {"id": 2978822, "name": "Saint-L\u00e9ger-en-Yvelines", "state": "", "country": "FR", "coord": {"lon": 1.76638, "lat": 48.721729}}, {"id": 2978828, "name": "Saint-L\u00e9ger-du-Bourg-Denis", "state": "", "country": "FR", "coord": {"lon": 1.15803, "lat": 49.433449}}, {"id": 2978832, "name": "Saint-L\u00e9ger-des-Vignes", "state": "", "country": "FR", "coord": {"lon": 3.45488, "lat": 46.84063}}, {"id": 2978834, "name": "Saint-L\u00e9ger-des-Bois", "state": "", "country": "FR", "coord": {"lon": -0.70953, "lat": 47.462379}}, {"id": 2978838, "name": "Saint-L\u00e9ger-de-Montbrun", "state": "", "country": "FR", "coord": {"lon": -0.13333, "lat": 47.0}}, {"id": 2978841, "name": "Saint-L\u00e9ger-de-Balson", "state": "", "country": "FR", "coord": {"lon": -0.46667, "lat": 44.431911}}, {"id": 2978846, "name": "Saint-L\u00e9ger", "state": "", "country": "FR", "coord": {"lon": 3.48315, "lat": 50.333241}}, {"id": 2978865, "name": "Saint-Laurent-sur-S\u00e8vre", "state": "", "country": "FR", "coord": {"lon": -0.89392, "lat": 46.958092}}, {"id": 2978866, "name": "Saint-Laurent-sur-Sa\u00f4ne", "state": "", "country": "FR", "coord": {"lon": 4.84119, "lat": 46.305321}}, {"id": 2978870, "name": "Saint-Laurent-sur-Gorre", "state": "", "country": "FR", "coord": {"lon": 0.95859, "lat": 45.770519}}, {"id": 2978879, "name": "Saint-Laurent-la-Vall\u00e9e", "state": "", "country": "FR", "coord": {"lon": 1.11016, "lat": 44.749378}}, {"id": 2978884, "name": "Saint-Laurent-M\u00e9doc", "state": "", "country": "FR", "coord": {"lon": -0.81667, "lat": 45.150002}}, {"id": 2978885, "name": "Saint-Laurent-en-Royans", "state": "", "country": "FR", "coord": {"lon": 5.32777, "lat": 45.029072}}, {"id": 2978891, "name": "Saint-Laurent-du-Var", "state": "", "country": "FR", "coord": {"lon": 7.17606, "lat": 43.670971}}, {"id": 2978893, "name": "Saint-Laurent-du-Pont", "state": "", "country": "FR", "coord": {"lon": 5.73521, "lat": 45.390091}}, {"id": 2978894, "name": "Saint-Laurent-du-Plan", "state": "", "country": "FR", "coord": {"lon": -0.11822, "lat": 44.623821}}, {"id": 2978895, "name": "Saint-Laurent-du-Pape", "state": "", "country": "FR", "coord": {"lon": 4.76127, "lat": 44.82428}}, {"id": 2978900, "name": "Saint-Laurent-du-Bois", "state": "", "country": "FR", "coord": {"lon": -0.13489, "lat": 44.635349}}, {"id": 2978907, "name": "Saint-Laurent-de-Terregatte", "state": "", "country": "FR", "coord": {"lon": -1.25924, "lat": 48.571671}}, {"id": 2978908, "name": "Saint-Laurent-des-Vignes", "state": "", "country": "FR", "coord": {"lon": 0.45447, "lat": 44.816261}}, {"id": 2978910, "name": "Saint-Laurent-des-Hommes", "state": "", "country": "FR", "coord": {"lon": 0.25, "lat": 45.033329}}, {"id": 2978911, "name": "Saint-Laurent-Nouan", "state": "", "country": "FR", "coord": {"lon": 1.6, "lat": 47.716671}}, {"id": 2978916, "name": "Saint-Laurent-des-B\u00e2tons", "state": "", "country": "FR", "coord": {"lon": 0.73766, "lat": 44.958839}}, {"id": 2978917, "name": "Saint-Laurent-des-Autels", "state": "", "country": "FR", "coord": {"lon": -1.18881, "lat": 47.28524}}, {"id": 2978918, "name": "Saint-Laurent-des-Arbres", "state": "", "country": "FR", "coord": {"lon": 4.70026, "lat": 44.054932}}, {"id": 2978921, "name": "Saint-Laurent-de-Mure", "state": "", "country": "FR", "coord": {"lon": 5.04656, "lat": 45.688702}}, {"id": 2978925, "name": "Saint-Laurent-de-la-Salanque", "state": "", "country": "FR", "coord": {"lon": 2.98998, "lat": 42.772701}}, {"id": 2978926, "name": "Saint-Laurent-de-la-Pr\u00e9e", "state": "", "country": "FR", "coord": {"lon": -1.03625, "lat": 45.98259}}, {"id": 2978927, "name": "Saint-Laurent-de-la-Plaine", "state": "", "country": "FR", "coord": {"lon": -0.80333, "lat": 47.317379}}, {"id": 2978932, "name": "Saint-Laurent-de-Gosse", "state": "", "country": "FR", "coord": {"lon": -1.27052, "lat": 43.531849}}, {"id": 2978933, "name": "Saint-Laurent-de-Cuves", "state": "", "country": "FR", "coord": {"lon": -1.12306, "lat": 48.75124}}, {"id": 2978936, "name": "Saint-Laurent-de-Chamousset", "state": "", "country": "FR", "coord": {"lon": 4.4634, "lat": 45.739319}}, {"id": 2978938, "name": "Sant Lloren\u00e7 de Cerdans", "state": "", "country": "FR", "coord": {"lon": 2.6132, "lat": 42.384731}}, {"id": 2978940, "name": "Saint-Laurent-de-Br\u00e9vedent", "state": "", "country": "FR", "coord": {"lon": 0.25458, "lat": 49.525639}}, {"id": 2978942, "name": "Saint-Laurent-d'Arce", "state": "", "country": "FR", "coord": {"lon": -0.47, "lat": 45.034168}}, {"id": 2978949, "name": "Saint-Laurent-Blangy", "state": "", "country": "FR", "coord": {"lon": 2.80698, "lat": 50.29446}}, {"id": 2978954, "name": "Saint-Laurent", "state": "", "country": "FR", "coord": {"lon": 4.77193, "lat": 49.764488}}, {"id": 2978970, "name": "Saint-Laurent", "state": "", "country": "FR", "coord": {"lon": 0.39732, "lat": 44.246449}}, {"id": 2978972, "name": "Saint-Laure", "state": "", "country": "FR", "coord": {"lon": 3.29229, "lat": 45.90332}}, {"id": 2978974, "name": "Saint-Lattier", "state": "", "country": "FR", "coord": {"lon": 5.19261, "lat": 45.087681}}, {"id": 2978975, "name": "Saint-Lary-Soulan", "state": "", "country": "FR", "coord": {"lon": 0.32238, "lat": 42.817131}}, {"id": 2978981, "name": "Saint-Langis-l\u00e8s-Mortagne", "state": "", "country": "FR", "coord": {"lon": 0.54974, "lat": 48.515259}}, {"id": 2978982, "name": "Saint-Lambert-sur-Dive", "state": "", "country": "FR", "coord": {"lon": 0.08333, "lat": 48.816669}}, {"id": 2978983, "name": "Saint-Lambert-la-Potherie", "state": "", "country": "FR", "coord": {"lon": -0.67789, "lat": 47.482891}}, {"id": 2978985, "name": "Saint-Lambert-du-Lattay", "state": "", "country": "FR", "coord": {"lon": -0.63321, "lat": 47.302502}}, {"id": 2978997, "name": "Saint-Just-Saint-Rambert", "state": "", "country": "FR", "coord": {"lon": 4.24141, "lat": 45.499729}}, {"id": 2978999, "name": "Saint-Just-Sauvage", "state": "", "country": "FR", "coord": {"lon": 3.78449, "lat": 48.554779}}, {"id": 2979000, "name": "Saint-Just-pr\u00e8s-Brioude", "state": "", "country": "FR", "coord": {"lon": 3.35355, "lat": 45.23835}}, {"id": 2979001, "name": "Saint-Just-Malmont", "state": "", "country": "FR", "coord": {"lon": 4.31335, "lat": 45.339729}}, {"id": 2979002, "name": "Saint-Just-le-Martel", "state": "", "country": "FR", "coord": {"lon": 1.38829, "lat": 45.86351}}, {"id": 2979003, "name": "Saint-Just-la-Pendue", "state": "", "country": "FR", "coord": {"lon": 4.24276, "lat": 45.895321}}, {"id": 2979004, "name": "Saint-Justin", "state": "", "country": "FR", "coord": {"lon": -0.23196, "lat": 43.97971}}, {"id": 2979009, "name": "Saint-Just-en-Chevalet", "state": "", "country": "FR", "coord": {"lon": 3.8446, "lat": 45.91396}}, {"id": 2979010, "name": "Saint-Just-en-Chauss\u00e9e", "state": "", "country": "FR", "coord": {"lon": 2.43285, "lat": 49.505032}}, {"id": 2979014, "name": "Saint-Just-de-Claix", "state": "", "country": "FR", "coord": {"lon": 5.28783, "lat": 45.07391}}, {"id": 2979017, "name": "Saint-Just-Chaleyssin", "state": "", "country": "FR", "coord": {"lon": 4.99888, "lat": 45.585339}}, {"id": 2979020, "name": "Saint-Just", "state": "", "country": "FR", "coord": {"lon": 1.44101, "lat": 49.108521}}, {"id": 2979021, "name": "Saint-Just", "state": "", "country": "FR", "coord": {"lon": -1.96096, "lat": 47.765808}}, {"id": 2979024, "name": "Saint-Just-Luzac", "state": "", "country": "FR", "coord": {"lon": -1.03333, "lat": 45.799999}}, {"id": 2979029, "name": "Saint-Just-d'Ard\u00e8che", "state": "", "country": "FR", "coord": {"lon": 4.61667, "lat": 44.299999}}, {"id": 2979030, "name": "Saint-Just", "state": "", "country": "FR", "coord": {"lon": 4.11472, "lat": 43.658058}}, {"id": 2979035, "name": "Saint-Junien-la-Breg\u00e8re", "state": "", "country": "FR", "coord": {"lon": 1.7546, "lat": 45.883331}}, {"id": 2979036, "name": "Saint-Junien", "state": "", "country": "FR", "coord": {"lon": 0.90143, "lat": 45.888672}}, {"id": 2979046, "name": "Saint-Julien-Puy-Lav\u00e8ze", "state": "", "country": "FR", "coord": {"lon": 2.67276, "lat": 45.66544}}, {"id": 2979048, "name": "Saint-Julien-Molin-Molette", "state": "", "country": "FR", "coord": {"lon": 4.61394, "lat": 45.323349}}, {"id": 2979049, "name": "Saint-Julien-Molhesabate", "state": "", "country": "FR", "coord": {"lon": 4.42862, "lat": 45.1861}}, {"id": 2979052, "name": "Saint-Julien-les-Villas", "state": "", "country": "FR", "coord": {"lon": 4.09901, "lat": 48.271271}}, {"id": 2979054, "name": "Saint-Julien-l\u00e8s-Metz", "state": "", "country": "FR", "coord": {"lon": 6.2024, "lat": 49.132881}}, {"id": 2979064, "name": "Saint-Julien-la-Geneste", "state": "", "country": "FR", "coord": {"lon": 2.73427, "lat": 46.051369}}, {"id": 2979068, "name": "Saint-Julien-en-Saint-Alban", "state": "", "country": "FR", "coord": {"lon": 4.69678, "lat": 44.754169}}, {"id": 2979071, "name": "Arrondissement de Saint-Julien-en-Genevois", "state": "", "country": "FR", "coord": {"lon": 6.08333, "lat": 46.083328}}, {"id": 2979072, "name": "Saint-Julien-en-Genevois", "state": "", "country": "FR", "coord": {"lon": 6.08256, "lat": 46.144341}}, {"id": 2979074, "name": "Saint-Julien-en-Born", "state": "", "country": "FR", "coord": {"lon": -1.22445, "lat": 44.06311}}, {"id": 2979080, "name": "Saint-Julien-du-Sault", "state": "", "country": "FR", "coord": {"lon": 3.29556, "lat": 48.031879}}, {"id": 2979085, "name": "Saint-Julien-d'Eymet", "state": "", "country": "FR", "coord": {"lon": 0.43957, "lat": 44.72398}}, {"id": 2979087, "name": "Saint-Julien-les-Rosiers", "state": "", "country": "FR", "coord": {"lon": 4.10803, "lat": 44.17445}}, {"id": 2979090, "name": "Saint-Julien-des-Landes", "state": "", "country": "FR", "coord": {"lon": -1.7138, "lat": 46.6394}}, {"id": 2979095, "name": "Saint-Julien-de-Peyrolas", "state": "", "country": "FR", "coord": {"lon": 4.56507, "lat": 44.288368}}, {"id": 2979098, "name": "Saint-Julien-de-Mailloc", "state": "", "country": "FR", "coord": {"lon": 0.31929, "lat": 49.085079}}, {"id": 2979102, "name": "Saint-Julien-de-Lampon", "state": "", "country": "FR", "coord": {"lon": 1.35, "lat": 44.866669}}, {"id": 2979108, "name": "Saint-Julien-de-Coppel", "state": "", "country": "FR", "coord": {"lon": 3.31176, "lat": 45.69342}}, {"id": 2979109, "name": "Saint-Julien-de-Concelles", "state": "", "country": "FR", "coord": {"lon": -1.38428, "lat": 47.252861}}, {"id": 2979118, "name": "Saint-Julien-d'Ance", "state": "", "country": "FR", "coord": {"lon": 3.91317, "lat": 45.303841}}, {"id": 2979119, "name": "Saint-Julien-Chapteuil", "state": "", "country": "FR", "coord": {"lon": 4.06229, "lat": 45.033981}}, {"id": 2979128, "name": "Saint-Julien", "state": "", "country": "FR", "coord": {"lon": -2.8125, "lat": 48.45142}}, {"id": 2979133, "name": "Saint-Julien", "state": "", "country": "FR", "coord": {"lon": 5.14163, "lat": 47.400291}}, {"id": 2979141, "name": "Saint-Julien", "state": "", "country": "FR", "coord": {"lon": 5.91582, "lat": 43.694778}}, {"id": 2979148, "name": "Saint-Ju\u00e9ry", "state": "", "country": "FR", "coord": {"lon": 2.21667, "lat": 43.950001}}, {"id": 2979153, "name": "Saint-Jouvent", "state": "", "country": "FR", "coord": {"lon": 1.205, "lat": 45.956799}}, {"id": 2979157, "name": "Saint-Jouin-de-Blavou", "state": "", "country": "FR", "coord": {"lon": 0.47363, "lat": 48.45224}}, {"id": 2979158, "name": "Saint-Jouin-Bruneval", "state": "", "country": "FR", "coord": {"lon": 0.164, "lat": 49.64275}}, {"id": 2979160, "name": "Saint-Jouan-des-Gu\u00e9rets", "state": "", "country": "FR", "coord": {"lon": -1.97372, "lat": 48.599319}}, {"id": 2979162, "name": "Saint-Josse", "state": "", "country": "FR", "coord": {"lon": 1.6618, "lat": 50.46801}}, {"id": 2979164, "name": "Saint-Joseph-de-Rivi\u00e8re", "state": "", "country": "FR", "coord": {"lon": 5.69768, "lat": 45.37574}}, {"id": 2979170, "name": "Saint-Joseph", "state": "", "country": "FR", "coord": {"lon": 4.61596, "lat": 45.556931}}, {"id": 2979172, "name": "Saint-Jory-las-Bloux", "state": "", "country": "FR", "coord": {"lon": 0.96591, "lat": 45.362652}}, {"id": 2979174, "name": "Saint-Jory", "state": "", "country": "FR", "coord": {"lon": 1.37089, "lat": 43.741459}}, {"id": 2979175, "name": "Saint-Jorioz", "state": "", "country": "FR", "coord": {"lon": 6.16503, "lat": 45.832958}}, {"id": 2979179, "name": "Saint-Joachim", "state": "", "country": "FR", "coord": {"lon": -2.19239, "lat": 47.383492}}, {"id": 2979180, "name": "Saint-Jeures", "state": "", "country": "FR", "coord": {"lon": 4.20667, "lat": 45.09634}}, {"id": 2979185, "name": "Saint-Jeoire", "state": "", "country": "FR", "coord": {"lon": 6.45886, "lat": 46.137772}}, {"id": 2979189, "name": "Saint-Jean-sur-Veyle", "state": "", "country": "FR", "coord": {"lon": 4.91751, "lat": 46.258759}}, {"id": 2979193, "name": "Saint-Jean-sur-Mayenne", "state": "", "country": "FR", "coord": {"lon": -0.75613, "lat": 48.13522}}, {"id": 2979195, "name": "Saint-Jean-sur-Couesnon", "state": "", "country": "FR", "coord": {"lon": -1.36835, "lat": 48.290119}}, {"id": 2979205, "name": "Sant Joan de Pladecorts", "state": "", "country": "FR", "coord": {"lon": 2.79091, "lat": 42.510689}}, {"id": 2979207, "name": "Saint-Jean-Pied-de-Port", "state": "", "country": "FR", "coord": {"lon": -1.23738, "lat": 43.163631}}, {"id": 2979209, "name": "Saint-Jeannet", "state": "", "country": "FR", "coord": {"lon": 7.14284, "lat": 43.747231}}, {"id": 2979212, "name": "Saint-Jean-le-Vieux", "state": "", "country": "FR", "coord": {"lon": 5.38982, "lat": 46.028488}}, {"id": 2979218, "name": "Saint-Jean-les-Deux-Jumeaux", "state": "", "country": "FR", "coord": {"lon": 3.01959, "lat": 48.951401}}, {"id": 2979226, "name": "Saint-Jean-le-Blanc", "state": "", "country": "FR", "coord": {"lon": 1.9154, "lat": 47.893269}}, {"id": 2979230, "name": "Saint-Jean-la-Poterie", "state": "", "country": "FR", "coord": {"lon": -2.1242, "lat": 47.635811}}, {"id": 2979238, "name": "Saint-Jean-en-Val", "state": "", "country": "FR", "coord": {"lon": 3.35698, "lat": 45.521091}}, {"id": 2979239, "name": "Saint-Jean-en-Royans", "state": "", "country": "FR", "coord": {"lon": 5.29454, "lat": 45.01693}}, {"id": 2979244, "name": "Saint-Jean-du-Gard", "state": "", "country": "FR", "coord": {"lon": 3.88566, "lat": 44.105228}}, {"id": 2979245, "name": "Saint-Jean-du-Falga", "state": "", "country": "FR", "coord": {"lon": 1.6278, "lat": 43.086472}}, {"id": 2979246, "name": "Saint-Jean-du-Doigt", "state": "", "country": "FR", "coord": {"lon": -3.76667, "lat": 48.700001}}, {"id": 2979247, "name": "Saint-Jean-du-Corail-des-Bois", "state": "", "country": "FR", "coord": {"lon": -1.2, "lat": 48.76667}}, {"id": 2979250, "name": "Saint-Jean-du-Cardonnay", "state": "", "country": "FR", "coord": {"lon": 1.0114, "lat": 49.504551}}, {"id": 2979256, "name": "Saint-Jean-d'Illac", "state": "", "country": "FR", "coord": {"lon": -0.78566, "lat": 44.808689}}, {"id": 2979257, "name": "Saint-Jean-d'Heurs", "state": "", "country": "FR", "coord": {"lon": 3.44675, "lat": 45.819241}}, {"id": 2979259, "name": "Saint-Jean-d'Eyraud", "state": "", "country": "FR", "coord": {"lon": 0.45206, "lat": 44.954781}}, {"id": 2979261, "name": "Saint-Jean-de-V\u00e9das", "state": "", "country": "FR", "coord": {"lon": 3.82603, "lat": 43.577591}}, {"id": 2979271, "name": "Saint-Jean-de-Thurac", "state": "", "country": "FR", "coord": {"lon": 0.74161, "lat": 44.154179}}, {"id": 2979272, "name": "Saint-Jean-de-Thouars", "state": "", "country": "FR", "coord": {"lon": -0.21114, "lat": 46.964859}}, {"id": 2979276, "name": "Saint-Jean-d'Estissac", "state": "", "country": "FR", "coord": {"lon": 0.51209, "lat": 45.02932}}, {"id": 2979277, "name": "Saint-Jean-de-Soudain", "state": "", "country": "FR", "coord": {"lon": 5.43027, "lat": 45.570869}}, {"id": 2979280, "name": "Saint-Jean-des-Mauvrets", "state": "", "country": "FR", "coord": {"lon": -0.44929, "lat": 47.398571}}, {"id": 2979283, "name": "Saint-Jean-de-Sixt", "state": "", "country": "FR", "coord": {"lon": 6.40991, "lat": 45.922161}}, {"id": 2979284, "name": "Saint-Jean-des-Essartiers", "state": "", "country": "FR", "coord": {"lon": -0.8375, "lat": 49.044411}}, {"id": 2979287, "name": "Saint-Jean-des-Champs", "state": "", "country": "FR", "coord": {"lon": -1.46487, "lat": 48.827999}}, {"id": 2979289, "name": "Saint-Jean-des-Baisants", "state": "", "country": "FR", "coord": {"lon": -0.97289, "lat": 49.093712}}, {"id": 2979291, "name": "Saint-Jean-de-Sauves", "state": "", "country": "FR", "coord": {"lon": 0.09272, "lat": 46.841301}}, {"id": 2979296, "name": "Saint-Jean-de-Niost", "state": "", "country": "FR", "coord": {"lon": 5.21667, "lat": 45.833328}}, {"id": 2979297, "name": "Saint-Jean-de-Nay", "state": "", "country": "FR", "coord": {"lon": 3.69663, "lat": 45.069592}}, {"id": 2979298, "name": "Saint-Jean-de-Muzols", "state": "", "country": "FR", "coord": {"lon": 4.81421, "lat": 45.080399}}, {"id": 2979299, "name": "Saint-Jean-de-Monts", "state": "", "country": "FR", "coord": {"lon": -2.08219, "lat": 46.790878}}, {"id": 2979300, "name": "Saint-Jean-de-Moirans", "state": "", "country": "FR", "coord": {"lon": 5.58615, "lat": 45.342621}}, {"id": 2979302, "name": "Arrondissement de Saint-Jean-de-Maurienne", "state": "", "country": "FR", "coord": {"lon": 6.58333, "lat": 45.166672}}, {"id": 2979303, "name": "Saint-Jean-de-Maurienne", "state": "", "country": "FR", "coord": {"lon": 6.35, "lat": 45.283329}}, {"id": 2979305, "name": "Saint-Jean-de-Marsacq", "state": "", "country": "FR", "coord": {"lon": -1.2569, "lat": 43.625591}}, {"id": 2979309, "name": "Saint-Jean-de-Luz", "state": "", "country": "FR", "coord": {"lon": -1.6581, "lat": 43.38908}}, {"id": 2979310, "name": "Saint-Jean-de-Losne", "state": "", "country": "FR", "coord": {"lon": 5.26556, "lat": 47.10247}}, {"id": 2979312, "name": "Saint-Jean-de-Livet", "state": "", "country": "FR", "coord": {"lon": 0.25058, "lat": 49.096741}}, {"id": 2979313, "name": "Saint-Jean-de-Liversay", "state": "", "country": "FR", "coord": {"lon": -0.87385, "lat": 46.26894}}, {"id": 2979314, "name": "Saint-Jean-de-Lier", "state": "", "country": "FR", "coord": {"lon": -0.87822, "lat": 43.78968}}, {"id": 2979316, "name": "Saint-Jean-de-la-Ruelle", "state": "", "country": "FR", "coord": {"lon": 1.86483, "lat": 47.91127}}, {"id": 2979322, "name": "Saint-Jean-de-la-Haize", "state": "", "country": "FR", "coord": {"lon": -1.36182, "lat": 48.698479}}, {"id": 2979326, "name": "Saint-Jean-de-Gonville", "state": "", "country": "FR", "coord": {"lon": 5.95047, "lat": 46.212978}}, {"id": 2979328, "name": "Saint-Jean-de-Fos", "state": "", "country": "FR", "coord": {"lon": 3.55171, "lat": 43.701}}, {"id": 2979330, "name": "Saint-Jean-de-Duras", "state": "", "country": "FR", "coord": {"lon": 0.3, "lat": 44.683331}}, {"id": 2979334, "name": "Saint-Jean-de-Couz", "state": "", "country": "FR", "coord": {"lon": 5.81925, "lat": 45.466919}}, {"id": 2979337, "name": "Saint-Jean-de-C\u00f4le", "state": "", "country": "FR", "coord": {"lon": 0.83843, "lat": 45.420849}}, {"id": 2979341, "name": "Saint-Jean-de-Braye", "state": "", "country": "FR", "coord": {"lon": 1.97705, "lat": 47.913029}}, {"id": 2979342, "name": "Saint-Jean-de-Bournay", "state": "", "country": "FR", "coord": {"lon": 5.13963, "lat": 45.501339}}, {"id": 2979344, "name": "Saint-Jean-de-Boiseau", "state": "", "country": "FR", "coord": {"lon": -1.7234, "lat": 47.19315}}, {"id": 2979346, "name": "Saint-Jean-de-Blaignac", "state": "", "country": "FR", "coord": {"lon": -0.13855, "lat": 44.81234}}, {"id": 2979362, "name": "Arrondissement de Saint-Jean-d'Ang\u00e9ly", "state": "", "country": "FR", "coord": {"lon": -0.5, "lat": 45.916672}}, {"id": 2979363, "name": "Saint-Jean-d'Ang\u00e9ly", "state": "", "country": "FR", "coord": {"lon": -0.51667, "lat": 45.950001}}, {"id": 2979366, "name": "Saint-Jean-d'Abbetot", "state": "", "country": "FR", "coord": {"lon": 0.38533, "lat": 49.498219}}, {"id": 2979369, "name": "Saint-Jean-Cap-Ferrat", "state": "", "country": "FR", "coord": {"lon": 7.33238, "lat": 43.68922}}, {"id": 2979370, "name": "Saint-Jean-Br\u00e9velay", "state": "", "country": "FR", "coord": {"lon": -2.72231, "lat": 47.844971}}, {"id": 2979371, "name": "Saint-Jean-Bonnefonds", "state": "", "country": "FR", "coord": {"lon": 4.45057, "lat": 45.452942}}, {"id": 2979389, "name": "Saint-Jean", "state": "", "country": "FR", "coord": {"lon": -0.38413, "lat": 47.245529}}, {"id": 2979394, "name": "Saint-Jean", "state": "", "country": "FR", "coord": {"lon": 1.49941, "lat": 43.6642}}, {"id": 2979398, "name": "Saint-Jans-Cappel", "state": "", "country": "FR", "coord": {"lon": 2.72228, "lat": 50.76387}}, {"id": 2979401, "name": "Saint-James", "state": "", "country": "FR", "coord": {"lon": -1.32629, "lat": 48.521801}}, {"id": 2979405, "name": "Saint-Jacut-les-Pins", "state": "", "country": "FR", "coord": {"lon": -2.21514, "lat": 47.68581}}, {"id": 2979408, "name": "Saint-Jacques-sur-Darn\u00e9tal", "state": "", "country": "FR", "coord": {"lon": 1.2036, "lat": 49.4398}}, {"id": 2979412, "name": "Saint-Jacques-des-Blats", "state": "", "country": "FR", "coord": {"lon": 2.71056, "lat": 45.05209}}, {"id": 2979414, "name": "Saint-Jacques-de-N\u00e9hou", "state": "", "country": "FR", "coord": {"lon": -1.61381, "lat": 49.4175}}, {"id": 2979415, "name": "Saint-Jacques-de-la-Lande", "state": "", "country": "FR", "coord": {"lon": -1.72086, "lat": 48.06514}}, {"id": 2979417, "name": "Saint-Jacques-d'Ambur", "state": "", "country": "FR", "coord": {"lon": 2.77681, "lat": 45.90181}}, {"id": 2979422, "name": "Saint-Jacques", "state": "", "country": "FR", "coord": {"lon": 0.23333, "lat": 49.150002}}, {"id": 2979431, "name": "Saint-Ismier", "state": "", "country": "FR", "coord": {"lon": 5.82863, "lat": 45.247082}}, {"id": 2979438, "name": "Saint-Ilpize", "state": "", "country": "FR", "coord": {"lon": 3.38779, "lat": 45.195709}}, {"id": 2979441, "name": "Saint-Illide", "state": "", "country": "FR", "coord": {"lon": 2.31419, "lat": 45.062149}}, {"id": 2979447, "name": "Saint-Ignat", "state": "", "country": "FR", "coord": {"lon": 3.27439, "lat": 45.923149}}, {"id": 2979465, "name": "Saint-Hostien", "state": "", "country": "FR", "coord": {"lon": 4.04108, "lat": 45.075249}}, {"id": 2979475, "name": "Saint-Hippolyte-du-Fort", "state": "", "country": "FR", "coord": {"lon": 3.85572, "lat": 43.963619}}, {"id": 2979478, "name": "Saint-Hippolyte", "state": "", "country": "FR", "coord": {"lon": 7.36843, "lat": 48.232159}}, {"id": 2979479, "name": "Saint-Hippolyte", "state": "", "country": "FR", "coord": {"lon": 6.81617, "lat": 47.318802}}, {"id": 2979482, "name": "Saint-Hippolyte", "state": "", "country": "FR", "coord": {"lon": -0.89183, "lat": 45.918839}}, {"id": 2979484, "name": "Saint-Hippolyte", "state": "", "country": "FR", "coord": {"lon": -0.1, "lat": 44.883331}}, {"id": 2979488, "name": "Saint-Hippolyte", "state": "", "country": "FR", "coord": {"lon": 2.9662, "lat": 42.7855}}, {"id": 2979502, "name": "Saint-Hilaire-Saint-Mesmin", "state": "", "country": "FR", "coord": {"lon": 1.83351, "lat": 47.866138}}, {"id": 2979505, "name": "Saint-Hilaire-Petitville", "state": "", "country": "FR", "coord": {"lon": -1.21995, "lat": 49.302502}}, {"id": 2979507, "name": "Saint-Hilaire-lez-Cambrai", "state": "", "country": "FR", "coord": {"lon": 3.41327, "lat": 50.184189}}, {"id": 2979520, "name": "Saint-Hilaire-la-Palud", "state": "", "country": "FR", "coord": {"lon": -0.7138, "lat": 46.266762}}, {"id": 2979523, "name": "Saint-Hilaire-la-Croix", "state": "", "country": "FR", "coord": {"lon": 3.04534, "lat": 46.047169}}, {"id": 2979529, "name": "Saint-Hilaire-du-Rosier", "state": "", "country": "FR", "coord": {"lon": 5.25012, "lat": 45.10038}}, {"id": 2979531, "name": "Saint-Hilaire-du-Harcou\u00ebt", "state": "", "country": "FR", "coord": {"lon": -1.09004, "lat": 48.577}}, {"id": 2979538, "name": "Saint-Hilaire-de-Villefranche", "state": "", "country": "FR", "coord": {"lon": -0.52993, "lat": 45.85091}}, {"id": 2979539, "name": "Saint-Hilaire-de-Talmont", "state": "", "country": "FR", "coord": {"lon": -1.60358, "lat": 46.47002}}, {"id": 2979541, "name": "Saint-Hilaire-des-Loges", "state": "", "country": "FR", "coord": {"lon": -0.66393, "lat": 46.471901}}, {"id": 2979543, "name": "Saint-Hilaire-de-Riez", "state": "", "country": "FR", "coord": {"lon": -1.92583, "lat": 46.713081}}, {"id": 2979545, "name": "Saint-Hilaire-de-Loulay", "state": "", "country": "FR", "coord": {"lon": -1.3308, "lat": 47.0019}}, {"id": 2979547, "name": "Saint-Hilaire-de-la-Noaille", "state": "", "country": "FR", "coord": {"lon": 0.00035, "lat": 44.603691}}, {"id": 2979548, "name": "Saint-Hilaire-de-la-C\u00f4te", "state": "", "country": "FR", "coord": {"lon": 5.32287, "lat": 45.39098}}, {"id": 2979551, "name": "Saint-Hilaire-de-Clisson", "state": "", "country": "FR", "coord": {"lon": -1.30778, "lat": 47.062222}}, {"id": 2979552, "name": "Saint-Hilaire-de-Chal\u00e9ons", "state": "", "country": "FR", "coord": {"lon": -1.8669, "lat": 47.101959}}, {"id": 2979554, "name": "Saint-Hilaire-de-Brethmas", "state": "", "country": "FR", "coord": {"lon": 4.12478, "lat": 44.080029}}, {"id": 2979574, "name": "Saint-Hilaire", "state": "", "country": "FR", "coord": {"lon": 5.88333, "lat": 45.299999}}, {"id": 2979577, "name": "Saint-Hilaire", "state": "", "country": "FR", "coord": {"lon": 0.71667, "lat": 44.533329}}, {"id": 2979589, "name": "Saint-Herblon", "state": "", "country": "FR", "coord": {"lon": -1.09738, "lat": 47.40786}}, {"id": 2979590, "name": "Saint-Herblain", "state": "", "country": "FR", "coord": {"lon": -1.64841, "lat": 47.217651}}, {"id": 2979595, "name": "Saint-H\u00e9len", "state": "", "country": "FR", "coord": {"lon": -1.95894, "lat": 48.47002}}, {"id": 2979596, "name": "Saint-H\u00e9and", "state": "", "country": "FR", "coord": {"lon": 4.37377, "lat": 45.528172}}, {"id": 2979599, "name": "Saint-Haon", "state": "", "country": "FR", "coord": {"lon": 3.75862, "lat": 44.846352}}, {"id": 2979619, "name": "Saint-Gr\u00e9goire", "state": "", "country": "FR", "coord": {"lon": -1.68706, "lat": 48.150848}}, {"id": 2979627, "name": "Saint-Gratien", "state": "", "country": "FR", "coord": {"lon": 2.28729, "lat": 48.973499}}, {"id": 2979637, "name": "Saint-Gor", "state": "", "country": "FR", "coord": {"lon": -0.24035, "lat": 44.055168}}, {"id": 2979638, "name": "Saint-Gonnery", "state": "", "country": "FR", "coord": {"lon": -2.81848, "lat": 48.124649}}, {"id": 2979644, "name": "Saint-Goin", "state": "", "country": "FR", "coord": {"lon": -0.7, "lat": 43.25}}, {"id": 2979648, "name": "Saint-Gobain", "state": "", "country": "FR", "coord": {"lon": 3.3775, "lat": 49.595718}}, {"id": 2979653, "name": "Saint-Girons-d'Aiguevives", "state": "", "country": "FR", "coord": {"lon": -0.54238, "lat": 45.139408}}, {"id": 2979655, "name": "Arrondissement de Saint-Girons", "state": "", "country": "FR", "coord": {"lon": 1.16667, "lat": 42.916672}}, {"id": 2979657, "name": "Saint-Girons", "state": "", "country": "FR", "coord": {"lon": 1.15, "lat": 42.98333}}, {"id": 2979662, "name": "Saint-Gilles-Croix-de-Vie", "state": "", "country": "FR", "coord": {"lon": -1.93333, "lat": 46.683331}}, {"id": 2979667, "name": "Saint-Gilles-du-Men\u00e9", "state": "", "country": "FR", "coord": {"lon": -2.54742, "lat": 48.247841}}, {"id": 2979673, "name": "Saint-Gilles", "state": "", "country": "FR", "coord": {"lon": -1.82477, "lat": 48.153809}}, {"id": 2979679, "name": "Saint-Gilles", "state": "", "country": "FR", "coord": {"lon": 4.43024, "lat": 43.676559}}, {"id": 2979680, "name": "Saint-Gildas-des-Bois", "state": "", "country": "FR", "coord": {"lon": -2.03659, "lat": 47.51622}}, {"id": 2979681, "name": "Saint-Gildas-de-Rhuys", "state": "", "country": "FR", "coord": {"lon": -2.83825, "lat": 47.500599}}, {"id": 2979691, "name": "Saint-Gervazy", "state": "", "country": "FR", "coord": {"lon": 3.21614, "lat": 45.415352}}, {"id": 2979692, "name": "Saint-Gervasy", "state": "", "country": "FR", "coord": {"lon": 4.46588, "lat": 43.876862}}, {"id": 2979696, "name": "Saint-Gervais-sous-Meymont", "state": "", "country": "FR", "coord": {"lon": 3.6, "lat": 45.683331}}, {"id": 2979697, "name": "Saint-Gervais-les-Trois-Clochers", "state": "", "country": "FR", "coord": {"lon": 0.40766, "lat": 46.900669}}, {"id": 2979698, "name": "Saint-Gervais-les-Bains", "state": "", "country": "FR", "coord": {"lon": 6.71381, "lat": 45.892899}}, {"id": 2979699, "name": "Saint-Gervais-la-For\u00eat", "state": "", "country": "FR", "coord": {"lon": 1.35493, "lat": 47.567051}}, {"id": 2979701, "name": "Saint-Gervais-en-Belin", "state": "", "country": "FR", "coord": {"lon": 0.2177, "lat": 47.877201}}, {"id": 2979702, "name": "Saint-Gervais-du-Perron", "state": "", "country": "FR", "coord": {"lon": 0.14841, "lat": 48.5345}}, {"id": 2979704, "name": "Saint-Gervais-des-Sablons", "state": "", "country": "FR", "coord": {"lon": 0.07542, "lat": 48.903839}}, {"id": 2979705, "name": "Saint-Gervais-d'Auvergne", "state": "", "country": "FR", "coord": {"lon": 2.8194, "lat": 46.028702}}, {"id": 2979707, "name": "Saint-Gervais", "state": "", "country": "FR", "coord": {"lon": -2.0021, "lat": 46.901741}}, {"id": 2979712, "name": "Saint-Gervais", "state": "", "country": "FR", "coord": {"lon": -0.45238, "lat": 45.015831}}, {"id": 2979717, "name": "Saint-G\u00e9ron", "state": "", "country": "FR", "coord": {"lon": 3.29505, "lat": 45.342232}}, {"id": 2979722, "name": "Saint-Germer-de-Fly", "state": "", "country": "FR", "coord": {"lon": 1.77986, "lat": 49.44281}}, {"id": 2979724, "name": "Saint-Germain-Village", "state": "", "country": "FR", "coord": {"lon": 0.50332, "lat": 49.349079}}, {"id": 2979726, "name": "Saint-Germain-sur-S\u00e8ves", "state": "", "country": "FR", "coord": {"lon": -1.3694, "lat": 49.222141}}, {"id": 2979727, "name": "Saint-Germain-sur-Sarthe", "state": "", "country": "FR", "coord": {"lon": 0.09557, "lat": 48.285591}}, {"id": 2979730, "name": "Saint-Germain-sur-Morin", "state": "", "country": "FR", "coord": {"lon": 2.85127, "lat": 48.882568}}, {"id": 2979731, "name": "Saint-Germain-sur-Moine", "state": "", "country": "FR", "coord": {"lon": -1.12223, "lat": 47.117458}}, {"id": 2979733, "name": "Saint-Germain-Nuelles", "state": "", "country": "FR", "coord": {"lon": 4.61182, "lat": 45.852421}}, {"id": 2979739, "name": "Saint-Germain-sur-Avre", "state": "", "country": "FR", "coord": {"lon": 1.26776, "lat": 48.76466}}, {"id": 2979747, "name": "Saint-Germain-le-Vasson", "state": "", "country": "FR", "coord": {"lon": -0.30133, "lat": 49.001999}}, {"id": 2979750, "name": "Saint-Germain-Lespinasse", "state": "", "country": "FR", "coord": {"lon": 3.96204, "lat": 46.10165}}, {"id": 2979752, "name": "Saint-Germain-l\u00e8s-Corbeil", "state": "", "country": "FR", "coord": {"lon": 2.48775, "lat": 48.622108}}, {"id": 2979754, "name": "Saint-Germain-les-Belles", "state": "", "country": "FR", "coord": {"lon": 1.4949, "lat": 45.61356}}, {"id": 2979755, "name": "Saint-Germain-l\u00e8s-Arpajon", "state": "", "country": "FR", "coord": {"lon": 2.26481, "lat": 48.597328}}, {"id": 2979758, "name": "Saint-Germain-Lembron", "state": "", "country": "FR", "coord": {"lon": 3.2395, "lat": 45.457981}}, {"id": 2979770, "name": "Saint-Germain-Laval", "state": "", "country": "FR", "coord": {"lon": 2.99781, "lat": 48.399681}}, {"id": 2979771, "name": "Saint-Germain-Laval", "state": "", "country": "FR", "coord": {"lon": 4.01445, "lat": 45.831379}}, {"id": 2979772, "name": "Saint-Germain-Laprade", "state": "", "country": "FR", "coord": {"lon": 3.97004, "lat": 45.03862}}, {"id": 2979780, "name": "Saint-Germain-la-Blanche-Herbe", "state": "", "country": "FR", "coord": {"lon": -0.40426, "lat": 49.18327}}, {"id": 2979783, "name": "Saint-Germain-en-Laye", "state": "", "country": "FR", "coord": {"lon": 2.08333, "lat": 48.900002}}, {"id": 2979784, "name": "Saint-Germain-en-Cogl\u00e8s", "state": "", "country": "FR", "coord": {"lon": -1.26369, "lat": 48.405312}}, {"id": 2979789, "name": "Saint-Germain-du-Salembre", "state": "", "country": "FR", "coord": {"lon": 0.45034, "lat": 45.138271}}, {"id": 2979790, "name": "Saint-Germain-du-Puy", "state": "", "country": "FR", "coord": {"lon": 2.48333, "lat": 47.099998}}, {"id": 2979791, "name": "Saint-Germain-du-Puch", "state": "", "country": "FR", "coord": {"lon": -0.31667, "lat": 44.849998}}, {"id": 2979792, "name": "Saint-Germain-du-Plain", "state": "", "country": "FR", "coord": {"lon": 4.9851, "lat": 46.699379}}, {"id": 2979795, "name": "Saint-Germain-du-Crioult", "state": "", "country": "FR", "coord": {"lon": -0.6044, "lat": 48.856419}}, {"id": 2979796, "name": "Saint-Germain-du-Corb\u00e9is", "state": "", "country": "FR", "coord": {"lon": 0.06192, "lat": 48.42215}}, {"id": 2979797, "name": "Saint-Germain-du-Bois", "state": "", "country": "FR", "coord": {"lon": 5.2453, "lat": 46.752869}}, {"id": 2979801, "name": "Saint-Germain-de-Tournebut", "state": "", "country": "FR", "coord": {"lon": -1.39478, "lat": 49.535339}}, {"id": 2979802, "name": "Saint-Germain-de-Tallevende-la-Lande-Vaumont", "state": "", "country": "FR", "coord": {"lon": -0.9, "lat": 48.799999}}, {"id": 2979805, "name": "Saint-Germain-d'Esteuil", "state": "", "country": "FR", "coord": {"lon": -0.86511, "lat": 45.289379}}, {"id": 2979807, "name": "Saint-Germain-des-Pr\u00e9s", "state": "", "country": "FR", "coord": {"lon": 2.84846, "lat": 47.953838}}, {"id": 2979808, "name": "Saint-Germain-des-Pr\u00e9s", "state": "", "country": "FR", "coord": {"lon": -0.83342, "lat": 47.409981}}, {"id": 2979812, "name": "Saint-Germain-des-Foss\u00e9s", "state": "", "country": "FR", "coord": {"lon": 3.43245, "lat": 46.20211}}, {"id": 2979818, "name": "Saint-Germain-de-Salles", "state": "", "country": "FR", "coord": {"lon": 3.21324, "lat": 46.179501}}, {"id": 2979819, "name": "Saint-Germain-de-Prin\u00e7ay", "state": "", "country": "FR", "coord": {"lon": -1.02153, "lat": 46.721069}}, {"id": 2979821, "name": "Saint-Germain-de-Montgommery", "state": "", "country": "FR", "coord": {"lon": 0.17179, "lat": 48.943642}}, {"id": 2979825, "name": "Saint-Germain-de-Marencennes", "state": "", "country": "FR", "coord": {"lon": -0.79133, "lat": 46.077332}}, {"id": 2979826, "name": "Saint-Germain-de-Lusignan", "state": "", "country": "FR", "coord": {"lon": -0.46147, "lat": 45.450111}}, {"id": 2979828, "name": "Saint-Germain-d'Elle", "state": "", "country": "FR", "coord": {"lon": -0.91925, "lat": 49.1222}}, {"id": 2979829, "name": "Saint-Germain-de-Livet", "state": "", "country": "FR", "coord": {"lon": 0.20182, "lat": 49.076118}}, {"id": 2979831, "name": "Saint-Germain-de-la-Rivi\u00e8re", "state": "", "country": "FR", "coord": {"lon": -0.33333, "lat": 44.950001}}, {"id": 2979832, "name": "Saint-Germain-de-la-Grange", "state": "", "country": "FR", "coord": {"lon": 1.89884, "lat": 48.834358}}, {"id": 2979833, "name": "Saint-Germain-de-la-Coudre", "state": "", "country": "FR", "coord": {"lon": 0.60496, "lat": 48.28096}}, {"id": 2979835, "name": "Saint-Germain-de-Grave", "state": "", "country": "FR", "coord": {"lon": -0.21904, "lat": 44.624538}}, {"id": 2979836, "name": "Saint-Germain-de-Fresney", "state": "", "country": "FR", "coord": {"lon": 1.29182, "lat": 48.960461}}, {"id": 2979844, "name": "Saint-Germain-d'Aunay", "state": "", "country": "FR", "coord": {"lon": 0.3786, "lat": 48.924702}}, {"id": 2979861, "name": "Saint-Germain", "state": "", "country": "FR", "coord": {"lon": 4.03264, "lat": 48.257359}}, {"id": 2979865, "name": "Saint-Germain", "state": "", "country": "FR", "coord": {"lon": 6.53117, "lat": 47.72496}}, {"id": 2979873, "name": "Saint-G\u00e9r\u00e9on", "state": "", "country": "FR", "coord": {"lon": -1.20262, "lat": 47.367741}}, {"id": 2979875, "name": "Saint-G\u00e9raud", "state": "", "country": "FR", "coord": {"lon": 0.15184, "lat": 44.621159}}, {"id": 2979876, "name": "Saint-G\u00e9rand-le-Puy", "state": "", "country": "FR", "coord": {"lon": 3.5122, "lat": 46.25758}}, {"id": 2979877, "name": "Saint-G\u00e9rand-de-Vaux", "state": "", "country": "FR", "coord": {"lon": 3.40038, "lat": 46.381321}}, {"id": 2979880, "name": "Saint-Geours-de-Maremne", "state": "", "country": "FR", "coord": {"lon": -1.22937, "lat": 43.689362}}, {"id": 2979885, "name": "Saint-Georges-sur-Loire", "state": "", "country": "FR", "coord": {"lon": -0.76194, "lat": 47.407921}}, {"id": 2979890, "name": "Saint-Georges-sur-Eure", "state": "", "country": "FR", "coord": {"lon": 1.3546, "lat": 48.41869}}, {"id": 2979892, "name": "Saint-Georges-sur-Cher", "state": "", "country": "FR", "coord": {"lon": 1.13261, "lat": 47.32996}}, {"id": 2979893, "name": "Saint-Georges-sur-Baulche", "state": "", "country": "FR", "coord": {"lon": 3.53144, "lat": 47.800388}}, {"id": 2979895, "name": "Saint-Georges-sur-Allier", "state": "", "country": "FR", "coord": {"lon": 3.24296, "lat": 45.71093}}, {"id": 2979898, "name": "Saint-Georges-Montcocq", "state": "", "country": "FR", "coord": {"lon": -1.09357, "lat": 49.128071}}, {"id": 2979900, "name": "Saint-Georges-les-Bains", "state": "", "country": "FR", "coord": {"lon": 4.80758, "lat": 44.862221}}, {"id": 2979901, "name": "Saint-Georges-l\u00e8s-Baillargeaux", "state": "", "country": "FR", "coord": {"lon": 0.40208, "lat": 46.67017}}, {"id": 2979905, "name": "Saint-Georges-Haute-Ville", "state": "", "country": "FR", "coord": {"lon": 4.09952, "lat": 45.554871}}, {"id": 2979912, "name": "Saint-Georges-du-Bois", "state": "", "country": "FR", "coord": {"lon": 0.10113, "lat": 47.97242}}, {"id": 2979914, "name": "Saint-Georges-du-Bois", "state": "", "country": "FR", "coord": {"lon": -0.73393, "lat": 46.140739}}, {"id": 2979920, "name": "Saint-Georges-des-Groseillers", "state": "", "country": "FR", "coord": {"lon": -0.56768, "lat": 48.769939}}, {"id": 2979921, "name": "Saint-Georges-des-Coteaux", "state": "", "country": "FR", "coord": {"lon": -0.71667, "lat": 45.76667}}, {"id": 2979925, "name": "Saint-Georges-de-Reneins", "state": "", "country": "FR", "coord": {"lon": 4.7256, "lat": 46.060341}}, {"id": 2979926, "name": "Saint-Georges-de-Reintembault", "state": "", "country": "FR", "coord": {"lon": -1.24328, "lat": 48.507439}}, {"id": 2979928, "name": "Saint-Georges-de-Pointindoux", "state": "", "country": "FR", "coord": {"lon": -1.62204, "lat": 46.644619}}, {"id": 2979930, "name": "Saint-Georges-de-Montaigu", "state": "", "country": "FR", "coord": {"lon": -1.29262, "lat": 46.946548}}, {"id": 2979931, "name": "Saint-Georges-de-Mons", "state": "", "country": "FR", "coord": {"lon": 2.8406, "lat": 45.939941}}, {"id": 2979932, "name": "Saint-Georges-de-Montclard", "state": "", "country": "FR", "coord": {"lon": 0.6, "lat": 44.950001}}, {"id": 2979933, "name": "Saint-Georges-de-Luzen\u00e7on", "state": "", "country": "FR", "coord": {"lon": 2.98597, "lat": 44.064709}}, {"id": 2979934, "name": "Saint-Georges-de-Longuepierre", "state": "", "country": "FR", "coord": {"lon": -0.39894, "lat": 46.04142}}, {"id": 2979935, "name": "Saint-Georges-d'Elle", "state": "", "country": "FR", "coord": {"lon": -0.97024, "lat": 49.14846}}, {"id": 2979936, "name": "Saint-Georges-de-Livoye", "state": "", "country": "FR", "coord": {"lon": -1.21765, "lat": 48.735619}}, {"id": 2979938, "name": "Saint-Georges-de-la-Rivi\u00e8re", "state": "", "country": "FR", "coord": {"lon": -1.72404, "lat": 49.36108}}, {"id": 2979941, "name": "Saint-Georges-de-Didonne", "state": "", "country": "FR", "coord": {"lon": -1.00487, "lat": 45.60342}}, {"id": 2979943, "name": "Saint-Georges-de-Commiers", "state": "", "country": "FR", "coord": {"lon": 5.70226, "lat": 45.03854}}, {"id": 2979945, "name": "Saint-Georges-de-Bohon", "state": "", "country": "FR", "coord": {"lon": -1.27022, "lat": 49.25071}}, {"id": 2979948, "name": "Saint-Georges-d'Aurac", "state": "", "country": "FR", "coord": {"lon": 3.54044, "lat": 45.156921}}, {"id": 2979949, "name": "Saint-Georges-d'Aunay", "state": "", "country": "FR", "coord": {"lon": -0.68095, "lat": 49.03714}}, {"id": 2979951, "name": "Saint-Georges-Buttavent", "state": "", "country": "FR", "coord": {"lon": -0.69372, "lat": 48.310181}}, {"id": 2979976, "name": "Saint-Geoire-en-Valdaine", "state": "", "country": "FR", "coord": {"lon": 5.63416, "lat": 45.456989}}, {"id": 2979979, "name": "Saint-Genix-sur-Guiers", "state": "", "country": "FR", "coord": {"lon": 5.63436, "lat": 45.599659}}, {"id": 2979983, "name": "Saint-Genis-Pouilly", "state": "", "country": "FR", "coord": {"lon": 6.02119, "lat": 46.243561}}, {"id": 2979984, "name": "Saint-Genis-les-Olli\u00e8res", "state": "", "country": "FR", "coord": {"lon": 4.72892, "lat": 45.757191}}, {"id": 2979985, "name": "Saint-Genis-Laval", "state": "", "country": "FR", "coord": {"lon": 4.7934, "lat": 45.69558}}, {"id": 2979987, "name": "Saint-Genis-du-Bois", "state": "", "country": "FR", "coord": {"lon": -0.17365, "lat": 44.702801}}, {"id": 2979989, "name": "Saint-Genis-de-Saintonge", "state": "", "country": "FR", "coord": {"lon": -0.56848, "lat": 45.481071}}, {"id": 2979993, "name": "Saint-G\u00e9nis-des-Fontaines", "state": "", "country": "FR", "coord": {"lon": 2.9206, "lat": 42.543251}}, {"id": 2980001, "name": "Saint-Geni\u00e8s-des-Mourgues", "state": "", "country": "FR", "coord": {"lon": 4.0361, "lat": 43.6978}}, {"id": 2980002, "name": "Saint-Geni\u00e8s-de-Malgoir\u00e8s", "state": "", "country": "FR", "coord": {"lon": 4.21667, "lat": 43.950001}}, {"id": 2980003, "name": "Saint-Geni\u00e8s-de-Comolas", "state": "", "country": "FR", "coord": {"lon": 4.72157, "lat": 44.06617}}, {"id": 2980004, "name": "Saint-Geni\u00e8s-Bellevue", "state": "", "country": "FR", "coord": {"lon": 1.48693, "lat": 43.68409}}, {"id": 2980005, "name": "Saint-Geni\u00e8s", "state": "", "country": "FR", "coord": {"lon": 1.25, "lat": 45.0}}, {"id": 2980006, "name": "Saint-Gengoux-le-National", "state": "", "country": "FR", "coord": {"lon": 4.66261, "lat": 46.614761}}, {"id": 2980009, "name": "Saint-Geneys-pr\u00e8s-Saint-Paulien", "state": "", "country": "FR", "coord": {"lon": 3.82239, "lat": 45.161839}}, {"id": 2980011, "name": "Saint-Genest-Malifaux", "state": "", "country": "FR", "coord": {"lon": 4.41954, "lat": 45.342339}}, {"id": 2980012, "name": "Saint-Genest-Lerpt", "state": "", "country": "FR", "coord": {"lon": 4.33622, "lat": 45.44529}}, {"id": 2980022, "name": "Saint-Gen\u00e8s-la-Tourette", "state": "", "country": "FR", "coord": {"lon": 3.47229, "lat": 45.51049}}, {"id": 2980023, "name": "Saint-Gen\u00e8s-du-Retz", "state": "", "country": "FR", "coord": {"lon": 3.21649, "lat": 46.062012}}, {"id": 2980024, "name": "Saint-Gen\u00e8s-de-Lombaud", "state": "", "country": "FR", "coord": {"lon": -0.37203, "lat": 44.75071}}, {"id": 2980025, "name": "Saint-Gen\u00e8s-de-Fronsac", "state": "", "country": "FR", "coord": {"lon": -0.35882, "lat": 45.02512}}, {"id": 2980026, "name": "Saint-Gen\u00e8s-de-Castillon", "state": "", "country": "FR", "coord": {"lon": -0.06667, "lat": 44.900002}}, {"id": 2980027, "name": "Saint-Gen\u00e8s-de-Blaye", "state": "", "country": "FR", "coord": {"lon": -0.64071, "lat": 45.161308}}, {"id": 2980028, "name": "Saint-Gen\u00e8s-Champespe", "state": "", "country": "FR", "coord": {"lon": 2.72349, "lat": 45.41869}}, {"id": 2980029, "name": "Saint-Gen\u00e8s-Champanelle", "state": "", "country": "FR", "coord": {"lon": 3.01887, "lat": 45.719151}}, {"id": 2980031, "name": "Saint-Gence", "state": "", "country": "FR", "coord": {"lon": 1.13726, "lat": 45.921982}}, {"id": 2980033, "name": "Saint-G\u00e9ly-du-Fesc", "state": "", "country": "FR", "coord": {"lon": 3.80492, "lat": 43.692719}}, {"id": 2980035, "name": "Saint-Gelais", "state": "", "country": "FR", "coord": {"lon": -0.39084, "lat": 46.382339}}, {"id": 2980036, "name": "Saint-Gein", "state": "", "country": "FR", "coord": {"lon": -0.3006, "lat": 43.835979}}, {"id": 2980040, "name": "Saint-Gaultier", "state": "", "country": "FR", "coord": {"lon": 1.41289, "lat": 46.635181}}, {"id": 2980043, "name": "Arrondissement de Saint-Gaudens", "state": "", "country": "FR", "coord": {"lon": 0.66667, "lat": 43.083328}}, {"id": 2980045, "name": "Saint-Gaudens", "state": "", "country": "FR", "coord": {"lon": 0.73333, "lat": 43.116669}}, {"id": 2980046, "name": "Saint-Gatien-des-Bois", "state": "", "country": "FR", "coord": {"lon": 0.18333, "lat": 49.349998}}, {"id": 2980051, "name": "Saint-Gal-sur-Sioule", "state": "", "country": "FR", "coord": {"lon": 3.00926, "lat": 46.11108}}, {"id": 2980052, "name": "Saint-Galmier", "state": "", "country": "FR", "coord": {"lon": 4.31743, "lat": 45.591991}}, {"id": 2980056, "name": "Saint-Gabriel-Br\u00e9cy", "state": "", "country": "FR", "coord": {"lon": -0.56425, "lat": 49.276649}}, {"id": 2980058, "name": "Saint-Fulgent-des-Ormes", "state": "", "country": "FR", "coord": {"lon": 0.4471, "lat": 48.31805}}, {"id": 2980059, "name": "Saint-Fulgent", "state": "", "country": "FR", "coord": {"lon": -1.17798, "lat": 46.852261}}, {"id": 2980061, "name": "Saint-Front-sur-Nizonne", "state": "", "country": "FR", "coord": {"lon": 0.63688, "lat": 45.480579}}, {"id": 2980062, "name": "Saint-Front-sur-L\u00e9mance", "state": "", "country": "FR", "coord": {"lon": 0.97301, "lat": 44.57439}}, {"id": 2980063, "name": "Saint-Front-la-Rivi\u00e8re", "state": "", "country": "FR", "coord": {"lon": 0.72746, "lat": 45.471691}}, {"id": 2980065, "name": "Saint-Front-d'Alemps", "state": "", "country": "FR", "coord": {"lon": 0.78082, "lat": 45.32383}}, {"id": 2980068, "name": "Saint-Fromond", "state": "", "country": "FR", "coord": {"lon": -1.08979, "lat": 49.22068}}, {"id": 2980080, "name": "Saint-Fran\u00e7ois", "state": "", "country": "FR", "coord": {"lon": 3.90542, "lat": 46.415379}}, {"id": 2980086, "name": "Saint-Fraimbault", "state": "", "country": "FR", "coord": {"lon": -0.7, "lat": 48.48333}}, {"id": 2980092, "name": "Saint-Fort", "state": "", "country": "FR", "coord": {"lon": -0.72095, "lat": 47.799278}}, {"id": 2980094, "name": "Saint-Forgeux", "state": "", "country": "FR", "coord": {"lon": 4.47486, "lat": 45.859791}}, {"id": 2980097, "name": "Saint-Fons", "state": "", "country": "FR", "coord": {"lon": 4.86057, "lat": 45.708801}}, {"id": 2980098, "name": "Saint-Folquin", "state": "", "country": "FR", "coord": {"lon": 2.12433, "lat": 50.944729}}, {"id": 2980102, "name": "Arrondissement de Saint-Flour", "state": "", "country": "FR", "coord": {"lon": 3.0, "lat": 45.083328}}, {"id": 2980104, "name": "Saint-Flour", "state": "", "country": "FR", "coord": {"lon": 3.08333, "lat": 45.033329}}, {"id": 2980107, "name": "Saint-Florent-sur-Cher", "state": "", "country": "FR", "coord": {"lon": 2.25076, "lat": 46.995522}}, {"id": 2980108, "name": "Saint-Florent-sur-Auzonnet", "state": "", "country": "FR", "coord": {"lon": 4.11252, "lat": 44.240318}}, {"id": 2980109, "name": "Saint-Florent-le-Vieil", "state": "", "country": "FR", "coord": {"lon": -1.01515, "lat": 47.360691}}, {"id": 2980111, "name": "Saint-Florentin", "state": "", "country": "FR", "coord": {"lon": 3.72489, "lat": 48.000568}}, {"id": 2980113, "name": "Saint-Florent-des-Bois", "state": "", "country": "FR", "coord": {"lon": -1.3158, "lat": 46.593769}}, {"id": 2980115, "name": "Saint-Florent", "state": "", "country": "FR", "coord": {"lon": 9.30396, "lat": 42.681499}}, {"id": 2980127, "name": "Saint-Fiacre-sur-Maine", "state": "", "country": "FR", "coord": {"lon": -1.41714, "lat": 47.142551}}, {"id": 2980135, "name": "Saint-Ferr\u00e9ol-des-C\u00f4tes", "state": "", "country": "FR", "coord": {"lon": 3.70706, "lat": 45.52874}}, {"id": 2980136, "name": "Saint-Ferr\u00e9ol-d'Auroure", "state": "", "country": "FR", "coord": {"lon": 4.25558, "lat": 45.355881}}, {"id": 2980141, "name": "Saint-Ferme", "state": "", "country": "FR", "coord": {"lon": 0.05876, "lat": 44.693588}}, {"id": 2980144, "name": "Saint-F\u00e9lix-Lauragais", "state": "", "country": "FR", "coord": {"lon": 1.88814, "lat": 43.448631}}, {"id": 2980145, "name": "Saint-F\u00e9lix-de-Villadeix", "state": "", "country": "FR", "coord": {"lon": 0.68253, "lat": 44.924221}}, {"id": 2980154, "name": "Saint-F\u00e9lix-de-Foncaude", "state": "", "country": "FR", "coord": {"lon": -0.1205, "lat": 44.649609}}, {"id": 2980155, "name": "Saint-F\u00e9lix-de-Bourdeilles", "state": "", "country": "FR", "coord": {"lon": 0.56667, "lat": 45.416672}}, {"id": 2980160, "name": "Saint-F\u00e9lix", "state": "", "country": "FR", "coord": {"lon": 5.97106, "lat": 45.802299}}, {"id": 2980162, "name": "Saint-F\u00e9lix", "state": "", "country": "FR", "coord": {"lon": 2.11794, "lat": 44.61137}}, {"id": 2980165, "name": "Saint-F\u00e9licien", "state": "", "country": "FR", "coord": {"lon": 4.62718, "lat": 45.084579}}, {"id": 2980166, "name": "Saint-Faust", "state": "", "country": "FR", "coord": {"lon": -0.45, "lat": 43.26667}}, {"id": 2980168, "name": "Saint-Fargeol", "state": "", "country": "FR", "coord": {"lon": 2.62871, "lat": 46.138378}}, {"id": 2980169, "name": "Saint-Fargeau-Ponthierry", "state": "", "country": "FR", "coord": {"lon": 2.5284, "lat": 48.557129}}, {"id": 2980170, "name": "Saint-Fargeau", "state": "", "country": "FR", "coord": {"lon": 3.07066, "lat": 47.641331}}, {"id": 2980176, "name": "Saint-Evroult-Notre-Dame-du-Bois", "state": "", "country": "FR", "coord": {"lon": 0.46667, "lat": 48.799999}}, {"id": 2980182, "name": "Sainte-Verge", "state": "", "country": "FR", "coord": {"lon": -0.21033, "lat": 47.008179}}, {"id": 2980184, "name": "Saint-\u00c9varzec", "state": "", "country": "FR", "coord": {"lon": -4.01667, "lat": 47.933331}}, {"id": 2980192, "name": "Saint-Eustache-la-For\u00eat", "state": "", "country": "FR", "coord": {"lon": 0.45599, "lat": 49.551369}}, {"id": 2980197, "name": "Saint-Eus\u00e8be", "state": "", "country": "FR", "coord": {"lon": 4.46203, "lat": 46.713459}}, {"id": 2980205, "name": "Sainte-Tulle", "state": "", "country": "FR", "coord": {"lon": 5.76736, "lat": 43.78846}}, {"id": 2980211, "name": "Saint-\u00c9tienne-sur-Usson", "state": "", "country": "FR", "coord": {"lon": 3.41201, "lat": 45.505901}}, {"id": 2980213, "name": "Saint-\u00c9tienne-sur-Reyssouze", "state": "", "country": "FR", "coord": {"lon": 5.00077, "lat": 46.412479}}, {"id": 2980214, "name": "Saint-\u00c9tienne-sur-Chalaronne", "state": "", "country": "FR", "coord": {"lon": 4.86555, "lat": 46.147812}}, {"id": 2980215, "name": "Saint-\u00c9tienne-sur-Blesle", "state": "", "country": "FR", "coord": {"lon": 3.13333, "lat": 45.316669}}, {"id": 2980219, "name": "Saint-\u00c9tienne-l\u00e8s-Remiremont", "state": "", "country": "FR", "coord": {"lon": 6.60868, "lat": 48.022869}}, {"id": 2980224, "name": "Saint-\u00c9tienne-la-Thillaye", "state": "", "country": "FR", "coord": {"lon": 0.12021, "lat": 49.29002}}, {"id": 2980225, "name": "Saint-\u00c9tienne-Lardeyrol", "state": "", "country": "FR", "coord": {"lon": 4.00154, "lat": 45.071861}}, {"id": 2980231, "name": "Saint-\u00c9tienne-en-Cogl\u00e8s", "state": "", "country": "FR", "coord": {"lon": -1.32812, "lat": 48.401718}}, {"id": 2980236, "name": "Saint-\u00c9tienne-du-Rouvray", "state": "", "country": "FR", "coord": {"lon": 1.10467, "lat": 49.377941}}, {"id": 2980237, "name": "Saint-\u00c9tienne-du-Gu\u00e9-de-l'Isle", "state": "", "country": "FR", "coord": {"lon": -2.64808, "lat": 48.10302}}, {"id": 2980238, "name": "Saint-\u00c9tienne-du-Gr\u00e8s", "state": "", "country": "FR", "coord": {"lon": 4.72163, "lat": 43.78112}}, {"id": 2980239, "name": "Saint-\u00c9tienne-du-Bois", "state": "", "country": "FR", "coord": {"lon": -1.59714, "lat": 46.83041}}, {"id": 2980240, "name": "Saint-\u00c9tienne-du-Bois", "state": "", "country": "FR", "coord": {"lon": 5.29481, "lat": 46.287659}}, {"id": 2980241, "name": "Saint-\u00c9tienne-d'Orthe", "state": "", "country": "FR", "coord": {"lon": -1.17785, "lat": 43.588692}}, {"id": 2980244, "name": "Saint-\u00c9tienne-de-Vicq", "state": "", "country": "FR", "coord": {"lon": 3.53412, "lat": 46.177711}}, {"id": 2980246, "name": "Saint-Etienne-de-Tulmont", "state": "", "country": "FR", "coord": {"lon": 1.46667, "lat": 44.049999}}, {"id": 2980256, "name": "Saint-\u00c9tienne-de-Saint-Geoirs", "state": "", "country": "FR", "coord": {"lon": 5.3449, "lat": 45.33931}}, {"id": 2980259, "name": "Saint-\u00c9tienne-de-Montluc", "state": "", "country": "FR", "coord": {"lon": -1.78072, "lat": 47.276901}}, {"id": 2980260, "name": "Saint-\u00c9tienne-de-Mer-Morte", "state": "", "country": "FR", "coord": {"lon": -1.74272, "lat": 46.928478}}, {"id": 2980262, "name": "Saint-\u00c9tienne-de-Lugdar\u00e8s", "state": "", "country": "FR", "coord": {"lon": 3.9554, "lat": 44.650982}}, {"id": 2980267, "name": "Saint-\u00c9tienne-de-Foug\u00e8res", "state": "", "country": "FR", "coord": {"lon": 0.55512, "lat": 44.418571}}, {"id": 2980268, "name": "Saint-\u00c9tienne-de-Fontbellon", "state": "", "country": "FR", "coord": {"lon": 4.3858, "lat": 44.601749}}, {"id": 2980269, "name": "Saint-Etienne-de-Cuines", "state": "", "country": "FR", "coord": {"lon": 6.28333, "lat": 45.349998}}, {"id": 2980270, "name": "Saint-\u00c9tienne-de-Crossey", "state": "", "country": "FR", "coord": {"lon": 5.64527, "lat": 45.379139}}, {"id": 2980274, "name": "Saint-\u00c9tienne-de-Chigny", "state": "", "country": "FR", "coord": {"lon": 0.53333, "lat": 47.383331}}, {"id": 2980275, "name": "Saint-\u00c9tienne-de-Carlat", "state": "", "country": "FR", "coord": {"lon": 2.57428, "lat": 44.904812}}, {"id": 2980278, "name": "Saint-\u00c9tienne-de-Ba\u00efgorry", "state": "", "country": "FR", "coord": {"lon": -1.3467, "lat": 43.175331}}, {"id": 2980283, "name": "Saint-\u00c9tienne-au-Mont", "state": "", "country": "FR", "coord": {"lon": 1.63084, "lat": 50.67794}}, {"id": 2980288, "name": "Arrondissement de Saint-\u00c9tienne", "state": "", "country": "FR", "coord": {"lon": 4.5, "lat": 45.416672}}, {"id": 2980291, "name": "Saint-\u00c9tienne", "state": "", "country": "FR", "coord": {"lon": 4.4, "lat": 45.433331}}, {"id": 2980299, "name": "Sainte-Th\u00e9rence", "state": "", "country": "FR", "coord": {"lon": 2.55, "lat": 46.23333}}, {"id": 2980301, "name": "Sainte-Terre", "state": "", "country": "FR", "coord": {"lon": -0.11667, "lat": 44.833328}}, {"id": 2980304, "name": "Sainte-Suzanne", "state": "", "country": "FR", "coord": {"lon": -0.35439, "lat": 48.098179}}, {"id": 2980305, "name": "Sainte-Suzanne", "state": "", "country": "FR", "coord": {"lon": 6.76775, "lat": 47.500172}}, {"id": 2980313, "name": "Saint-Est\u00e8ve", "state": "", "country": "FR", "coord": {"lon": 2.8449, "lat": 42.711761}}, {"id": 2980317, "name": "Saint-Est\u00e8phe", "state": "", "country": "FR", "coord": {"lon": -0.77237, "lat": 45.26252}}, {"id": 2980318, "name": "Saint-Esteben", "state": "", "country": "FR", "coord": {"lon": -1.2086, "lat": 43.337921}}, {"id": 2980320, "name": "Sainte-Soulle", "state": "", "country": "FR", "coord": {"lon": -1.01607, "lat": 46.188469}}, {"id": 2980324, "name": "Sainte-Solange", "state": "", "country": "FR", "coord": {"lon": 2.55019, "lat": 47.13628}}, {"id": 2980325, "name": "Saintes-Maries-de-la-Mer", "state": "", "country": "FR", "coord": {"lon": 4.42913, "lat": 43.452141}}, {"id": 2980328, "name": "Sainte-Sigol\u00e8ne", "state": "", "country": "FR", "coord": {"lon": 4.23343, "lat": 45.24329}}, {"id": 2980335, "name": "Sainte-Savine", "state": "", "country": "FR", "coord": {"lon": 4.04642, "lat": 48.296371}}, {"id": 2980339, "name": "Arrondissement de Saintes", "state": "", "country": "FR", "coord": {"lon": -0.75, "lat": 45.666672}}, {"id": 2980340, "name": "Saintes", "state": "", "country": "FR", "coord": {"lon": -0.63333, "lat": 45.75}}, {"id": 2980344, "name": "Saint-Erme-Outre-et-Ramecourt", "state": "", "country": "FR", "coord": {"lon": 3.8406, "lat": 49.514641}}, {"id": 2980345, "name": "Sainte-Reine-de-Bretagne", "state": "", "country": "FR", "coord": {"lon": -2.19238, "lat": 47.441311}}, {"id": 2980350, "name": "Saint-Erblon", "state": "", "country": "FR", "coord": {"lon": -1.65162, "lat": 48.018951}}, {"id": 2980356, "name": "Sainte-Radegonde", "state": "", "country": "FR", "coord": {"lon": -0.25, "lat": 46.98333}}, {"id": 2980364, "name": "Sainte-Radegonde", "state": "", "country": "FR", "coord": {"lon": 2.62672, "lat": 44.337429}}, {"id": 2980369, "name": "Sainte-Pience", "state": "", "country": "FR", "coord": {"lon": -1.30033, "lat": 48.75882}}, {"id": 2980372, "name": "Sainte-Pazanne", "state": "", "country": "FR", "coord": {"lon": -1.8095, "lat": 47.103001}}, {"id": 2980375, "name": "Saint-\u00c9pain", "state": "", "country": "FR", "coord": {"lon": 0.53668, "lat": 47.144821}}, {"id": 2980381, "name": "Sainte-Opportune", "state": "", "country": "FR", "coord": {"lon": -0.41612, "lat": 48.741772}}, {"id": 2980384, "name": "Sainteny", "state": "", "country": "FR", "coord": {"lon": -1.31429, "lat": 49.238209}}, {"id": 2980386, "name": "Saint-Ennemond", "state": "", "country": "FR", "coord": {"lon": 3.42247, "lat": 46.675991}}, {"id": 2980388, "name": "Sainte-Nathal\u00e8ne", "state": "", "country": "FR", "coord": {"lon": 1.25, "lat": 44.916672}}, {"id": 2980390, "name": "Sainte-Mondane", "state": "", "country": "FR", "coord": {"lon": 1.33333, "lat": 44.849998}}, {"id": 2980392, "name": "Saint-\u00c9milion", "state": "", "country": "FR", "coord": {"lon": -0.15, "lat": 44.883331}}, {"id": 2980397, "name": "Sainte-M\u00e8re-\u00c9glise", "state": "", "country": "FR", "coord": {"lon": -1.31726, "lat": 49.41}}, {"id": 2980399, "name": "Arrondissement de Sainte-Menehould", "state": "", "country": "FR", "coord": {"lon": 4.75, "lat": 49.083328}}, {"id": 2980400, "name": "Sainte-Menehould", "state": "", "country": "FR", "coord": {"lon": 4.9, "lat": 49.083328}}, {"id": 2980402, "name": "Sainte-Maxime", "state": "", "country": "FR", "coord": {"lon": 6.63849, "lat": 43.309071}}, {"id": 2980403, "name": "Sainte-Maure-de-Touraine", "state": "", "country": "FR", "coord": {"lon": 0.62236, "lat": 47.111301}}, {"id": 2980405, "name": "Sainte-Maure", "state": "", "country": "FR", "coord": {"lon": 4.05962, "lat": 48.34729}}, {"id": 2980407, "name": "Sainte-Marthe", "state": "", "country": "FR", "coord": {"lon": 0.1491, "lat": 44.41523}}, {"id": 2980411, "name": "Sainte-Marie-Plage", "state": "", "country": "FR", "coord": {"lon": 3.03751, "lat": 42.724979}}, {"id": 2980412, "name": "Sainte-Marie-Outre-l'Eau", "state": "", "country": "FR", "coord": {"lon": -1.02321, "lat": 48.934761}}, {"id": 2980413, "name": "Sainte-Marie-Laumont", "state": "", "country": "FR", "coord": {"lon": -0.8881, "lat": 48.918449}}, {"id": 2980418, "name": "Sainte-Marie-Kerque", "state": "", "country": "FR", "coord": {"lon": 2.13664, "lat": 50.89917}}, {"id": 2980423, "name": "Sainte-Marie-du-Bois", "state": "", "country": "FR", "coord": {"lon": -0.89172, "lat": 48.56242}}, {"id": 2980427, "name": "Sainte-Marie-des-Champs", "state": "", "country": "FR", "coord": {"lon": 0.77904, "lat": 49.621201}}, {"id": 2980429, "name": "Sainte-Marie-de-R\u00e9", "state": "", "country": "FR", "coord": {"lon": -1.31281, "lat": 46.15237}}, {"id": 2980431, "name": "Sainte-Marie-de-Frugie", "state": "", "country": "FR", "coord": {"lon": 0.99578, "lat": 45.552139}}, {"id": 2980433, "name": "Sainte-Marie-de-Chignac", "state": "", "country": "FR", "coord": {"lon": 0.82905, "lat": 45.131001}}, {"id": 2980438, "name": "Sainte-Marie-aux-Mines", "state": "", "country": "FR", "coord": {"lon": 7.18528, "lat": 48.246799}}, {"id": 2980439, "name": "Sainte-Marie-aux-Ch\u00eanes", "state": "", "country": "FR", "coord": {"lon": 6.00065, "lat": 49.191681}}, {"id": 2980446, "name": "Sainte-Marie", "state": "", "country": "FR", "coord": {"lon": -2.0019, "lat": 47.69429}}, {"id": 2980457, "name": "Sainte-Marguerite-sur-Duclair", "state": "", "country": "FR", "coord": {"lon": 0.84362, "lat": 49.508518}}, {"id": 2980460, "name": "Sainte-Marguerite-de-Viette", "state": "", "country": "FR", "coord": {"lon": 0.09338, "lat": 49.012321}}, {"id": 2980476, "name": "Sainte-Marguerite", "state": "", "country": "FR", "coord": {"lon": 6.98439, "lat": 48.267349}}, {"id": 2980488, "name": "Sainte-Luce-sur-Loire", "state": "", "country": "FR", "coord": {"lon": -1.4843, "lat": 47.253811}}, {"id": 2980492, "name": "Saint-\u00c9loy-les-Mines", "state": "", "country": "FR", "coord": {"lon": 2.83623, "lat": 46.157928}}, {"id": 2980493, "name": "Saint-\u00c9loy-la-Glaci\u00e8re", "state": "", "country": "FR", "coord": {"lon": 3.57262, "lat": 45.56184}}, {"id": 2980494, "name": "Saint-\u00c9loy-de-Gy", "state": "", "country": "FR", "coord": {"lon": 2.34267, "lat": 47.155521}}, {"id": 2980495, "name": "Saint-\u00c9loy-d'Allier", "state": "", "country": "FR", "coord": {"lon": 2.36304, "lat": 46.487431}}, {"id": 2980507, "name": "Saint-\u00c9loi", "state": "", "country": "FR", "coord": {"lon": 3.22228, "lat": 46.973419}}, {"id": 2980511, "name": "Saint-Ellier-les-Bois", "state": "", "country": "FR", "coord": {"lon": -0.09403, "lat": 48.513901}}, {"id": 2980514, "name": "Sainte-Lizaigne", "state": "", "country": "FR", "coord": {"lon": 2.02266, "lat": 47.00695}}, {"id": 2980519, "name": "Sainte-Livrade-sur-Lot", "state": "", "country": "FR", "coord": {"lon": 0.5912, "lat": 44.399288}}, {"id": 2980520, "name": "Sainte-Livrade", "state": "", "country": "FR", "coord": {"lon": 1.10449, "lat": 43.64933}}, {"id": 2980532, "name": "Sainte-Jamme-sur-Sarthe", "state": "", "country": "FR", "coord": {"lon": 0.16743, "lat": 48.142639}}, {"id": 2980535, "name": "Sainte-Honorine-la-Guillaume", "state": "", "country": "FR", "coord": {"lon": -0.37916, "lat": 48.780369}}, {"id": 2980536, "name": "Sainte-Honorine-la-Chardonne", "state": "", "country": "FR", "coord": {"lon": -0.48575, "lat": 48.824429}}, {"id": 2980537, "name": "Sainte-Honorine-du-Fay", "state": "", "country": "FR", "coord": {"lon": -0.49295, "lat": 49.077751}}, {"id": 2980541, "name": "Sainte-Hermine", "state": "", "country": "FR", "coord": {"lon": -1.05476, "lat": 46.55619}}, {"id": 2980542, "name": "Sainte-H\u00e9l\u00e8ne-sur-Is\u00e8re", "state": "", "country": "FR", "coord": {"lon": 6.32065, "lat": 45.613129}}, {"id": 2980547, "name": "Sainte-H\u00e9l\u00e8ne", "state": "", "country": "FR", "coord": {"lon": -3.20359, "lat": 47.719761}}, {"id": 2980550, "name": "Sainte-H\u00e9l\u00e8ne", "state": "", "country": "FR", "coord": {"lon": -0.88333, "lat": 44.966671}}, {"id": 2980554, "name": "Sainte-Genevi\u00e8ve-sur-Argence", "state": "", "country": "FR", "coord": {"lon": 2.75954, "lat": 44.802219}}, {"id": 2980558, "name": "Sainte-Genevi\u00e8ve-des-Bois", "state": "", "country": "FR", "coord": {"lon": 2.31965, "lat": 48.64682}}, {"id": 2980559, "name": "Sainte-Genevi\u00e8ve-des-Bois", "state": "", "country": "FR", "coord": {"lon": 2.81652, "lat": 47.81776}}, {"id": 2980562, "name": "Sainte-Genevi\u00e8ve", "state": "", "country": "FR", "coord": {"lon": 2.19904, "lat": 49.2892}}, {"id": 2980565, "name": "Sainte-Gemmes-sur-Loire", "state": "", "country": "FR", "coord": {"lon": -0.55684, "lat": 47.422901}}, {"id": 2980569, "name": "Sainte-Gemme-Martaillac", "state": "", "country": "FR", "coord": {"lon": 0.15905, "lat": 44.360069}}, {"id": 2980570, "name": "Sainte-Gemme-la-Plaine", "state": "", "country": "FR", "coord": {"lon": -1.11321, "lat": 46.482861}}, {"id": 2980581, "name": "Sainte-Gauburge-Sainte-Colombe", "state": "", "country": "FR", "coord": {"lon": 0.43126, "lat": 48.71722}}, {"id": 2980586, "name": "Sainte-Foy-l\u00e8s-Lyon", "state": "", "country": "FR", "coord": {"lon": 4.79688, "lat": 45.736919}}, {"id": 2980587, "name": "Sainte-Foy-l'Argenti\u00e8re", "state": "", "country": "FR", "coord": {"lon": 4.47266, "lat": 45.708321}}, {"id": 2980588, "name": "Sainte-Foy-la-Longue", "state": "", "country": "FR", "coord": {"lon": -0.14487, "lat": 44.610191}}, {"id": 2980590, "name": "Sainte-Foy-de-Peyroli\u00e8res", "state": "", "country": "FR", "coord": {"lon": 1.14476, "lat": 43.492619}}, {"id": 2980593, "name": "Sainte-Foy-de-Belv\u00e8s", "state": "", "country": "FR", "coord": {"lon": 1.03882, "lat": 44.723881}}, {"id": 2980597, "name": "Sainte-Foy", "state": "", "country": "FR", "coord": {"lon": -1.67265, "lat": 46.54488}}, {"id": 2980601, "name": "Sainte-Fortunade", "state": "", "country": "FR", "coord": {"lon": 1.77181, "lat": 45.20805}}, {"id": 2980603, "name": "Sainte-Florine", "state": "", "country": "FR", "coord": {"lon": 3.31995, "lat": 45.40546}}, {"id": 2980606, "name": "Sainte-Flaive-des-Loups", "state": "", "country": "FR", "coord": {"lon": -1.58082, "lat": 46.613029}}, {"id": 2980610, "name": "Sainte-Feyre", "state": "", "country": "FR", "coord": {"lon": 1.91517, "lat": 46.139}}, {"id": 2980611, "name": "Sainte-F\u00e9r\u00e9ole", "state": "", "country": "FR", "coord": {"lon": 1.58278, "lat": 45.228062}}, {"id": 2980616, "name": "Sainte-Euph\u00e9mie", "state": "", "country": "FR", "coord": {"lon": 4.79437, "lat": 45.971958}}, {"id": 2980617, "name": "Sainte-Eulalie-en-Born", "state": "", "country": "FR", "coord": {"lon": -1.18295, "lat": 44.274658}}, {"id": 2980625, "name": "Sainte-Eulalie", "state": "", "country": "FR", "coord": {"lon": -0.47417, "lat": 44.90667}}, {"id": 2980634, "name": "Sainte-Engr\u00e2ce", "state": "", "country": "FR", "coord": {"lon": -0.81239, "lat": 42.996052}}, {"id": 2980636, "name": "Saint-\u00c9gr\u00e8ve", "state": "", "country": "FR", "coord": {"lon": 5.68333, "lat": 45.23333}}, {"id": 2980643, "name": "Sainte-Croix-sur-Mer", "state": "", "country": "FR", "coord": {"lon": -0.51102, "lat": 49.313782}}, {"id": 2980646, "name": "Sainte-Croix-Hague", "state": "", "country": "FR", "coord": {"lon": -1.77285, "lat": 49.638451}}, {"id": 2980647, "name": "Sainte-Croix-Grand-Tonne", "state": "", "country": "FR", "coord": {"lon": -0.56285, "lat": 49.231548}}, {"id": 2980648, "name": "Sainte-Croix-en-Plaine", "state": "", "country": "FR", "coord": {"lon": 7.38556, "lat": 48.008759}}, {"id": 2980653, "name": "Sainte-Croix-de-Saint-L\u00f4", "state": "", "country": "FR", "coord": {"lon": -1.03344, "lat": 49.11919}}, {"id": 2980655, "name": "Sainte-Croix-de-Mareuil", "state": "", "country": "FR", "coord": {"lon": 0.42623, "lat": 45.46452}}, {"id": 2980657, "name": "Sainte-Croix", "state": "", "country": "FR", "coord": {"lon": 0.83333, "lat": 44.73333}}, {"id": 2980658, "name": "Sainte-Croix-aux-Mines", "state": "", "country": "FR", "coord": {"lon": 7.22445, "lat": 48.261238}}, {"id": 2980668, "name": "Sainte-Consorce", "state": "", "country": "FR", "coord": {"lon": 4.69735, "lat": 45.777061}}, {"id": 2980676, "name": "Sainte-Colombe-en-Bruilhois", "state": "", "country": "FR", "coord": {"lon": 0.51572, "lat": 44.178219}}, {"id": 2980684, "name": "Sainte-Colombe", "state": "", "country": "FR", "coord": {"lon": 3.25518, "lat": 48.530472}}, {"id": 2980687, "name": "Sainte-Colombe-en-Auxois", "state": "", "country": "FR", "coord": {"lon": 4.45739, "lat": 47.42643}}, {"id": 2980691, "name": "Sainte-Colombe", "state": "", "country": "FR", "coord": {"lon": 4.86136, "lat": 45.524738}}, {"id": 2980694, "name": "Sainte-Colombe", "state": "", "country": "FR", "coord": {"lon": -0.06667, "lat": 44.866669}}, {"id": 2980711, "name": "Sainte-C\u00e9cile-les-Vignes", "state": "", "country": "FR", "coord": {"lon": 4.8839, "lat": 44.24506}}, {"id": 2980716, "name": "Sainte-C\u00e9cile", "state": "", "country": "FR", "coord": {"lon": -1.11429, "lat": 46.742859}}, {"id": 2980723, "name": "Sainte-Catherine", "state": "", "country": "FR", "coord": {"lon": 2.76404, "lat": 50.307571}}, {"id": 2980735, "name": "Saint-\u00c9bremond-de-Bonfoss\u00e9", "state": "", "country": "FR", "coord": {"lon": -1.15012, "lat": 49.067619}}, {"id": 2980742, "name": "Sainte-Bazeille", "state": "", "country": "FR", "coord": {"lon": 0.0974, "lat": 44.530731}}, {"id": 2980761, "name": "Sainte-Anne-sur-Brivet", "state": "", "country": "FR", "coord": {"lon": -2.00415, "lat": 47.460709}}, {"id": 2980783, "name": "Sainte-Anastasie-sur-Issole", "state": "", "country": "FR", "coord": {"lon": 6.12359, "lat": 43.34211}}, {"id": 2980784, "name": "Sainte-Anastasie", "state": "", "country": "FR", "coord": {"lon": 2.96931, "lat": 45.172329}}, {"id": 2980789, "name": "Sainte-Agn\u00e8s", "state": "", "country": "FR", "coord": {"lon": 7.46595, "lat": 43.799431}}, {"id": 2980795, "name": "Sainte-Adresse", "state": "", "country": "FR", "coord": {"lon": 0.08446, "lat": 49.5089}}, {"id": 2980796, "name": "Saint-Dy\u00e9-sur-Loire", "state": "", "country": "FR", "coord": {"lon": 1.48847, "lat": 47.655949}}, {"id": 2980799, "name": "Saint-Dr\u00e9z\u00e9ry", "state": "", "country": "FR", "coord": {"lon": 3.9762, "lat": 43.729912}}, {"id": 2980801, "name": "Saint-Doulchard", "state": "", "country": "FR", "coord": {"lon": 2.352, "lat": 47.10371}}, {"id": 2980805, "name": "Saint-Donan", "state": "", "country": "FR", "coord": {"lon": -2.88442, "lat": 48.469582}}, {"id": 2980806, "name": "Saint-Domineuc", "state": "", "country": "FR", "coord": {"lon": -1.87544, "lat": 48.37191}}, {"id": 2980808, "name": "Saint-Dolay", "state": "", "country": "FR", "coord": {"lon": -2.15466, "lat": 47.544762}}, {"id": 2980814, "name": "Saint-Dizier-en-Diois", "state": "", "country": "FR", "coord": {"lon": 5.4779, "lat": 44.515591}}, {"id": 2980815, "name": "Arrondissement de Saint-Dizier", "state": "", "country": "FR", "coord": {"lon": 5.08333, "lat": 48.416672}}, {"id": 2980816, "name": "Saint-Dizier", "state": "", "country": "FR", "coord": {"lon": 4.95, "lat": 48.633331}}, {"id": 2980826, "name": "Arrondissement de Saint-Di\u00e9-des-Vosges", "state": "", "country": "FR", "coord": {"lon": 6.91667, "lat": 48.25}}, {"id": 2980827, "name": "Saint-Di\u00e9-des-Vosges", "state": "", "country": "FR", "coord": {"lon": 6.95, "lat": 48.283329}}, {"id": 2980829, "name": "Saint-Didier-sur-Doulon", "state": "", "country": "FR", "coord": {"lon": 3.53956, "lat": 45.30114}}, {"id": 2980830, "name": "Saint-Didier-sur-Chalaronne", "state": "", "country": "FR", "coord": {"lon": 4.81719, "lat": 46.177509}}, {"id": 2980833, "name": "Saint-Didier-sous-Riverie", "state": "", "country": "FR", "coord": {"lon": 4.6065, "lat": 45.59626}}, {"id": 2980834, "name": "Saint-Didier-sous-\u00c9couves", "state": "", "country": "FR", "coord": {"lon": -0.03648, "lat": 48.536621}}, {"id": 2980836, "name": "Saint-Didier-en-Velay", "state": "", "country": "FR", "coord": {"lon": 4.27561, "lat": 45.302341}}, {"id": 2980838, "name": "Saint-Didier-en-Donjon", "state": "", "country": "FR", "coord": {"lon": 3.85969, "lat": 46.388088}}, {"id": 2980843, "name": "Saint-Didier-de-la-Tour", "state": "", "country": "FR", "coord": {"lon": 5.48314, "lat": 45.555481}}, {"id": 2980844, "name": "Saint-Didier-de-Formans", "state": "", "country": "FR", "coord": {"lon": 4.78485, "lat": 45.953609}}, {"id": 2980849, "name": "Saint-Didier", "state": "", "country": "FR", "coord": {"lon": -1.37276, "lat": 48.095058}}, {"id": 2980856, "name": "Saint-Didier", "state": "", "country": "FR", "coord": {"lon": 5.11053, "lat": 44.004238}}, {"id": 2980859, "name": "Saint-D\u00e9sir\u00e9", "state": "", "country": "FR", "coord": {"lon": 2.43105, "lat": 46.498291}}, {"id": 2980861, "name": "Saint-D\u00e9sir", "state": "", "country": "FR", "coord": {"lon": 0.21398, "lat": 49.14056}}, {"id": 2980868, "name": "Saint-Denis-sur-Sarthon", "state": "", "country": "FR", "coord": {"lon": -0.0472, "lat": 48.453201}}, {"id": 2980871, "name": "Saint-Denis-sur-Huisne", "state": "", "country": "FR", "coord": {"lon": 0.54332, "lat": 48.469471}}, {"id": 2980875, "name": "Saint-Denis-le-V\u00eatu", "state": "", "country": "FR", "coord": {"lon": -1.40381, "lat": 48.986431}}, {"id": 2980878, "name": "Saint-Denis-les-Ponts", "state": "", "country": "FR", "coord": {"lon": 1.29764, "lat": 48.066921}}, {"id": 2980880, "name": "Saint-Denis-l\u00e8s-Bourg", "state": "", "country": "FR", "coord": {"lon": 5.18924, "lat": 46.202171}}, {"id": 2980881, "name": "Saint-Denis-le-Gast", "state": "", "country": "FR", "coord": {"lon": -1.32929, "lat": 48.940239}}, {"id": 2980883, "name": "Saint-Denis-la-Chevasse", "state": "", "country": "FR", "coord": {"lon": -1.3575, "lat": 46.822731}}, {"id": 2980885, "name": "Saint-Denis-en-Val", "state": "", "country": "FR", "coord": {"lon": 1.96601, "lat": 47.873211}}, {"id": 2980886, "name": "Saint-Denis-en-Bugey", "state": "", "country": "FR", "coord": {"lon": 5.32808, "lat": 45.948898}},