[{"id": 2998105, "name": "Lisses", "state": "", "country": "FR", "coord": {"lon": 2.42246, "lat": 48.602219}}, {"id": 2998119, "name": "Lisores", "state": "", "country": "FR", "coord": {"lon": 0.20234, "lat": 48.960918}}, {"id": 2998121, "name": "Lison", "state": "", "country": "FR", "coord": {"lon": -1.0456, "lat": 49.247742}}, {"id": 2998124, "name": "Lisle-sur-Tarn", "state": "", "country": "FR", "coord": {"lon": 1.81098, "lat": 43.852501}}, {"id": 2998127, "name": "L'Isle-sur-la-Sorgue", "state": "", "country": "FR", "coord": {"lon": 5.05092, "lat": 43.919151}}, {"id": 2998136, "name": "L'Isle-d'Abeau", "state": "", "country": "FR", "coord": {"lon": 5.23546, "lat": 45.61813}}, {"id": 2998140, "name": "L'Isle-Adam", "state": "", "country": "FR", "coord": {"lon": 2.22818, "lat": 49.107441}}, {"id": 2998149, "name": "Arrondissement de Lisieux", "state": "", "country": "FR", "coord": {"lon": 0.16667, "lat": 49.166672}}, {"id": 2998150, "name": "Lisieux", "state": "", "country": "FR", "coord": {"lon": 0.22925, "lat": 49.146599}}, {"id": 2998165, "name": "Lir\u00e9", "state": "", "country": "FR", "coord": {"lon": -1.16536, "lat": 47.34322}}, {"id": 2998167, "name": "Lipsheim", "state": "", "country": "FR", "coord": {"lon": 7.66751, "lat": 48.491638}}, {"id": 2998168, "name": "Liposthey", "state": "", "country": "FR", "coord": {"lon": -0.87822, "lat": 44.317181}}, {"id": 2998178, "name": "Liournat", "state": "", "country": "FR", "coord": {"lon": 2.70154, "lat": 45.58252}}, {"id": 2998186, "name": "Liorac-sur-Louyre", "state": "", "country": "FR", "coord": {"lon": 0.65, "lat": 44.900002}}, {"id": 2998187, "name": "Lion-sur-Mer", "state": "", "country": "FR", "coord": {"lon": -0.32157, "lat": 49.300179}}, {"id": 2998202, "name": "Linxe", "state": "", "country": "FR", "coord": {"lon": -1.24619, "lat": 43.919842}}, {"id": 2998209, "name": "Linselles", "state": "", "country": "FR", "coord": {"lon": 3.07878, "lat": 50.73708}}, {"id": 2998221, "name": "Linguizzetta", "state": "", "country": "FR", "coord": {"lon": 9.47333, "lat": 42.260239}}, {"id": 2998222, "name": "Lingreville", "state": "", "country": "FR", "coord": {"lon": -1.52727, "lat": 48.951141}}, {"id": 2998224, "name": "Lingolsheim", "state": "", "country": "FR", "coord": {"lon": 7.68253, "lat": 48.557522}}, {"id": 2998229, "name": "Lingeard", "state": "", "country": "FR", "coord": {"lon": -1.02571, "lat": 48.73851}}, {"id": 2998251, "name": "Linas", "state": "", "country": "FR", "coord": {"lon": 2.26266, "lat": 48.630409}}, {"id": 2998252, "name": "Linars", "state": "", "country": "FR", "coord": {"lon": 0.08333, "lat": 45.650002}}, {"id": 2998253, "name": "Linards", "state": "", "country": "FR", "coord": {"lon": 1.53259, "lat": 45.700821}}, {"id": 2998262, "name": "Arrondissement de Limoux", "state": "", "country": "FR", "coord": {"lon": 2.16667, "lat": 42.916672}}, {"id": 2998264, "name": "Limoux", "state": "", "country": "FR", "coord": {"lon": 2.22173, "lat": 43.054871}}, {"id": 2998268, "name": "Limousin", "state": "", "country": "FR", "coord": {"lon": 1.83333, "lat": 45.5}}, {"id": 2998269, "name": "Limours", "state": "", "country": "FR", "coord": {"lon": 2.07688, "lat": 48.646252}}, {"id": 2998276, "name": "Limons", "state": "", "country": "FR", "coord": {"lon": 3.44379, "lat": 45.973701}}, {"id": 2998277, "name": "Limonest", "state": "", "country": "FR", "coord": {"lon": 4.7718, "lat": 45.83744}}, {"id": 2998285, "name": "Arrondissement de Limoges", "state": "", "country": "FR", "coord": {"lon": 1.33333, "lat": 45.75}}, {"id": 2998286, "name": "Limoges", "state": "", "country": "FR", "coord": {"lon": 1.2578, "lat": 45.831532}}, {"id": 2998293, "name": "Limeuil", "state": "", "country": "FR", "coord": {"lon": 1.2681, "lat": 44.7966}}, {"id": 2998294, "name": "Limetz-Villez", "state": "", "country": "FR", "coord": {"lon": 1.55, "lat": 49.066669}}, {"id": 2998296, "name": "Lim\u00e9sy", "state": "", "country": "FR", "coord": {"lon": 0.92483, "lat": 49.612709}}, {"id": 2998298, "name": "Limerzel", "state": "", "country": "FR", "coord": {"lon": -2.35448, "lat": 47.636189}}, {"id": 2998302, "name": "Limendous", "state": "", "country": "FR", "coord": {"lon": -0.18333, "lat": 43.283329}}, {"id": 2998305, "name": "Limeil-Br\u00e9vannes", "state": "", "country": "FR", "coord": {"lon": 2.48705, "lat": 48.744801}}, {"id": 2998311, "name": "Limay", "state": "", "country": "FR", "coord": {"lon": 1.74081, "lat": 48.995529}}, {"id": 2998312, "name": "Limas", "state": "", "country": "FR", "coord": {"lon": 4.70292, "lat": 45.978958}}, {"id": 2998320, "name": "Lillers", "state": "", "country": "FR", "coord": {"lon": 2.48042, "lat": 50.56345}}, {"id": 2998322, "name": "Lillebonne", "state": "", "country": "FR", "coord": {"lon": 0.53617, "lat": 49.520302}}, {"id": 2998323, "name": "Arrondissement de Lille", "state": "", "country": "FR", "coord": {"lon": 3.08333, "lat": 50.583328}}, {"id": 2998324, "name": "Lille", "state": "", "country": "FR", "coord": {"lon": 3.05858, "lat": 50.632969}}, {"id": 2998330, "name": "L'\u00cele-Rousse", "state": "", "country": "FR", "coord": {"lon": 8.93764, "lat": 42.633709}}, {"id": 2998340, "name": "Ligug\u00e9", "state": "", "country": "FR", "coord": {"lon": 0.32617, "lat": 46.520351}}, {"id": 2998342, "name": "Ligueux", "state": "", "country": "FR", "coord": {"lon": 0.26877, "lat": 44.78656}}, {"id": 2998343, "name": "Ligueil", "state": "", "country": "FR", "coord": {"lon": 0.81893, "lat": 47.042099}}, {"id": 2998347, "name": "Ligr\u00e9", "state": "", "country": "FR", "coord": {"lon": 0.27562, "lat": 47.111851}}, {"id": 2998354, "name": "Ligny-Thilloy", "state": "", "country": "FR", "coord": {"lon": 2.82232, "lat": 50.084999}}, {"id": 2998358, "name": "Ligny-le-Ribault", "state": "", "country": "FR", "coord": {"lon": 1.78152, "lat": 47.684189}}, {"id": 2998359, "name": "Ligny-le-Ch\u00e2tel", "state": "", "country": "FR", "coord": {"lon": 3.7576, "lat": 47.900219}}, {"id": 2998360, "name": "Ligny-en-Cambr\u00e9sis", "state": "", "country": "FR", "coord": {"lon": 3.37841, "lat": 50.101231}}, {"id": 2998362, "name": "Ligny-en-Barrois", "state": "", "country": "FR", "coord": {"lon": 5.32543, "lat": 48.68861}}, {"id": 2998386, "name": "Ligni\u00e8res", "state": "", "country": "FR", "coord": {"lon": 2.1738, "lat": 46.751518}}, {"id": 2998387, "name": "Ligni", "state": "", "country": "FR", "coord": {"lon": 0.5455, "lat": 48.552029}}, {"id": 2998404, "name": "Lign\u00e9", "state": "", "country": "FR", "coord": {"lon": -1.37726, "lat": 47.410961}}, {"id": 2998406, "name": "Lignat", "state": "", "country": "FR", "coord": {"lon": 3.24536, "lat": 45.8414}}, {"id": 2998407, "name": "Lignat", "state": "", "country": "FR", "coord": {"lon": 3.26059, "lat": 45.713879}}, {"id": 2998409, "name": "Lignan-sur-Orb", "state": "", "country": "FR", "coord": {"lon": 3.16891, "lat": 43.384621}}, {"id": 2998410, "name": "Lignan-de-Bordeaux", "state": "", "country": "FR", "coord": {"lon": -0.42774, "lat": 44.796661}}, {"id": 2998411, "name": "Lignan-de-Bazas", "state": "", "country": "FR", "coord": {"lon": -0.27791, "lat": 44.433231}}, {"id": 2998423, "name": "Liffr\u00e9", "state": "", "country": "FR", "coord": {"lon": -1.50838, "lat": 48.213242}}, {"id": 2998425, "name": "Liffol-le-Grand", "state": "", "country": "FR", "coord": {"lon": 5.58125, "lat": 48.317711}}, {"id": 2998431, "name": "Li\u00e9vin", "state": "", "country": "FR", "coord": {"lon": 2.78068, "lat": 50.4198}}, {"id": 2998437, "name": "Lieu-Saint-Amand", "state": "", "country": "FR", "coord": {"lon": 3.34624, "lat": 50.273178}}, {"id": 2998439, "name": "Lieusaint", "state": "", "country": "FR", "coord": {"lon": 2.54806, "lat": 48.634762}}, {"id": 2998440, "name": "Lieury", "state": "", "country": "FR", "coord": {"lon": -0.01835, "lat": 48.989799}}, {"id": 2998443, "name": "Lieurey", "state": "", "country": "FR", "coord": {"lon": 0.49879, "lat": 49.23019}}, {"id": 2998445, "name": "Lieuran-l\u00e8s-B\u00e9ziers", "state": "", "country": "FR", "coord": {"lon": 3.23719, "lat": 43.418598}}, {"id": 2998457, "name": "Liesville-sur-Douve", "state": "", "country": "FR", "coord": {"lon": -1.33738, "lat": 49.356071}}, {"id": 2998460, "name": "Liesse-Notre-Dame", "state": "", "country": "FR", "coord": {"lon": 3.8, "lat": 49.616669}}, {"id": 2998465, "name": "Liers", "state": "", "country": "FR", "coord": {"lon": 2.34408, "lat": 48.626869}}, {"id": 2998467, "name": "Liernolles", "state": "", "country": "FR", "coord": {"lon": 3.75224, "lat": 46.39476}}, {"id": 2998469, "name": "Liergues", "state": "", "country": "FR", "coord": {"lon": 4.66231, "lat": 45.971378}}, {"id": 2998474, "name": "Li\u00e8pvre", "state": "", "country": "FR", "coord": {"lon": 7.28414, "lat": 48.270359}}, {"id": 2998482, "name": "Liederschiedt", "state": "", "country": "FR", "coord": {"lon": 7.49671, "lat": 49.122139}}, {"id": 2998492, "name": "Licques", "state": "", "country": "FR", "coord": {"lon": 1.93844, "lat": 50.784161}}, {"id": 2998493, "name": "Licq", "state": "", "country": "FR", "coord": {"lon": -0.87874, "lat": 43.06686}}, {"id": 2998498, "name": "Lichos", "state": "", "country": "FR", "coord": {"lon": -0.87812, "lat": 43.305511}}, {"id": 2998516, "name": "Arrondissement de Libourne", "state": "", "country": "FR", "coord": {"lon": -0.25, "lat": 44.916672}}, {"id": 2998517, "name": "Libourne", "state": "", "country": "FR", "coord": {"lon": -0.23333, "lat": 44.916672}}, {"id": 2998520, "name": "Libercourt", "state": "", "country": "FR", "coord": {"lon": 3.01584, "lat": 50.483219}}, {"id": 2998532, "name": "Liancourt", "state": "", "country": "FR", "coord": {"lon": 2.46595, "lat": 49.330341}}, {"id": 2998551, "name": "L'H\u00f4tellerie", "state": "", "country": "FR", "coord": {"lon": 0.4084, "lat": 49.142021}}, {"id": 2998554, "name": "L'Hospitalet-pr\u00e8s-l'Andorre", "state": "", "country": "FR", "coord": {"lon": 1.79931, "lat": 42.589142}}, {"id": 2998574, "name": "H\u00f4pital-Camfrout", "state": "", "country": "FR", "coord": {"lon": -4.24155, "lat": 48.327888}}, {"id": 2998583, "name": "L'H\u00f4pital", "state": "", "country": "FR", "coord": {"lon": 0.4432, "lat": 45.190769}}, {"id": 2998597, "name": "L'H\u00f4me-Chamondot", "state": "", "country": "FR", "coord": {"lon": 0.71239, "lat": 48.587799}}, {"id": 2998605, "name": "L'Hermiti\u00e8re", "state": "", "country": "FR", "coord": {"lon": 0.64487, "lat": 48.281879}}, {"id": 2998622, "name": "Lherm", "state": "", "country": "FR", "coord": {"lon": 1.22239, "lat": 43.431271}}, {"id": 2998628, "name": "L'Herbe", "state": "", "country": "FR", "coord": {"lon": -1.23637, "lat": 44.692242}}, {"id": 2998632, "name": "L'Ha\u00ff-les-Roses", "state": "", "country": "FR", "coord": {"lon": 2.33333, "lat": 48.783329}}, {"id": 2998639, "name": "Lezoux", "state": "", "country": "FR", "coord": {"lon": 3.37924, "lat": 45.826889}}, {"id": 2998641, "name": "L\u00e9zigneux", "state": "", "country": "FR", "coord": {"lon": 4.06524, "lat": 45.567051}}, {"id": 2998643, "name": "L\u00e9zignan-la-C\u00e8be", "state": "", "country": "FR", "coord": {"lon": 3.43708, "lat": 43.493679}}, {"id": 2998644, "name": "L\u00e9zignan-Corbi\u00e8res", "state": "", "country": "FR", "coord": {"lon": 2.76142, "lat": 43.197639}}, {"id": 2998654, "name": "Lezennes", "state": "", "country": "FR", "coord": {"lon": 3.11354, "lat": 50.615528}}, {"id": 2998660, "name": "Lezay", "state": "", "country": "FR", "coord": {"lon": -0.00925, "lat": 46.26437}}, {"id": 2998661, "name": "L\u00e9zat-sur-L\u00e8ze", "state": "", "country": "FR", "coord": {"lon": 1.34686, "lat": 43.27734}}, {"id": 2998663, "name": "L\u00e9zardrieux", "state": "", "country": "FR", "coord": {"lon": -3.10588, "lat": 48.785099}}, {"id": 2998666, "name": "L\u00e9zan", "state": "", "country": "FR", "coord": {"lon": 4.05, "lat": 44.01667}}, {"id": 2998696, "name": "Leyment", "state": "", "country": "FR", "coord": {"lon": 5.29479, "lat": 45.922939}}, {"id": 2998697, "name": "Leymen", "state": "", "country": "FR", "coord": {"lon": 7.48426, "lat": 47.49522}}, {"id": 2998698, "name": "Leyme", "state": "", "country": "FR", "coord": {"lon": 1.89897, "lat": 44.786221}}, {"id": 2998709, "name": "Lexy", "state": "", "country": "FR", "coord": {"lon": 5.7338, "lat": 49.503559}}, {"id": 2998714, "name": "Lewarde", "state": "", "country": "FR", "coord": {"lon": 3.16782, "lat": 50.341728}}, {"id": 2998718, "name": "Levroux", "state": "", "country": "FR", "coord": {"lon": 1.61243, "lat": 46.9786}}, {"id": 2998721, "name": "Le Vr\u00e9tot", "state": "", "country": "FR", "coord": {"lon": -1.71048, "lat": 49.451672}}, {"id": 2998731, "name": "Le Vivier-sur-Mer", "state": "", "country": "FR", "coord": {"lon": -1.77302, "lat": 48.601688}}, {"id": 2998732, "name": "Viviers-du-Lac", "state": "", "country": "FR", "coord": {"lon": 5.9, "lat": 45.650002}}, {"id": 2998738, "name": "L\u00e9vis-Saint-Nom", "state": "", "country": "FR", "coord": {"lon": 1.95, "lat": 48.716671}}, {"id": 2998763, "name": "Le Villard", "state": "", "country": "FR", "coord": {"lon": 6.19909, "lat": 45.581059}}, {"id": 2998794, "name": "Le Vilhain", "state": "", "country": "FR", "coord": {"lon": 2.79724, "lat": 46.561722}}, {"id": 2998799, "name": "Le Vignau", "state": "", "country": "FR", "coord": {"lon": -0.29055, "lat": 43.771599}}, {"id": 2998803, "name": "L\u00e9vignac", "state": "", "country": "FR", "coord": {"lon": 1.2, "lat": 43.666672}}, {"id": 2998804, "name": "L\u00e9vignacq", "state": "", "country": "FR", "coord": {"lon": -1.1673, "lat": 44.005161}}, {"id": 2998805, "name": "L\u00e9vignac-de-Guyenne", "state": "", "country": "FR", "coord": {"lon": 0.19986, "lat": 44.62846}}, {"id": 2998807, "name": "Le Vigen", "state": "", "country": "FR", "coord": {"lon": 1.28865, "lat": 45.751492}}, {"id": 2998809, "name": "Le Vigean", "state": "", "country": "FR", "coord": {"lon": 2.35356, "lat": 45.22691}}, {"id": 2998810, "name": "Le Vigan", "state": "", "country": "FR", "coord": {"lon": 1.43963, "lat": 44.740749}}, {"id": 2998811, "name": "Le Vigan", "state": "", "country": "FR", "coord": {"lon": 3.6, "lat": 43.98333}}, {"id": 2998821, "name": "Le Vieux Bourg", "state": "", "country": "FR", "coord": {"lon": 0.19331, "lat": 48.664719}}, {"id": 2998830, "name": "Levier", "state": "", "country": "FR", "coord": {"lon": 6.12059, "lat": 46.953018}}, {"id": 2998834, "name": "Le Vieil-Baug\u00e9", "state": "", "country": "FR", "coord": {"lon": -0.11888, "lat": 47.531929}}, {"id": 2998840, "name": "Le Vialles", "state": "", "country": "FR", "coord": {"lon": 3.78761, "lat": 45.195549}}, {"id": 2998848, "name": "Le Vey", "state": "", "country": "FR", "coord": {"lon": -0.47132, "lat": 48.9184}}, {"id": 2998851, "name": "Levet", "state": "", "country": "FR", "coord": {"lon": 2.40732, "lat": 46.926048}}, {"id": 2998854, "name": "Le V\u00e9sinet", "state": "", "country": "FR", "coord": {"lon": 2.13308, "lat": 48.892811}}, {"id": 2998856, "name": "L\u00e8ves", "state": "", "country": "FR", "coord": {"lon": 1.48194, "lat": 48.47065}}, {"id": 2998858, "name": "Le Vert", "state": "", "country": "FR", "coord": {"lon": 3.45918, "lat": 45.68829}}, {"id": 2998862, "name": "Le Versoud", "state": "", "country": "FR", "coord": {"lon": 5.85815, "lat": 45.21386}}, {"id": 2998879, "name": "Vernet", "state": "", "country": "FR", "coord": {"lon": 1.41667, "lat": 43.433331}}, {"id": 2998900, "name": "Le Verdon-sur-Mer", "state": "", "country": "FR", "coord": {"lon": -1.06225, "lat": 45.544899}}, {"id": 2998917, "name": "Levens", "state": "", "country": "FR", "coord": {"lon": 7.22653, "lat": 43.860432}}, {"id": 2998932, "name": "Le Vaulmier", "state": "", "country": "FR", "coord": {"lon": 2.56667, "lat": 45.200001}}, {"id": 2998933, "name": "Le Vaudreuil", "state": "", "country": "FR", "coord": {"lon": 1.2096, "lat": 49.25407}}, {"id": 2998945, "name": "Le Vast", "state": "", "country": "FR", "coord": {"lon": -1.3578, "lat": 49.62233}}, {"id": 2998963, "name": "Le Val-Saint-P\u00e8re", "state": "", "country": "FR", "coord": {"lon": -1.37653, "lat": 48.661758}}, {"id": 2998965, "name": "Le Val-Saint-Germain", "state": "", "country": "FR", "coord": {"lon": 2.06471, "lat": 48.56601}}, {"id": 2998975, "name": "Levallois-Perret", "state": "", "country": "FR", "coord": {"lon": 2.28864, "lat": 48.89389}}, {"id": 2998992, "name": "Le Vald\u00e9cie", "state": "", "country": "FR", "coord": {"lon": -1.65, "lat": 49.416672}}, {"id": 2998998, "name": "Valdahon", "state": "", "country": "FR", "coord": {"lon": 6.35, "lat": 47.150002}}, {"id": 2999002, "name": "Leval", "state": "", "country": "FR", "coord": {"lon": 3.83093, "lat": 50.181061}}, {"id": 2999012, "name": "Le Val", "state": "", "country": "FR", "coord": {"lon": 6.07295, "lat": 43.438648}}, {"id": 2999018, "name": "Le Leuy", "state": "", "country": "FR", "coord": {"lon": -0.65, "lat": 43.816669}}, {"id": 2999020, "name": "Leuville-sur-Orge", "state": "", "country": "FR", "coord": {"lon": 2.26685, "lat": 48.617298}}, {"id": 2999040, "name": "Leudeville", "state": "", "country": "FR", "coord": {"lon": 2.32676, "lat": 48.565899}}, {"id": 2999046, "name": "Leucate", "state": "", "country": "FR", "coord": {"lon": 3.02944, "lat": 42.910561}}, {"id": 2999051, "name": "Le Tuzan", "state": "", "country": "FR", "coord": {"lon": -0.5768, "lat": 44.450359}}, {"id": 2999068, "name": "Le Tronquay", "state": "", "country": "FR", "coord": {"lon": -0.82003, "lat": 49.225731}}, {"id": 2999086, "name": "Le Triadoux", "state": "", "country": "FR", "coord": {"lon": 2.6231, "lat": 45.834179}}, {"id": 2999089, "name": "Le Tr\u00e9voux", "state": "", "country": "FR", "coord": {"lon": -3.6408, "lat": 47.894779}}, {"id": 2999093, "name": "Le Tr\u00e9port", "state": "", "country": "FR", "coord": {"lon": 1.37583, "lat": 50.059792}}, {"id": 2999109, "name": "Le Tremblay", "state": "", "country": "FR", "coord": {"lon": 5.86667, "lat": 45.633331}}, {"id": 2999126, "name": "Le Trait", "state": "", "country": "FR", "coord": {"lon": 0.81634, "lat": 49.468948}}, {"id": 2999131, "name": "Le Touvet", "state": "", "country": "FR", "coord": {"lon": 5.94889, "lat": 45.358089}}, {"id": 2999133, "name": "Le Tourneur", "state": "", "country": "FR", "coord": {"lon": -0.81951, "lat": 48.963821}}, {"id": 2999139, "name": "Le Touquet-Paris-Plage", "state": "", "country": "FR", "coord": {"lon": 1.58571, "lat": 50.524319}}, {"id": 2999145, "name": "Le Torquesne", "state": "", "country": "FR", "coord": {"lon": 0.16637, "lat": 49.21756}}, {"id": 2999163, "name": "Le Tignet", "state": "", "country": "FR", "coord": {"lon": 6.84173, "lat": 43.63887}}, {"id": 2999170, "name": "Le Thuit-Signol", "state": "", "country": "FR", "coord": {"lon": 0.9391, "lat": 49.26487}}, {"id": 2999178, "name": "Le Thou", "state": "", "country": "FR", "coord": {"lon": -0.91667, "lat": 46.083328}}, {"id": 2999179, "name": "Le Thoronet", "state": "", "country": "FR", "coord": {"lon": 6.30343, "lat": 43.452572}}, {"id": 2999180, "name": "Le Thor", "state": "", "country": "FR", "coord": {"lon": 4.99543, "lat": 43.929428}}, {"id": 2999181, "name": "Le Tholy", "state": "", "country": "FR", "coord": {"lon": 6.74351, "lat": 48.082291}}, {"id": 2999182, "name": "Le Tholonet", "state": "", "country": "FR", "coord": {"lon": 5.51115, "lat": 43.521759}}, {"id": 2999185, "name": "Le Thillot", "state": "", "country": "FR", "coord": {"lon": 6.7628, "lat": 47.87941}}, {"id": 2999186, "name": "Le Thillay", "state": "", "country": "FR", "coord": {"lon": 2.47218, "lat": 49.006592}}, {"id": 2999198, "name": "Le Theil", "state": "", "country": "FR", "coord": {"lon": 0.7, "lat": 48.26667}}, {"id": 2999203, "name": "Le Theil-de-Bretagne", "state": "", "country": "FR", "coord": {"lon": -1.42975, "lat": 47.919498}}, {"id": 2999205, "name": "Le Theil-Bocage", "state": "", "country": "FR", "coord": {"lon": -0.71667, "lat": 48.883331}}, {"id": 2999218, "name": "Le Theil", "state": "", "country": "FR", "coord": {"lon": 3.39655, "lat": 45.56559}}, {"id": 2999236, "name": "Le Temple-de-Bretagne", "state": "", "country": "FR", "coord": {"lon": -1.78904, "lat": 47.32737}}, {"id": 2999251, "name": "Le Teilleul", "state": "", "country": "FR", "coord": {"lon": -0.87304, "lat": 48.537579}}, {"id": 2999258, "name": "Le Teil", "state": "", "country": "FR", "coord": {"lon": 1.33282, "lat": 45.029099}}, {"id": 2999259, "name": "Le Teil", "state": "", "country": "FR", "coord": {"lon": 4.68165, "lat": 44.546791}}, {"id": 2999260, "name": "Le Teich", "state": "", "country": "FR", "coord": {"lon": -1.02155, "lat": 44.631771}}, {"id": 2999262, "name": "el Tec", "state": "", "country": "FR", "coord": {"lon": 2.54346, "lat": 42.410339}}, {"id": 2999290, "name": "Le Tallud", "state": "", "country": "FR", "coord": {"lon": -0.29978, "lat": 46.629108}}, {"id": 2999296, "name": "Le Taillan-M\u00e9doc", "state": "", "country": "FR", "coord": {"lon": -0.6706, "lat": 44.905201}}, {"id": 2999303, "name": "Le Syndicat", "state": "", "country": "FR", "coord": {"lon": 6.68436, "lat": 48.01733}}, {"id": 2999311, "name": "Les Vivas", "state": "", "country": "FR", "coord": {"lon": 4.09077, "lat": 45.25053}}, {"id": 2999316, "name": "Les Vincents", "state": "", "country": "FR", "coord": {"lon": 2.56667, "lat": 46.166672}}, {"id": 2999319, "name": "Les Villettes", "state": "", "country": "FR", "coord": {"lon": 4.18335, "lat": 45.234871}}, {"id": 2999331, "name": "Les Vignes", "state": "", "country": "FR", "coord": {"lon": 3.58086, "lat": 45.82584}}, {"id": 2999391, "name": "Les Vans", "state": "", "country": "FR", "coord": {"lon": 4.13471, "lat": 44.406189}}, {"id": 2999440, "name": "Les Trillers", "state": "", "country": "FR", "coord": {"lon": 2.59905, "lat": 46.414761}}, {"id": 2999446, "name": "Lestrem", "state": "", "country": "FR", "coord": {"lon": 2.68646, "lat": 50.619869}}, {"id": 2999453, "name": "Lestre", "state": "", "country": "FR", "coord": {"lon": -1.33547, "lat": 49.52597}}, {"id": 2999485, "name": "Les Touches", "state": "", "country": "FR", "coord": {"lon": -1.43097, "lat": 47.44249}}, {"id": 2999489, "name": "Lestomble", "state": "", "country": "FR", "coord": {"lon": 2.73187, "lat": 45.627998}}, {"id": 2999498, "name": "Lestiac-sur-Garonne", "state": "", "country": "FR", "coord": {"lon": -0.37441, "lat": 44.694279}}, {"id": 2999520, "name": "Les Ternes", "state": "", "country": "FR", "coord": {"lon": 3.06667, "lat": 46.5}}, {"id": 2999523, "name": "Les Termes", "state": "", "country": "FR", "coord": {"lon": 6.93333, "lat": 43.549999}}, {"id": 2999528, "name": "Lestelle-B\u00e9tharram", "state": "", "country": "FR", "coord": {"lon": -0.21667, "lat": 43.133331}}, {"id": 2999543, "name": "Les Tardes", "state": "", "country": "FR", "coord": {"lon": 2.80203, "lat": 46.68483}}, {"id": 2999558, "name": "Les Taillas", "state": "", "country": "FR", "coord": {"lon": 4.25533, "lat": 45.257111}}, {"id": 2999572, "name": "Les Sorini\u00e8res", "state": "", "country": "FR", "coord": {"lon": -1.52932, "lat": 47.148312}}, {"id": 2999619, "name": "Lessay", "state": "", "country": "FR", "coord": {"lon": -1.53089, "lat": 49.21703}}, {"id": 2999634, "name": "Les Sarraix", "state": "", "country": "FR", "coord": {"lon": 3.64042, "lat": 45.884441}}, {"id": 2999637, "name": "Lessard-et-le-Ch\u00eane", "state": "", "country": "FR", "coord": {"lon": 0.11907, "lat": 49.072418}}, {"id": 2999649, "name": "Les Salles-du-Gardon", "state": "", "country": "FR", "coord": {"lon": 4.03689, "lat": 44.207901}}, {"id": 2999657, "name": "Les Salles", "state": "", "country": "FR", "coord": {"lon": 3.6751, "lat": 45.29488}}, {"id": 2999683, "name": "Les Sables-d'Olonne", "state": "", "country": "FR", "coord": {"lon": -1.78333, "lat": 46.5}}, {"id": 2999696, "name": "Les Ruches", "state": "", "country": "FR", "coord": {"lon": 4.25672, "lat": 45.068329}}, {"id": 2999706, "name": "Les Rousses", "state": "", "country": "FR", "coord": {"lon": 6.0633, "lat": 46.484119}}, {"id": 2999725, "name": "Les Rosiers-sur-Loire", "state": "", "country": "FR", "coord": {"lon": -0.21667, "lat": 47.349998}}, {"id": 2999742, "name": "Les Roches-de-Condrieu", "state": "", "country": "FR", "coord": {"lon": 4.76738, "lat": 45.451069}}, {"id": 2999773, "name": "Les Rioux", "state": "", "country": "FR", "coord": {"lon": 2.82637, "lat": 45.887501}}, {"id": 2999784, "name": "Les Richards", "state": "", "country": "FR", "coord": {"lon": 3.33691, "lat": 46.277699}}, {"id": 2999787, "name": "Les Riceys", "state": "", "country": "FR", "coord": {"lon": 4.36986, "lat": 47.9939}}, {"id": 2999789, "name": "Les Ribiers", "state": "", "country": "FR", "coord": {"lon": 3.15818, "lat": 46.33696}}, {"id": 2999796, "name": "Les Reynards", "state": "", "country": "FR", "coord": {"lon": 3.48333, "lat": 45.716671}}, {"id": 2999838, "name": "Lesquin", "state": "", "country": "FR", "coord": {"lon": 3.119, "lat": 50.582321}}, {"id": 2999852, "name": "Les Quatre Chemins", "state": "", "country": "FR", "coord": {"lon": 5.9, "lat": 43.150002}}, {"id": 2999885, "name": "Les Pradeaux", "state": "", "country": "FR", "coord": {"lon": 3.83894, "lat": 45.526329}}, {"id": 2999891, "name": "Les Pourpres", "state": "", "country": "FR", "coord": {"lon": 6.06667, "lat": 43.150002}}, {"id": 2999892, "name": "Lespourcy", "state": "", "country": "FR", "coord": {"lon": -0.15, "lat": 43.366669}}, {"id": 2999908, "name": "Les Ponts-de-C\u00e9", "state": "", "country": "FR", "coord": {"lon": -0.52477, "lat": 47.423149}}, {"id": 2999917, "name": "Les Poligrannes", "state": "", "country": "FR", "coord": {"lon": 0.71589, "lat": 45.113178}}, {"id": 2999976, "name": "Lespinasse", "state": "", "country": "FR", "coord": {"lon": 1.38462, "lat": 43.712059}}, {"id": 2999981, "name": "Lespignan", "state": "", "country": "FR", "coord": {"lon": 3.17224, "lat": 43.273659}}, {"id": 2999982, "name": "Les Pieux", "state": "", "country": "FR", "coord": {"lon": -1.80714, "lat": 49.512859}}, {"id": 3000032, "name": "Les Perques", "state": "", "country": "FR", "coord": {"lon": -1.65846, "lat": 49.445839}}, {"id": 3000043, "name": "Les P\u00e9rards", "state": "", "country": "FR", "coord": {"lon": 3.40801, "lat": 46.694191}}, {"id": 3000047, "name": "Les Pennes-Mirabeau", "state": "", "country": "FR", "coord": {"lon": 5.31306, "lat": 43.410278}}, {"id": 3000052, "name": "Les Peintures", "state": "", "country": "FR", "coord": {"lon": -0.1, "lat": 45.066669}}, {"id": 3000060, "name": "Les Pavillons-sous-Bois", "state": "", "country": "FR", "coord": {"lon": 2.50648, "lat": 48.90683}}, {"id": 3000071, "name": "Arrondissement de Lesparre-M\u00e9doc", "state": "", "country": "FR", "coord": {"lon": -1.0, "lat": 45.333328}}, {"id": 3000072, "name": "Lesparre-M\u00e9doc", "state": "", "country": "FR", "coord": {"lon": -0.93333, "lat": 45.299999}}, {"id": 3000080, "name": "Les Pampoux", "state": "", "country": "FR", "coord": {"lon": 2.41667, "lat": 48.683331}}, {"id": 3000090, "name": "Le Sourn", "state": "", "country": "FR", "coord": {"lon": -2.9879, "lat": 48.042622}}, {"id": 3000098, "name": "Le Soul", "state": "", "country": "FR", "coord": {"lon": 3.12835, "lat": 45.135921}}, {"id": 3000120, "name": "Les Ormes", "state": "", "country": "FR", "coord": {"lon": 0.60484, "lat": 46.974781}}, {"id": 3000139, "name": "Le Soler", "state": "", "country": "FR", "coord": {"lon": 2.79335, "lat": 42.681011}}, {"id": 3000165, "name": "Les No\u00ebs-pr\u00e8s-Troyes", "state": "", "country": "FR", "coord": {"lon": 4.04552, "lat": 48.303581}}, {"id": 3000174, "name": "Lesneven", "state": "", "country": "FR", "coord": {"lon": -4.32133, "lat": 48.57233}}, {"id": 3000192, "name": "Les Mureaux", "state": "", "country": "FR", "coord": {"lon": 1.90972, "lat": 48.99173}}, {"id": 3000201, "name": "Moutiers-les-Mauxfaits", "state": "", "country": "FR", "coord": {"lon": -1.41667, "lat": 46.48333}}, {"id": 3000202, "name": "Les Moutiers-Hubert", "state": "", "country": "FR", "coord": {"lon": 0.26594, "lat": 48.976822}}, {"id": 3000205, "name": "Les Moutiers-en-Retz", "state": "", "country": "FR", "coord": {"lon": -1.999, "lat": 47.063751}}, {"id": 3000246, "name": "Les Montils", "state": "", "country": "FR", "coord": {"lon": 1.29775, "lat": 47.494991}}, {"id": 3000263, "name": "Les Monceaux", "state": "", "country": "FR", "coord": {"lon": 0.12462, "lat": 49.115921}}, {"id": 3000268, "name": "Les Moli\u00e8res", "state": "", "country": "FR", "coord": {"lon": 2.06959, "lat": 48.673061}}, {"id": 3000271, "name": "Les Moitiers-en-Bauptois", "state": "", "country": "FR", "coord": {"lon": -1.42724, "lat": 49.36134}}, {"id": 3000272, "name": "Les Moitiers-d'Allonne", "state": "", "country": "FR", "coord": {"lon": -1.77881, "lat": 49.399639}}, {"id": 3000329, "name": "Les M\u00e9es", "state": "", "country": "FR", "coord": {"lon": 5.97681, "lat": 44.030708}}, {"id": 3000343, "name": "Les Mauvaises", "state": "", "country": "FR", "coord": {"lon": 3.07339, "lat": 45.840599}}, {"id": 3000351, "name": "Les Mathes", "state": "", "country": "FR", "coord": {"lon": -1.15497, "lat": 45.713902}}, {"id": 3000353, "name": "Les Matelles", "state": "", "country": "FR", "coord": {"lon": 3.8136, "lat": 43.72905}}, {"id": 3000400, "name": "Les Marches", "state": "", "country": "FR", "coord": {"lon": 6.00087, "lat": 45.49921}}, {"id": 3000443, "name": "Les Magnils-Reigniers", "state": "", "country": "FR", "coord": {"lon": -1.21667, "lat": 46.48333}}, {"id": 3000444, "name": "Les Mages", "state": "", "country": "FR", "coord": {"lon": 4.16946, "lat": 44.228619}}, {"id": 3000446, "name": "Les Lucs-sur-Boulogne", "state": "", "country": "FR", "coord": {"lon": -1.49445, "lat": 46.84478}}, {"id": 3000458, "name": "Les Loges-Marchis", "state": "", "country": "FR", "coord": {"lon": -1.08754, "lat": 48.541321}}, {"id": 3000460, "name": "Les Loges-en-Josas", "state": "", "country": "FR", "coord": {"lon": 2.14002, "lat": 48.763771}}, {"id": 3000465, "name": "Les Loges", "state": "", "country": "FR", "coord": {"lon": 0.28404, "lat": 49.698601}}, {"id": 3000491, "name": "Les Lilas", "state": "", "country": "FR", "coord": {"lon": 2.42057, "lat": 48.879921}}, {"id": 3000497, "name": "Les L\u00e9ris", "state": "", "country": "FR", "coord": {"lon": 2.50369, "lat": 46.396881}}, {"id": 3000501, "name": "Les L\u00e8ches", "state": "", "country": "FR", "coord": {"lon": 0.38456, "lat": 44.989071}}, {"id": 3000504, "name": "Les Laurons", "state": "", "country": "FR", "coord": {"lon": 6.48333, "lat": 43.450001}}, {"id": 3000519, "name": "Les Landes-Genusson", "state": "", "country": "FR", "coord": {"lon": -1.11667, "lat": 46.966671}}, {"id": 3000586, "name": "Les Istres-et-Bury", "state": "", "country": "FR", "coord": {"lon": 4.09171, "lat": 48.98587}}, {"id": 3000587, "name": "Les Isserts", "state": "", "country": "FR", "coord": {"lon": 2.64482, "lat": 45.89666}}, {"id": 3000602, "name": "L\u00e9signy", "state": "", "country": "FR", "coord": {"lon": 2.61518, "lat": 48.74374}}, {"id": 3000619, "name": "Les Houssats", "state": "", "country": "FR", "coord": {"lon": -0.75904, "lat": 44.243809}}, {"id": 3000622, "name": "Les Houches", "state": "", "country": "FR", "coord": {"lon": 6.79613, "lat": 45.89011}}, {"id": 3000648, "name": "Les Herbiers", "state": "", "country": "FR", "coord": {"lon": -1.01667, "lat": 46.866669}}, {"id": 3000674, "name": "Les Hautes-Rivi\u00e8res", "state": "", "country": "FR", "coord": {"lon": 4.84186, "lat": 49.885948}}, {"id": 3000731, "name": "Les Guegilets", "state": "", "country": "FR", "coord": {"lon": 0.19916, "lat": 47.938541}}, {"id": 3000826, "name": "Les Grandes-Ventes", "state": "", "country": "FR", "coord": {"lon": 1.22921, "lat": 49.785439}}, {"id": 3000833, "name": "Les Grandes-Loges", "state": "", "country": "FR", "coord": {"lon": 4.29352, "lat": 49.065281}}, {"id": 3000861, "name": "Les Goujats", "state": "", "country": "FR", "coord": {"lon": 2.98914, "lat": 46.139481}}, {"id": 3000870, "name": "Lesgor", "state": "", "country": "FR", "coord": {"lon": -0.9006, "lat": 43.85297}}, {"id": 3000872, "name": "Les Gonds", "state": "", "country": "FR", "coord": {"lon": -0.61408, "lat": 45.714371}}, {"id": 3000886, "name": "Les Girets", "state": "", "country": "FR", "coord": {"lon": 3.2, "lat": 46.166672}}, {"id": 3000902, "name": "Les Gets", "state": "", "country": "FR", "coord": {"lon": 6.66492, "lat": 46.15522}}, {"id": 3000974, "name": "Les Fr\u00e8res", "state": "", "country": "FR", "coord": {"lon": 5.45495, "lat": 43.413261}}, {"id": 3000998, "name": "Les Fourgs", "state": "", "country": "FR", "coord": {"lon": 6.39953, "lat": 46.834549}}, {"id": 3001001, "name": "Les Fourches", "state": "", "country": "FR", "coord": {"lon": 2.90295, "lat": 46.209099}}, {"id": 3001006, "name": "Les Foug\u00e8res", "state": "", "country": "FR", "coord": {"lon": 3.53475, "lat": 45.51408}}, {"id": 3001020, "name": "Les Forges", "state": "", "country": "FR", "coord": {"lon": 6.38846, "lat": 48.177471}}, {"id": 3001051, "name": "Les Fins", "state": "", "country": "FR", "coord": {"lon": 6.63002, "lat": 47.077641}}, {"id": 3001092, "name": "Les Faiteaux", "state": "", "country": "FR", "coord": {"lon": 3.26667, "lat": 46.466671}}, {"id": 3001095, "name": "Les Eyzies-de-Tayac-Sireuil", "state": "", "country": "FR", "coord": {"lon": 1.01327, "lat": 44.935928}}, {"id": 3001122, "name": "Les Esseintes", "state": "", "country": "FR", "coord": {"lon": -0.06853, "lat": 44.609798}}, {"id": 3001126, "name": "Les Essarts-le-Roi", "state": "", "country": "FR", "coord": {"lon": 1.90089, "lat": 48.716728}}, {"id": 3001134, "name": "Les Essarts", "state": "", "country": "FR", "coord": {"lon": -1.22834, "lat": 46.774399}}, {"id": 3001157, "name": "Les Epesses", "state": "", "country": "FR", "coord": {"lon": -0.9, "lat": 46.883331}}, {"id": 3001176, "name": "Les \u00c9glisottes-et-Chalaures", "state": "", "country": "FR", "coord": {"lon": -0.05, "lat": 45.099998}}, {"id": 3001178, "name": "Les \u00c9gaux", "state": "", "country": "FR", "coord": {"lon": 3.40925, "lat": 45.656479}}, {"id": 3001191, "name": "Les \u00c9chelles", "state": "", "country": "FR", "coord": {"lon": 5.75133, "lat": 45.434811}}, {"id": 3001229, "name": "Les Deux-Fr\u00e8res", "state": "", "country": "FR", "coord": {"lon": 3.55595, "lat": 45.542149}}, {"id": 3001251, "name": "Lescuretie", "state": "", "country": "FR", "coord": {"lon": 0.4901, "lat": 44.90984}}, {"id": 3001272, "name": "Les Croix Chemins", "state": "", "country": "FR", "coord": {"lon": 0.67946, "lat": 48.590118}}, {"id": 3001276, "name": "Les Cresnays", "state": "", "country": "FR", "coord": {"lon": -1.12233, "lat": 48.719501}}, {"id": 3001312, "name": "Les Cottes", "state": "", "country": "FR", "coord": {"lon": 3.66667, "lat": 45.599998}}, {"id": 3001336, "name": "Les Contamines-Montjoie", "state": "", "country": "FR", "coord": {"lon": 6.72817, "lat": 45.821362}}, {"id": 3001386, "name": "Les Clouzeaux", "state": "", "country": "FR", "coord": {"lon": -1.50947, "lat": 46.628811}}, {"id": 3001402, "name": "Les Clayes-sous-Bois", "state": "", "country": "FR", "coord": {"lon": 1.98677, "lat": 48.82206}}, {"id": 3001412, "name": "Les Clairs", "state": "", "country": "FR", "coord": {"lon": 3.05023, "lat": 46.152061}}, {"id": 3001439, "name": "Les Chevariers", "state": "", "country": "FR", "coord": {"lon": 3.19278, "lat": 46.105492}}, {"id": 3001450, "name": "Les Chers", "state": "", "country": "FR", "coord": {"lon": 2.8567, "lat": 46.087349}}, {"id": 3001453, "name": "Les Ch\u00e9ris", "state": "", "country": "FR", "coord": {"lon": -1.25674, "lat": 48.636108}}, {"id": 3001457, "name": "Les Ch\u00e8res", "state": "", "country": "FR", "coord": {"lon": 4.7467, "lat": 45.889751}}, {"id": 3001459, "name": "Lescheraines", "state": "", "country": "FR", "coord": {"lon": 6.10527, "lat": 45.70834}}, {"id": 3001464, "name": "Les Chenais", "state": "", "country": "FR", "coord": {"lon": -1.34529, "lat": 48.061192}}, {"id": 3001546, "name": "Les Champs-G\u00e9raux", "state": "", "country": "FR", "coord": {"lon": -1.97087, "lat": 48.416458}}, {"id": 3001559, "name": "Les Champeaux", "state": "", "country": "FR", "coord": {"lon": 0.1339, "lat": 48.894691}}, {"id": 3001594, "name": "Les Cavailles", "state": "", "country": "FR", "coord": {"lon": -0.53333, "lat": 44.849998}}, {"id": 3001615, "name": "Lescardie", "state": "", "country": "FR", "coord": {"lon": 0.81471, "lat": 44.98019}}, {"id": 3001617, "name": "Lescar", "state": "", "country": "FR", "coord": {"lon": -0.41667, "lat": 43.333328}}, {"id": 3001685, "name": "Les Brunets", "state": "", "country": "FR", "coord": {"lon": 3.56249, "lat": 46.394619}}, {"id": 3001695, "name": "Les Brugues", "state": "", "country": "FR", "coord": {"lon": 0.76667, "lat": 44.616669}}, {"id": 3001698, "name": "Les Brouzils", "state": "", "country": "FR", "coord": {"lon": -1.32095, "lat": 46.885712}}, {"id": 3001714, "name": "Les Brosses", "state": "", "country": "FR", "coord": {"lon": 3.05489, "lat": 46.324532}}, {"id": 3001758, "name": "Les Bouriaux", "state": "", "country": "FR", "coord": {"lon": 0.65537, "lat": 45.396049}}, {"id": 3001775, "name": "Les Bougerolles", "state": "", "country": "FR", "coord": {"lon": 2.6, "lat": 46.183331}}, {"id": 3001779, "name": "Les Boudignons", "state": "", "country": "FR", "coord": {"lon": 2.86833, "lat": 46.138191}}, {"id": 3001787, "name": "Les Bouchauds", "state": "", "country": "FR", "coord": {"lon": 3.39862, "lat": 46.17099}}, {"id": 3001788, "name": "Les Bouchauds", "state": "", "country": "FR", "coord": {"lon": 2.75411, "lat": 46.079189}}, {"id": 3001899, "name": "Les Billaux", "state": "", "country": "FR", "coord": {"lon": -0.23333, "lat": 44.950001}}, {"id": 3002057, "name": "Les Aveni\u00e8res", "state": "", "country": "FR", "coord": {"lon": 5.57074, "lat": 45.631561}}, {"id": 3002067, "name": "Les Authieux-sur-le-Port-Saint-Ouen", "state": "", "country": "FR", "coord": {"lon": 1.13465, "lat": 49.341}}, {"id": 3002069, "name": "Les Authieux-Papion", "state": "", "country": "FR", "coord": {"lon": 0.05, "lat": 49.066669}}, {"id": 3002108, "name": "Les Attaques", "state": "", "country": "FR", "coord": {"lon": 1.92961, "lat": 50.909618}}, {"id": 3002114, "name": "Les Artigues-de-Lussac", "state": "", "country": "FR", "coord": {"lon": -0.15, "lat": 44.966671}}, {"id": 3002138, "name": "Les Arcs", "state": "", "country": "FR", "coord": {"lon": 6.47905, "lat": 43.45702}}, {"id": 3002145, "name": "Le Sappey-en-Chartreuse", "state": "", "country": "FR", "coord": {"lon": 5.77721, "lat": 45.259979}}, {"id": 3002158, "name": "Les Angles", "state": "", "country": "FR", "coord": {"lon": 4.76342, "lat": 43.958061}}, {"id": 3002172, "name": "Les Andelys", "state": "", "country": "FR", "coord": {"lon": 1.41667, "lat": 49.25}}, {"id": 3002175, "name": "Les Ancizes", "state": "", "country": "FR", "coord": {"lon": 2.81074, "lat": 45.92535}}, {"id": 3002184, "name": "Les Alluets-le-Roi", "state": "", "country": "FR", "coord": {"lon": 1.9181, "lat": 48.913792}}, {"id": 3002185, "name": "Les Allues", "state": "", "country": "FR", "coord": {"lon": 6.55558, "lat": 45.432549}}, {"id": 3002221, "name": "Les Ageux", "state": "", "country": "FR", "coord": {"lon": 2.6, "lat": 49.316669}}, {"id": 3002237, "name": "Les Abrets", "state": "", "country": "FR", "coord": {"lon": 5.58535, "lat": 45.53706}}, {"id": 3002247, "name": "L\u00e9ry", "state": "", "country": "FR", "coord": {"lon": 1.20768, "lat": 49.285851}}, {"id": 3002249, "name": "Lery", "state": "", "country": "FR", "coord": {"lon": 2.83559, "lat": 45.73365}}, {"id": 3002256, "name": "Le Russey", "state": "", "country": "FR", "coord": {"lon": 6.72912, "lat": 47.160549}}, {"id": 3002271, "name": "Le Rove", "state": "", "country": "FR", "coord": {"lon": 5.25112, "lat": 43.369869}}, {"id": 3002277, "name": "L\u00e9rouville", "state": "", "country": "FR", "coord": {"lon": 5.54063, "lat": 48.79261}}, {"id": 3002280, "name": "Le Rouret", "state": "", "country": "FR", "coord": {"lon": 7.01521, "lat": 43.67873}}, {"id": 3002288, "name": "Le Rouget", "state": "", "country": "FR", "coord": {"lon": 2.23279, "lat": 44.853821}}, {"id": 3002323, "name": "Lerm-et-Musset", "state": "", "country": "FR", "coord": {"lon": -0.15648, "lat": 44.327518}}, {"id": 3002351, "name": "Le Rheu", "state": "", "country": "FR", "coord": {"lon": -1.79734, "lat": 48.10228}}, {"id": 3002357, "name": "Le Revest-les-Eaux", "state": "", "country": "FR", "coord": {"lon": 5.93333, "lat": 43.183331}}, {"id": 3002369, "name": "Le Renouard", "state": "", "country": "FR", "coord": {"lon": 0.1, "lat": 48.900002}}, {"id": 3002370, "name": "L\u00e9ren", "state": "", "country": "FR", "coord": {"lon": -1.0418, "lat": 43.502708}}, {"id": 3002373, "name": "Le Relecq-Kerhuon", "state": "", "country": "FR", "coord": {"lon": -4.39359, "lat": 48.40691}}, {"id": 3002383, "name": "L\u00e9r\u00e9", "state": "", "country": "FR", "coord": {"lon": 2.86981, "lat": 47.46867}}, {"id": 3002401, "name": "Le Raincy", "state": "", "country": "FR", "coord": {"lon": 2.51667, "lat": 48.900002}}, {"id": 3002405, "name": "L\u00e9rable", "state": "", "country": "FR", "coord": {"lon": 0.38333, "lat": 48.416672}}, {"id": 3002420, "name": "Le Quesnoy", "state": "", "country": "FR", "coord": {"lon": 3.63656, "lat": 50.247971}}, {"id": 3002437, "name": "Le Quartier", "state": "", "country": "FR", "coord": {"lon": 2.76355, "lat": 46.12352}}, {"id": 3002443, "name": "Le Puy-Sainte-R\u00e9parade", "state": "", "country": "FR", "coord": {"lon": 5.43434, "lat": 43.663189}}, {"id": 3002446, "name": "Le Puy-Notre-Dame", "state": "", "country": "FR", "coord": {"lon": -0.23572, "lat": 47.125511}}, {"id": 3002458, "name": "Le Puy", "state": "", "country": "FR", "coord": {"lon": 2.69528, "lat": 46.10162}}, {"id": 3002465, "name": "Le Puy-en-Velay", "state": "", "country": "FR", "coord": {"lon": 3.88523, "lat": 45.043659}}, {"id": 3002471, "name": "Lepuix", "state": "", "country": "FR", "coord": {"lon": 6.8165, "lat": 47.75996}}, {"id": 3002499, "name": "Le Pr\u00e9-Saint-Gervais", "state": "", "country": "FR", "coord": {"lon": 2.40422, "lat": 48.88549}}, {"id": 3002504, "name": "Le Pr\u00e9", "state": "", "country": "FR", "coord": {"lon": 6.86667, "lat": 45.583328}}, {"id": 3002510, "name": "Le Pradet", "state": "", "country": "FR", "coord": {"lon": 6.01718, "lat": 43.106609}}, {"id": 3002520, "name": "Le Pouzin", "state": "", "country": "FR", "coord": {"lon": 4.74798, "lat": 44.751732}}, {"id": 3002529, "name": "Le Pout", "state": "", "country": "FR", "coord": {"lon": -0.36048, "lat": 44.794998}}, {"id": 3002534, "name": "Le Pouliguen", "state": "", "country": "FR", "coord": {"lon": -2.4278, "lat": 47.26973}}, {"id": 3002537, "name": "Le Poujol-sur-Orb", "state": "", "country": "FR", "coord": {"lon": 3.06156, "lat": 43.579189}}, {"id": 3002541, "name": "Le Pouget", "state": "", "country": "FR", "coord": {"lon": 3.52423, "lat": 43.591949}}, {"id": 3002547, "name": "Le Port-Marly", "state": "", "country": "FR", "coord": {"lon": 2.1114, "lat": 48.89016}}, {"id": 3002551, "name": "Le Portel", "state": "", "country": "FR", "coord": {"lon": 1.57574, "lat": 50.705589}}, {"id": 3002552, "name": "Port-des-Barques", "state": "", "country": "FR", "coord": {"lon": -1.07795, "lat": 45.947632}}, {"id": 3002559, "name": "Le Porge", "state": "", "country": "FR", "coord": {"lon": -1.0889, "lat": 44.872761}}, {"id": 3002570, "name": "Le Pontet", "state": "", "country": "FR", "coord": {"lon": 4.86008, "lat": 43.961189}}, {"id": 3002575, "name": "Travo", "state": "", "country": "FR", "coord": {"lon": 9.38807, "lat": 41.91431}}, {"id": 3002585, "name": "Le Pont-de-Claix", "state": "", "country": "FR", "coord": {"lon": 5.7064, "lat": 45.124432}}, {"id": 3002586, "name": "Le Pont-de-Beauvoisin", "state": "", "country": "FR", "coord": {"lon": 5.67333, "lat": 45.536942}}, {"id": 3002619, "name": "Le Poirier", "state": "", "country": "FR", "coord": {"lon": 1.06305, "lat": 45.45282}}, {"id": 3002620, "name": "Le Poir\u00e9-sur-Vie", "state": "", "country": "FR", "coord": {"lon": -1.50938, "lat": 46.769211}}, {"id": 3002626, "name": "Le Poin\u00e7onnet", "state": "", "country": "FR", "coord": {"lon": 1.7179, "lat": 46.764099}}, {"id": 3002647, "name": "Le Plessis-Tr\u00e9vise", "state": "", "country": "FR", "coord": {"lon": 2.57363, "lat": 48.810741}}, {"id": 3002650, "name": "Le Plessis-Robinson", "state": "", "country": "FR", "coord": {"lon": 2.27078, "lat": 48.788891}}, {"id": 3002651, "name": "Le Plessis-Placy", "state": "", "country": "FR", "coord": {"lon": 2.98921, "lat": 49.057911}}, {"id": 3002654, "name": "Le Plessis-P\u00e2t\u00e9", "state": "", "country": "FR", "coord": {"lon": 2.32318, "lat": 48.610779}}, {"id": 3002658, "name": "Le Plessis-Mac\u00e9", "state": "", "country": "FR", "coord": {"lon": -0.67436, "lat": 47.543041}}, {"id": 3002668, "name": "Le Plessis-Grimoult", "state": "", "country": "FR", "coord": {"lon": -0.61036, "lat": 48.961552}}, {"id": 3002669, "name": "Le Plessis-Grammoire", "state": "", "country": "FR", "coord": {"lon": -0.43021, "lat": 47.49884}}, {"id": 3002677, "name": "Le Plessis-Brion", "state": "", "country": "FR", "coord": {"lon": 2.89096, "lat": 49.464191}}, {"id": 3002679, "name": "Le Plessis-Bouchard", "state": "", "country": "FR", "coord": {"lon": 2.23333, "lat": 49.0}}, {"id": 3002680, "name": "Le Plessis-Belleville", "state": "", "country": "FR", "coord": {"lon": 2.75614, "lat": 49.095009}}, {"id": 3002720, "name": "Le Plantis", "state": "", "country": "FR", "coord": {"lon": 0.38089, "lat": 48.601299}}, {"id": 3002758, "name": "Le Pizou", "state": "", "country": "FR", "coord": {"lon": 0.06667, "lat": 45.01667}}, {"id": 3002778, "name": "Le Pinet", "state": "", "country": "FR", "coord": {"lon": 3.87036, "lat": 45.375359}}, {"id": 3002782, "name": "Le Pin-en-Mauges", "state": "", "country": "FR", "coord": {"lon": -0.89917, "lat": 47.253571}}, {"id": 3002793, "name": "L'\u00c9pinay-le-Comte", "state": "", "country": "FR", "coord": {"lon": -0.81093, "lat": 48.468311}}, {"id": 3002808, "name": "Le Pin", "state": "", "country": "FR", "coord": {"lon": 2.62841, "lat": 48.91523}}, {"id": 3002813, "name": "Le Pin", "state": "", "country": "FR", "coord": {"lon": -0.6544, "lat": 46.86179}}, {"id": 3002817, "name": "Le Pin", "state": "", "country": "FR", "coord": {"lon": 5.50497, "lat": 45.455818}}, {"id": 3002831, "name": "Le Pie", "state": "", "country": "FR", "coord": {"lon": 3.45044, "lat": 45.6563}}, {"id": 3002836, "name": "Le Pian-M\u00e9doc", "state": "", "country": "FR", "coord": {"lon": -0.66227, "lat": 44.955372}}, {"id": 3002842, "name": "Le Peyrou", "state": "", "country": "FR", "coord": {"lon": 2.47209, "lat": 44.779251}}, {"id": 3002880, "name": "Le Petit-Quevilly", "state": "", "country": "FR", "coord": {"lon": 1.06155, "lat": 49.41338}}, {"id": 3002918, "name": "Petit-Couronne", "state": "", "country": "FR", "coord": {"lon": 1.01667, "lat": 49.383331}}, {"id": 3002948, "name": "Le Pessin", "state": "", "country": "FR", "coord": {"lon": 3.83463, "lat": 45.40403}}, {"id": 3002954, "name": "Le Pertre", "state": "", "country": "FR", "coord": {"lon": -1.03735, "lat": 48.03373}}, {"id": 3002958, "name": "Le Perron", "state": "", "country": "FR", "coord": {"lon": -0.90139, "lat": 49.052799}}, {"id": 3002961, "name": "Le Perrier", "state": "", "country": "FR", "coord": {"lon": -1.99306, "lat": 46.819321}}, {"id": 3002965, "name": "Le Perreux-sur-Marne", "state": "", "country": "FR", "coord": {"lon": 2.5, "lat": 48.849998}}, {"id": 3002966, "name": "Le Perr\u00e9on", "state": "", "country": "FR", "coord": {"lon": 4.60205, "lat": 46.063122}}, {"id": 3002967, "name": "Le Perray-en-Yvelines", "state": "", "country": "FR", "coord": {"lon": 1.85643, "lat": 48.694408}}, {"id": 3002980, "name": "Pellery", "state": "", "country": "FR", "coord": {"lon": 0.98601, "lat": 44.479698}}, {"id": 3002981, "name": "Le Pellerin", "state": "", "country": "FR", "coord": {"lon": -1.75514, "lat": 47.199139}}, {"id": 3002984, "name": "Le Pecq", "state": "", "country": "FR", "coord": {"lon": 2.10371, "lat": 48.893169}}, {"id": 3002986, "name": "Le P\u00eachereau", "state": "", "country": "FR", "coord": {"lon": 1.54743, "lat": 46.576771}}, {"id": 3002988, "name": "Le P\u00e9age-de-Roussillon", "state": "", "country": "FR", "coord": {"lon": 4.79791, "lat": 45.371799}}, {"id": 3002999, "name": "Le Pav\u00e9 de Pontault", "state": "", "country": "FR", "coord": {"lon": 2.59433, "lat": 48.77565}}, {"id": 3003017, "name": "Le Passage", "state": "", "country": "FR", "coord": {"lon": 0.60275, "lat": 44.201431}}, {"id": 3003042, "name": "Le Pallet", "state": "", "country": "FR", "coord": {"lon": -1.33476, "lat": 47.138088}}, {"id": 3003043, "name": "Le Palivestre", "state": "", "country": "FR", "coord": {"lon": 6.15, "lat": 43.099998}}, {"id": 3003044, "name": "Le Palais-sur-Vienne", "state": "", "country": "FR", "coord": {"lon": 1.32207, "lat": 45.8638}}, {"id": 3003045, "name": "Le Palais", "state": "", "country": "FR", "coord": {"lon": -3.15411, "lat": 47.34557}}, {"id": 3003058, "name": "L\u00e9otoing", "state": "", "country": "FR", "coord": {"lon": 3.22242, "lat": 45.36208}}, {"id": 3003064, "name": "L\u00e9on", "state": "", "country": "FR", "coord": {"lon": -1.30057, "lat": 43.876759}}, {"id": 3003067, "name": "L\u00e9ognan", "state": "", "country": "FR", "coord": {"lon": -0.59738, "lat": 44.735481}}, {"id": 3003068, "name": "L\u00e9ogeats", "state": "", "country": "FR", "coord": {"lon": -0.36619, "lat": 44.512379}}, {"id": 3003074, "name": "Lentilly", "state": "", "country": "FR", "coord": {"lon": 4.66352, "lat": 45.819839}}, {"id": 3003081, "name": "Lentigny", "state": "", "country": "FR", "coord": {"lon": 3.98163, "lat": 45.99596}}, {"id": 3003087, "name": "Lent", "state": "", "country": "FR", "coord": {"lon": 5.1937, "lat": 46.120319}}, {"id": 3003091, "name": "Arrondissement de Lens", "state": "", "country": "FR", "coord": {"lon": 2.83333, "lat": 50.416672}}, {"id": 3003093, "name": "Lens", "state": "", "country": "FR", "coord": {"lon": 2.82791, "lat": 50.433022}}, {"id": 3003101, "name": "Le Nouvion-en-Thi\u00e9rache", "state": "", "country": "FR", "coord": {"lon": 3.78509, "lat": 50.016251}}, {"id": 3003104, "name": "Le Not", "state": "", "country": "FR", "coord": {"lon": 5.32654, "lat": 45.377209}}, {"id": 3003107, "name": "Le Noizement", "state": "", "country": "FR", "coord": {"lon": 2.06166, "lat": 48.120831}}, {"id": 3003114, "name": "Le Nizan", "state": "", "country": "FR", "coord": {"lon": -0.26916, "lat": 44.47773}}, {"id": 3003119, "name": "Lengronne", "state": "", "country": "FR", "coord": {"lon": -1.38214, "lat": 48.933811}}, {"id": 3003127, "name": "Le Neubourg", "state": "", "country": "FR", "coord": {"lon": 0.9102, "lat": 49.150478}}, {"id": 3003130, "name": "Lendresse", "state": "", "country": "FR", "coord": {"lon": -0.66667, "lat": 43.416672}}, {"id": 3003132, "name": "Lencouacq", "state": "", "country": "FR", "coord": {"lon": -0.4058, "lat": 44.099461}}, {"id": 3003136, "name": "Lenclo\u00eetre", "state": "", "country": "FR", "coord": {"lon": 0.32827, "lat": 46.816219}}, {"id": 3003148, "name": "Le Muy", "state": "", "country": "FR", "coord": {"lon": 6.56452, "lat": 43.473808}}, {"id": 3003156, "name": "Lempzours", "state": "", "country": "FR", "coord": {"lon": 0.81826, "lat": 45.361591}}, {"id": 3003157, "name": "Lempty", "state": "", "country": "FR", "coord": {"lon": 3.3311, "lat": 45.82777}}, {"id": 3003164, "name": "Lempdes-sur-Allagnon", "state": "", "country": "FR", "coord": {"lon": 3.28333, "lat": 45.383331}}, {"id": 3003236, "name": "Le Montel", "state": "", "country": "FR", "coord": {"lon": 3.58048, "lat": 45.322651}}, {"id": 3003249, "name": "Le Monteil", "state": "", "country": "FR", "coord": {"lon": 2.15087, "lat": 45.072048}}, {"id": 3003253, "name": "Mont-Dore", "state": "", "country": "FR", "coord": {"lon": 2.81667, "lat": 45.566669}}, {"id": 3003271, "name": "Le Mont", "state": "", "country": "FR", "coord": {"lon": 3.48503, "lat": 46.593861}}, {"id": 3003280, "name": "Le Mont", "state": "", "country": "FR", "coord": {"lon": 4.7208, "lat": 45.672138}}, {"id": 3003281, "name": "Le Mont", "state": "", "country": "FR", "coord": {"lon": 3.78882, "lat": 45.290649}}, {"id": 3003297, "name": "Le Mon\u00eatier-les-Bains", "state": "", "country": "FR", "coord": {"lon": 6.5067, "lat": 44.975651}}, {"id": 3003302, "name": "Le Monceau", "state": "", "country": "FR", "coord": {"lon": 3.41888, "lat": 47.882648}}, {"id": 3003306, "name": "Le Monastier-sur-Gazeille", "state": "", "country": "FR", "coord": {"lon": 4.0, "lat": 44.933331}}, {"id": 3003308, "name": "Le Monast\u00e8re", "state": "", "country": "FR", "coord": {"lon": 2.57956, "lat": 44.341648}}, {"id": 3003316, "name": "Le Molay-Littry", "state": "", "country": "FR", "coord": {"lon": -0.87238, "lat": 49.242649}}, {"id": 3003332, "name": "Le Minihic-sur-Rance", "state": "", "country": "FR", "coord": {"lon": -2.00876, "lat": 48.57835}}, {"id": 3003341, "name": "Le Meux", "state": "", "country": "FR", "coord": {"lon": 2.74374, "lat": 49.36718}}, {"id": 3003351, "name": "Le Mesnil-sur-Oger", "state": "", "country": "FR", "coord": {"lon": 4.02263, "lat": 48.947079}}, {"id": 3003357, "name": "Le Mesnil", "state": "", "country": "FR", "coord": {"lon": -1.7, "lat": 49.366669}}, {"id": 3003359, "name": "Le Mesnil-Saint-Denis", "state": "", "country": "FR", "coord": {"lon": 1.95594, "lat": 48.74485}}, {"id": 3003361, "name": "Le Mesnil-Rouxelin", "state": "", "country": "FR", "coord": {"lon": -1.0849, "lat": 49.147579}}, {"id": 3003366, "name": "Le Mesnil-Raoult", "state": "", "country": "FR", "coord": {"lon": -1.06018, "lat": 49.035}}, {"id": 3003369, "name": "Le Mesnil-Patry", "state": "", "country": "FR", "coord": {"lon": -0.54502, "lat": 49.19511}}, {"id": 3003370, "name": "Le Mesnil-Ozenne", "state": "", "country": "FR", "coord": {"lon": -1.23061, "lat": 48.666779}}, {"id": 3003371, "name": "Le Mesnil-Opac", "state": "", "country": "FR", "coord": {"lon": -1.09769, "lat": 49.01305}}, {"id": 3003373, "name": "Le Mesnil-Mauger", "state": "", "country": "FR", "coord": {"lon": 0.01572, "lat": 49.084061}}, {"id": 3003375, "name": "Le Mesnil-le-Roi", "state": "", "country": "FR", "coord": {"lon": 2.12554, "lat": 48.938251}}, {"id": 3003389, "name": "Le Mesnil-Eury", "state": "", "country": "FR", "coord": {"lon": -1.23735, "lat": 49.15134}}, {"id": 3003391, "name": "Le Mesnil-Esnard", "state": "", "country": "FR", "coord": {"lon": 1.14521, "lat": 49.413189}}, {"id": 3003392, "name": "Le Mesnil-en-Vall\u00e9e", "state": "", "country": "FR", "coord": {"lon": -0.93485, "lat": 47.365509}}, {"id": 3003393, "name": "Le Mesnil-en-Thelle", "state": "", "country": "FR", "coord": {"lon": 2.28573, "lat": 49.178299}}, {"id": 3003395, "name": "Le Mesnil-Durand", "state": "", "country": "FR", "coord": {"lon": 0.13972, "lat": 49.045292}}, {"id": 3003401, "name": "Le Mesnilbus", "state": "", "country": "FR", "coord": {"lon": -1.3506, "lat": 49.131672}}, {"id": 3003407, "name": "Le Mesnil-Auzouf", "state": "", "country": "FR", "coord": {"lon": -0.75196, "lat": 48.980389}}, {"id": 3003408, "name": "Le Mesnil-au-Val", "state": "", "country": "FR", "coord": {"lon": -1.52536, "lat": 49.606071}}, {"id": 3003409, "name": "Le Mesnil-au-Grain", "state": "", "country": "FR", "coord": {"lon": -0.5956, "lat": 49.046669}}, {"id": 3003414, "name": "Le Mesnil-Amey", "state": "", "country": "FR", "coord": {"lon": -1.21118, "lat": 49.103809}}, {"id": 3003450, "name": "Le M\u00e9nil-Scelleur", "state": "", "country": "FR", "coord": {"lon": -0.12063, "lat": 48.610241}}, {"id": 3003455, "name": "Le M\u00e9nil-Guyon", "state": "", "country": "FR", "coord": {"lon": 0.29508, "lat": 48.58242}}, {"id": 3003456, "name": "Le M\u00e9nil-Geru", "state": "", "country": "FR", "coord": {"lon": 0.44896, "lat": 48.70512}}, {"id": 3003464, "name": "Le M\u00e9nil", "state": "", "country": "FR", "coord": {"lon": 6.78209, "lat": 47.90477}}, {"id": 3003481, "name": "Le M\u00e9e-sur-Seine", "state": "", "country": "FR", "coord": {"lon": 2.62829, "lat": 48.53157}}, {"id": 3003489, "name": "L\u00e8me", "state": "", "country": "FR", "coord": {"lon": -0.36667, "lat": 43.5}}, {"id": 3003490, "name": "Lembras", "state": "", "country": "FR", "coord": {"lon": 0.52657, "lat": 44.884312}}, {"id": 3003495, "name": "Lemberg", "state": "", "country": "FR", "coord": {"lon": 7.37976, "lat": 49.002781}}, {"id": 3003496, "name": "Lembach", "state": "", "country": "FR", "coord": {"lon": 7.78986, "lat": 49.00362}}, {"id": 3003514, "name": "Le May-sur-\u00c8vre", "state": "", "country": "FR", "coord": {"lon": -0.89227, "lat": 47.137138}}, {"id": 3003517, "name": "Le Mayet-de-Montagne", "state": "", "country": "FR", "coord": {"lon": 3.66651, "lat": 46.07251}}, {"id": 3003552, "name": "Le Mas", "state": "", "country": "FR", "coord": {"lon": 2.71001, "lat": 46.086941}}, {"id": 3003589, "name": "Le Marcet", "state": "", "country": "FR", "coord": {"lon": 3.49604, "lat": 45.20911}}, {"id": 3003603, "name": "Le Mans", "state": "", "country": "FR", "coord": {"lon": 0.2, "lat": 48.0}}, {"id": 3003604, "name": "Le Manoir", "state": "", "country": "FR", "coord": {"lon": 1.20455, "lat": 49.313549}}, {"id": 3003605, "name": "Le Manoir", "state": "", "country": "FR", "coord": {"lon": -0.59403, "lat": 49.28376}}, {"id": 3003610, "name": "Le Malzieu-Ville", "state": "", "country": "FR", "coord": {"lon": 3.33302, "lat": 44.856979}}, {"id": 3003647, "name": "Le Lude", "state": "", "country": "FR", "coord": {"lon": 0.15664, "lat": 47.646481}}, {"id": 3003650, "name": "Le Luc", "state": "", "country": "FR", "coord": {"lon": 6.31474, "lat": 43.393181}}, {"id": 3003653, "name": "Le Luart", "state": "", "country": "FR", "coord": {"lon": 0.58564, "lat": 48.07053}}, {"id": 3003656, "name": "Le Louroux-B\u00e9connais", "state": "", "country": "FR", "coord": {"lon": -0.88664, "lat": 47.52211}}, {"id": 3003661, "name": "Le Loroux-Bottereau", "state": "", "country": "FR", "coord": {"lon": -1.34952, "lat": 47.237629}}, {"id": 3003663, "name": "Le Lorey", "state": "", "country": "FR", "coord": {"lon": -1.30714, "lat": 49.09346}}, {"id": 3003664, "name": "Le Loreur", "state": "", "country": "FR", "coord": {"lon": -1.43024, "lat": 48.868099}}, {"id": 3003672, "name": "Le Longeron", "state": "", "country": "FR", "coord": {"lon": -1.05762, "lat": 47.018452}}, {"id": 3003681, "name": "Le Locheur", "state": "", "country": "FR", "coord": {"lon": -0.5525, "lat": 49.104038}}, {"id": 3003713, "name": "Le Lavandou", "state": "", "country": "FR", "coord": {"lon": 6.366, "lat": 43.137001}}, {"id": 3003726, "name": "Le Langon", "state": "", "country": "FR", "coord": {"lon": -0.94767, "lat": 46.438499}}, {"id": 3003730, "name": "Le Landreau", "state": "", "country": "FR", "coord": {"lon": -1.30452, "lat": 47.20512}}, {"id": 3003737, "name": "Le Kremlin-Bic\u00eatre", "state": "", "country": "FR", "coord": {"lon": 2.36073, "lat": 48.814709}}, {"id": 3003743, "name": "Le Jeune-Soulac", "state": "", "country": "FR", "coord": {"lon": -1.11667, "lat": 45.51667}}, {"id": 3003760, "name": "Leintrey", "state": "", "country": "FR", "coord": {"lon": 6.73854, "lat": 48.62389}}, {"id": 3003773, "name": "Le Houlme", "state": "", "country": "FR", "coord": {"lon": 1.03537, "lat": 49.50972}}, {"id": 3003774, "name": "Le Houga", "state": "", "country": "FR", "coord": {"lon": -0.17833, "lat": 43.774639}}, {"id": 3003777, "name": "L\u00e9hon", "state": "", "country": "FR", "coord": {"lon": -2.04578, "lat": 48.444321}}, {"id": 3003778, "name": "Le Hommet-d'Arthenay", "state": "", "country": "FR", "coord": {"lon": -1.18833, "lat": 49.18988}}, {"id": 3003796, "name": "Le Havre", "state": "", "country": "FR", "coord": {"lon": 0.10767, "lat": 49.493801}}, {"id": 3003854, "name": "Le Ham", "state": "", "country": "FR", "coord": {"lon": -0.10364, "lat": 49.180969}}, {"id": 3003859, "name": "Le Haillan", "state": "", "country": "FR", "coord": {"lon": -0.67965, "lat": 44.87225}}, {"id": 3003861, "name": "Le Guislain", "state": "", "country": "FR", "coord": {"lon": -1.22905, "lat": 48.971779}}, {"id": 3003866, "name": "L\u00e9guillac-de-l'Auche", "state": "", "country": "FR", "coord": {"lon": 0.55, "lat": 45.183331}}, {"id": 3003874, "name": "L\u00e9guevin", "state": "", "country": "FR", "coord": {"lon": 1.23236, "lat": 43.600281}}, {"id": 3003893, "name": "Le Gua", "state": "", "country": "FR", "coord": {"lon": -0.94468, "lat": 45.726139}}, {"id": 3003894, "name": "Le Gua", "state": "", "country": "FR", "coord": {"lon": 5.61667, "lat": 45.01667}}, {"id": 3003918, "name": "Le Grau-du-Roi", "state": "", "country": "FR", "coord": {"lon": 4.13559, "lat": 43.538811}}, {"id": 3003952, "name": "Le Grand-Quevilly", "state": "", "country": "FR", "coord": {"lon": 1.04582, "lat": 49.400761}}, {"id": 3003957, "name": "Le Grand-Pressigny", "state": "", "country": "FR", "coord": {"lon": 0.8038, "lat": 46.92017}}, {"id": 3003986, "name": "Le Grand-Luc\u00e9", "state": "", "country": "FR", "coord": {"lon": 0.46919, "lat": 47.86618}}, {"id": 3003991, "name": "Le Grand-Lemps", "state": "", "country": "FR", "coord": {"lon": 5.42215, "lat": 45.397888}}, {"id": 3003992, "name": "Le Grand L\u00e9ger", "state": "", "country": "FR", "coord": {"lon": 2.6, "lat": 45.883331}}, {"id": 3003999, "name": "Le Grand Hameau", "state": "", "country": "FR", "coord": {"lon": 0.08728, "lat": 49.528759}}, {"id": 3004021, "name": "Le Grand Ch\u00e2tel", "state": "", "country": "FR", "coord": {"lon": 2.93333, "lat": 46.200001}}, {"id": 3004039, "name": "Le Grand-Bourg", "state": "", "country": "FR", "coord": {"lon": 1.64466, "lat": 46.160179}}, {"id": 3004041, "name": "Le Grand-Bornand", "state": "", "country": "FR", "coord": {"lon": 6.44111, "lat": 45.943459}}, {"id": 3004074, "name": "Le Got", "state": "", "country": "FR", "coord": {"lon": 1.01827, "lat": 44.68351}}, {"id": 3004078, "name": "Gond-Pontouvre", "state": "", "country": "FR", "coord": {"lon": 0.16667, "lat": 45.683331}}, {"id": 3004114, "name": "Leg\u00e9", "state": "", "country": "FR", "coord": {"lon": -1.60127, "lat": 46.884838}}, {"id": 3004119, "name": "Le G\u00e2vre", "state": "", "country": "FR", "coord": {"lon": -1.74905, "lat": 47.521309}}, {"id": 3004129, "name": "Le Gast", "state": "", "country": "FR", "coord": {"lon": -1.07572, "lat": 48.79512}}, {"id": 3004130, "name": "Le Garric", "state": "", "country": "FR", "coord": {"lon": 2.16431, "lat": 44.009319}}, {"id": 3004138, "name": "Le Fuilet", "state": "", "country": "FR", "coord": {"lon": -1.1131, "lat": 47.283451}}, {"id": 3004144, "name": "Le Fromental", "state": "", "country": "FR", "coord": {"lon": 3.13642, "lat": 45.42371}}, {"id": 3004153, "name": "Le Fresne-Poret", "state": "", "country": "FR", "coord": {"lon": -0.82997, "lat": 48.709808}}, {"id": 3004154, "name": "Le Fresne-Camilly", "state": "", "country": "FR", "coord": {"lon": -0.48771, "lat": 49.259579}}, {"id": 3004171, "name": "Le Fr\u00eache", "state": "", "country": "FR", "coord": {"lon": -0.23333, "lat": 43.933331}}, {"id": 3004173, "name": "Le Fraysse", "state": "", "country": "FR", "coord": {"lon": 4.18066, "lat": 45.111118}}, {"id": 3004185, "name": "Le Fousseret", "state": "", "country": "FR", "coord": {"lon": 1.06624, "lat": 43.282051}}, {"id": 3004209, "name": "Le Fort-Vert", "state": "", "country": "FR", "coord": {"lon": 1.93747, "lat": 50.96843}}, {"id": 3004213, "name": "Leforest", "state": "", "country": "FR", "coord": {"lon": 3.0648, "lat": 50.43866}}, {"id": 3004222, "name": "Le Folgo\u00ebt", "state": "", "country": "FR", "coord": {"lon": -4.33641, "lat": 48.563591}}, {"id": 3004224, "name": "Le F\u0153il", "state": "", "country": "FR", "coord": {"lon": -2.91667, "lat": 48.433331}}, {"id": 3004226, "name": "Le Fleix", "state": "", "country": "FR", "coord": {"lon": 0.25, "lat": 44.866669}}, {"id": 3004238, "name": "Le Fief-Sauvin", "state": "", "country": "FR", "coord": {"lon": -1.04214, "lat": 47.221432}}, {"id": 3004244, "name": "Leffrinckoucke", "state": "", "country": "FR", "coord": {"lon": 2.46452, "lat": 51.034569}}, {"id": 3004248, "name": "Leffard", "state": "", "country": "FR", "coord": {"lon": -0.30462, "lat": 48.917019}}, {"id": 3004258, "name": "Le Fenouiller", "state": "", "country": "FR", "coord": {"lon": -1.90175, "lat": 46.719009}}, {"id": 3004268, "name": "Le Fayet", "state": "", "country": "FR", "coord": {"lon": 2.55, "lat": 45.25}}, {"id": 3004293, "name": "Le Faulq", "state": "", "country": "FR", "coord": {"lon": 0.32109, "lat": 49.227692}}, {"id": 3004294, "name": "Le Fauga", "state": "", "country": "FR", "coord": {"lon": 1.29571, "lat": 43.396191}}, {"id": 3004304, "name": "Le Faou\u00ebt", "state": "", "country": "FR", "coord": {"lon": -3.49048, "lat": 48.03299}}, {"id": 3004306, "name": "Le Faou", "state": "", "country": "FR", "coord": {"lon": -4.17927, "lat": 48.294559}}, {"id": 3004308, "name": "Le Falgoux", "state": "", "country": "FR", "coord": {"lon": 2.61667, "lat": 45.150002}}, {"id": 3004312, "name": "L\u00e9es", "state": "", "country": "FR", "coord": {"lon": -0.61667, "lat": 42.966671}}, {"id": 3004314, "name": "Leers", "state": "", "country": "FR", "coord": {"lon": 3.24429, "lat": 50.682171}}, {"id": 3004321, "name": "Le Drennec", "state": "", "country": "FR", "coord": {"lon": -4.37008, "lat": 48.534752}}, {"id": 3004326, "name": "Le Doulieu", "state": "", "country": "FR", "coord": {"lon": 2.71741, "lat": 50.681938}}, {"id": 3004334, "name": "Le Dorat", "state": "", "country": "FR", "coord": {"lon": 1.08152, "lat": 46.215141}}, {"id": 3004337, "name": "Le Donjon", "state": "", "country": "FR", "coord": {"lon": 3.79506, "lat": 46.35062}}, {"id": 3004346, "name": "L\u00e9dignan", "state": "", "country": "FR", "coord": {"lon": 4.10644, "lat": 43.9869}}, {"id": 3004350, "name": "Ledeuix", "state": "", "country": "FR", "coord": {"lon": -0.61667, "lat": 43.216671}}, {"id": 3004359, "name": "L\u00e9denon", "state": "", "country": "FR", "coord": {"lon": 4.51444, "lat": 43.91349}}, {"id": 3004372, "name": "L\u00e9dat", "state": "", "country": "FR", "coord": {"lon": 0.66987, "lat": 44.452839}}, {"id": 3004381, "name": "Lectoure", "state": "", "country": "FR", "coord": {"lon": 0.62107, "lat": 43.934639}}, {"id": 3004398, "name": "Le Crotoy", "state": "", "country": "FR", "coord": {"lon": 1.625, "lat": 50.216}}, {"id": 3004418, "name": "Le Croisic", "state": "", "country": "FR", "coord": {"lon": -2.5138, "lat": 47.291889}}, {"id": 3004427, "name": "Le Creusot", "state": "", "country": "FR", "coord": {"lon": 4.41632, "lat": 46.80714}}, {"id": 3004433, "name": "Le Crest", "state": "", "country": "FR", "coord": {"lon": 3.12844, "lat": 45.686871}}, {"id": 3004434, "name": "Le Cr\u00e8s", "state": "", "country": "FR", "coord": {"lon": 3.93976, "lat": 43.648071}}, {"id": 3004444, "name": "L\u00e9cousse", "state": "", "country": "FR", "coord": {"lon": -1.21289, "lat": 48.364578}}, {"id": 3004464, "name": "Le Coudray-Montceaux", "state": "", "country": "FR", "coord": {"lon": 2.50012, "lat": 48.563759}}, {"id": 3004471, "name": "Le Coudray", "state": "", "country": "FR", "coord": {"lon": 1.50057, "lat": 48.42115}}, {"id": 3004492, "name": "Le Coteau", "state": "", "country": "FR", "coord": {"lon": 4.0869, "lat": 46.027061}}, {"id": 3004513, "name": "Le Conquet", "state": "", "country": "FR", "coord": {"lon": -4.77086, "lat": 48.360531}}, {"id": 3004545, "name": "L\u00e9cluse", "state": "", "country": "FR", "coord": {"lon": 3.04045, "lat": 50.276711}}, {"id": 3004579, "name": "Le Claux", "state": "", "country": "FR", "coord": {"lon": 2.70469, "lat": 45.158482}}, {"id": 3004582, "name": "L'Eclause", "state": "", "country": "FR", "coord": {"lon": 2.51667, "lat": 45.883331}}, {"id": 3004585, "name": "Le Clapier", "state": "", "country": "FR", "coord": {"lon": 0.97861, "lat": 44.84346}}, {"id": 3004608, "name": "Le Cheylas", "state": "", "country": "FR", "coord": {"lon": 5.99376, "lat": 45.373692}}, {"id": 3004609, "name": "Le Cheylard", "state": "", "country": "FR", "coord": {"lon": 4.42406, "lat": 44.906231}}, {"id": 3004630, "name": "Le Chesnay", "state": "", "country": "FR", "coord": {"lon": 2.12213, "lat": 48.822201}}, {"id": 3004631, "name": "Le Chesnay", "state": "", "country": "FR", "coord": {"lon": 2.1085, "lat": 48.456909}}, {"id": 3004647, "name": "Le Ch\u00eane", "state": "", "country": "FR", "coord": {"lon": 4.25178, "lat": 45.271919}}, {"id": 3004665, "name": "Le Cheix", "state": "", "country": "FR", "coord": {"lon": 2.86443, "lat": 45.8745}}, {"id": 3004668, "name": "Le Chefresne", "state": "", "country": "FR", "coord": {"lon": -1.15464, "lat": 48.902981}}, {"id": 3004698, "name": "Le Ch\u00e2telet-en-Brie", "state": "", "country": "FR", "coord": {"lon": 2.79163, "lat": 48.50695}}, {"id": 3004703, "name": "Le Ch\u00e2telet", "state": "", "country": "FR", "coord": {"lon": 2.28229, "lat": 46.642471}}, {"id": 3004717, "name": "Le Ch\u00e2teau-d'Almen\u00eaches", "state": "", "country": "FR", "coord": {"lon": 0.12255, "lat": 48.678638}}, {"id": 3004763, "name": "Le Champ-Saint-P\u00e8re", "state": "", "country": "FR", "coord": {"lon": -1.34726, "lat": 46.507729}}, {"id": 3004764, "name": "Le Champ-pr\u00e8s-Froges", "state": "", "country": "FR", "coord": {"lon": 5.93966, "lat": 45.281052}}, {"id": 3004774, "name": "Le Chambon-sur-Lignon", "state": "", "country": "FR", "coord": {"lon": 4.30314, "lat": 45.060791}}, {"id": 3004775, "name": "Le Chambon-Feugerolles", "state": "", "country": "FR", "coord": {"lon": 4.32592, "lat": 45.396889}}, {"id": 3004780, "name": "Le Chambon", "state": "", "country": "FR", "coord": {"lon": 2.43333, "lat": 45.200001}}, {"id": 3004784, "name": "Le Chambon", "state": "", "country": "FR", "coord": {"lon": 4.28333, "lat": 44.866669}}, {"id": 3004807, "name": "Le Cessac", "state": "", "country": "FR", "coord": {"lon": 0.38739, "lat": 44.71806}}, {"id": 3004810, "name": "Le Cercueil", "state": "", "country": "FR", "coord": {"lon": 0.02259, "lat": 48.59724}}, {"id": 3004811, "name": "Le Cendre", "state": "", "country": "FR", "coord": {"lon": 3.18839, "lat": 45.72118}}, {"id": 3004813, "name": "Le Cellier", "state": "", "country": "FR", "coord": {"lon": -1.34584, "lat": 47.319881}}, {"id": 3004814, "name": "Lecelles", "state": "", "country": "FR", "coord": {"lon": 3.40096, "lat": 50.467789}}, {"id": 3004829, "name": "L\u00e9caude", "state": "", "country": "FR", "coord": {"lon": 0.07371, "lat": 49.10405}}, {"id": 3004835, "name": "Le Cateau-Cambr\u00e9sis", "state": "", "country": "FR", "coord": {"lon": 3.55, "lat": 50.099998}}, {"id": 3004838, "name": "Le Castellet", "state": "", "country": "FR", "coord": {"lon": 5.77642, "lat": 43.20285}}, {"id": 3004866, "name": "Le Cap d'Agde", "state": "", "country": "FR", "coord": {"lon": 3.51357, "lat": 43.277962}}, {"id": 3004870, "name": "Le Cannet-des-Maures", "state": "", "country": "FR", "coord": {"lon": 6.34165, "lat": 43.392719}}, {"id": 3004871, "name": "Le Cannet", "state": "", "country": "FR", "coord": {"lon": 7.01912, "lat": 43.576618}}, {"id": 3004891, "name": "Le Cailar", "state": "", "country": "FR", "coord": {"lon": 4.23576, "lat": 43.67923}}, {"id": 3004929, "name": "Le Buisson-de-Cadouin", "state": "", "country": "FR", "coord": {"lon": 0.91667, "lat": 44.849998}}, {"id": 3004935, "name": "Le Bugue", "state": "", "country": "FR", "coord": {"lon": 0.92714, "lat": 44.918468}}, {"id": 3004941, "name": "Le Brusquet", "state": "", "country": "FR", "coord": {"lon": 6.31143, "lat": 44.16143}}, {"id": 3004948, "name": "Le Brugeron", "state": "", "country": "FR", "coord": {"lon": 3.71985, "lat": 45.711891}}, {"id": 3004954, "name": "Le Brous", "state": "", "country": "FR", "coord": {"lon": -0.73064, "lat": 44.337521}}, {"id": 3004956, "name": "Le Brouillard", "state": "", "country": "FR", "coord": {"lon": 0.87975, "lat": 48.388378}}, {"id": 3004962, "name": "Le Broc", "state": "", "country": "FR", "coord": {"lon": 3.24488, "lat": 45.500721}}, {"id": 3004963, "name": "Le Broc", "state": "", "country": "FR", "coord": {"lon": 7.16928, "lat": 43.80843}}, {"id": 3004982, "name": "Le Br\u00e9vedent", "state": "", "country": "FR", "coord": {"lon": 0.30032, "lat": 49.226398}}, {"id": 3004983, "name": "Le Breuil-sur-Couze", "state": "", "country": "FR", "coord": {"lon": 3.26344, "lat": 45.468861}}, {"id": 3005001, "name": "Le Breuil", "state": "", "country": "FR", "coord": {"lon": 4.46953, "lat": 46.806541}}, {"id": 3005019, "name": "Le Breuil", "state": "", "country": "FR", "coord": {"lon": 0.60771, "lat": 45.130901}}, {"id": 3005026, "name": "Le Brethon", "state": "", "country": "FR", "coord": {"lon": 2.71752, "lat": 46.570469}}, {"id": 3005028, "name": "Le Breil-sur-M\u00e9rize", "state": "", "country": "FR", "coord": {"lon": 0.47808, "lat": 48.007549}}, {"id": 3005046, "name": "Le Bradet", "state": "", "country": "FR", "coord": {"lon": 1.17335, "lat": 44.684029}}, {"id": 3005062, "name": "Le Bousquet", "state": "", "country": "FR", "coord": {"lon": 2.43441, "lat": 44.89101}}, {"id": 3005066, "name": "Le Bouscat", "state": "", "country": "FR", "coord": {"lon": -0.59411, "lat": 44.866001}}, {"id": 3005075, "name": "Le Bourgnon", "state": "", "country": "FR", "coord": {"lon": 2.2287, "lat": 46.125309}}, {"id": 3005076, "name": "Le Bourgneuf-la-For\u00eat", "state": "", "country": "FR", "coord": {"lon": -0.96963, "lat": 48.16325}}, {"id": 3005081, "name": "Le Bourget-du-Lac", "state": "", "country": "FR", "coord": {"lon": 5.86085, "lat": 45.64756}}, {"id": 3005082, "name": "Le Bourget", "state": "", "country": "FR", "coord": {"lon": 2.43584, "lat": 48.934052}}, {"id": 3005098, "name": "Le Bourdeix", "state": "", "country": "FR", "coord": {"lon": 0.63419, "lat": 45.58786}}, {"id": 3005099, "name": "Le Boup\u00e8re", "state": "", "country": "FR", "coord": {"lon": -0.92654, "lat": 46.795952}}, {"id": 3005102, "name": "el Vol\u00f3", "state": "", "country": "FR", "coord": {"lon": 2.83336, "lat": 42.524239}}, {"id": 3005112, "name": "Le Boulay", "state": "", "country": "FR", "coord": {"lon": 1.04988, "lat": 49.591599}}, {"id": 3005140, "name": "Le Bouillon", "state": "", "country": "FR", "coord": {"lon": 0.10256, "lat": 48.563}}, {"id": 3005164, "name": "Le Boucheix", "state": "", "country": "FR", "coord": {"lon": 2.77998, "lat": 45.410889}}, {"id": 3005168, "name": "Le Bouchaud", "state": "", "country": "FR", "coord": {"lon": 3.89888, "lat": 46.307259}}, {"id": 3005182, "name": "Le Bosc-Roger-en-Roumois", "state": "", "country": "FR", "coord": {"lon": 0.93333, "lat": 49.283329}}, {"id": 3005183, "name": "Le Bosc-Renoult", "state": "", "country": "FR", "coord": {"lon": 0.32126, "lat": 48.916512}}, {"id": 3005202, "name": "Le Bono", "state": "", "country": "FR", "coord": {"lon": -2.94902, "lat": 47.641289}}, {"id": 3005218, "name": "Le Bois-Plage-en-R\u00e9", "state": "", "country": "FR", "coord": {"lon": -1.39267, "lat": 46.186588}}, {"id": 3005261, "name": "Le Bloteau", "state": "", "country": "FR", "coord": {"lon": 0.5359, "lat": 48.281021}}, {"id": 3005269, "name": "Le Blanc-Mesnil", "state": "", "country": "FR", "coord": {"lon": 2.46138, "lat": 48.938721}}, {"id": 3005270, "name": "Le Blanc", "state": "", "country": "FR", "coord": {"lon": 1.06667, "lat": 46.633331}}, {"id": 3005282, "name": "Le Bignon", "state": "", "country": "FR", "coord": {"lon": -1.49167, "lat": 47.097221}}, {"id": 3005326, "name": "Le Beausset", "state": "", "country": "FR", "coord": {"lon": 5.80156, "lat": 43.198528}}, {"id": 3005336, "name": "Le Baylet", "state": "", "country": "FR", "coord": {"lon": 0.54954, "lat": 44.787121}}, {"id": 3005360, "name": "Le Barp", "state": "", "country": "FR", "coord": {"lon": -0.76948, "lat": 44.60833}}, {"id": 3005364, "name": "Le Barcar\u00e8s", "state": "", "country": "FR", "coord": {"lon": 3.03565, "lat": 42.788052}}, {"id": 3005381, "name": "Le Babory", "state": "", "country": "FR", "coord": {"lon": 3.18737, "lat": 45.310558}}, {"id": 3005397, "name": "Lay-Saint-Christophe", "state": "", "country": "FR", "coord": {"lon": 6.19776, "lat": 48.748669}}, {"id": 3005401, "name": "Layrac", "state": "", "country": "FR", "coord": {"lon": 0.66176, "lat": 44.134491}}, {"id": 3005417, "name": "Laxou", "state": "", "country": "FR", "coord": {"lon": 6.148, "lat": 48.683151}}, {"id": 3005422, "name": "La Wantzenau", "state": "", "country": "FR", "coord": {"lon": 7.83068, "lat": 48.65786}}, {"id": 3005425, "name": "La Vraie-Croix", "state": "", "country": "FR", "coord": {"lon": -2.54274, "lat": 47.689541}}, {"id": 3005429, "name": "Lavoux", "state": "", "country": "FR", "coord": {"lon": 0.53012, "lat": 46.595661}}, {"id": 3005431, "name": "Lavo\u00fbte-sur-Loire", "state": "", "country": "FR", "coord": {"lon": 3.90634, "lat": 45.118629}}, {"id": 3005435, "name": "La Voulte-sur-Rh\u00f4ne", "state": "", "country": "FR", "coord": {"lon": 4.7716, "lat": 44.80072}}, {"id": 3005446, "name": "Lavoine", "state": "", "country": "FR", "coord": {"lon": 3.69882, "lat": 45.97905}}, {"id": 3005450, "name": "Lavit", "state": "", "country": "FR", "coord": {"lon": 0.9201, "lat": 43.956741}}, {"id": 3005524, "name": "La Ville-du-Bois", "state": "", "country": "FR", "coord": {"lon": 2.26833, "lat": 48.655209}}, {"id": 3005527, "name": "La Villedieu-du-Clain", "state": "", "country": "FR", "coord": {"lon": 0.36917, "lat": 46.455589}}, {"id": 3005529, "name": "La Villedieu", "state": "", "country": "FR", "coord": {"lon": 4.42496, "lat": 46.795181}}, {"id": 3005534, "name": "Lavilledieu", "state": "", "country": "FR", "coord": {"lon": 4.4547, "lat": 44.574558}}, {"id": 3005540, "name": "La Ville-aux-Dames", "state": "", "country": "FR", "coord": {"lon": 0.76837, "lat": 47.395512}}, {"id": 3005541, "name": "La Ville-aux-Clercs", "state": "", "country": "FR", "coord": {"lon": 1.08521, "lat": 47.91835}}, {"id": 3005547, "name": "Laville-aux-Bois", "state": "", "country": "FR", "coord": {"lon": 5.23056, "lat": 48.095459}}, {"id": 3005571, "name": "Lavigerie", "state": "", "country": "FR", "coord": {"lon": 2.74847, "lat": 45.139191}}, {"id": 3005584, "name": "La Vieille Poste", "state": "", "country": "FR", "coord": {"lon": 2.36667, "lat": 48.73333}}, {"id": 3005603, "name": "Lavialle", "state": "", "country": "FR", "coord": {"lon": 3.41532, "lat": 45.416}}, {"id": 3005630, "name": "La Vespi\u00e8re", "state": "", "country": "FR", "coord": {"lon": 0.4125, "lat": 49.019741}}, {"id": 3005632, "name": "Lav\u00e9rune", "state": "", "country": "FR", "coord": {"lon": 3.80611, "lat": 43.586391}}, {"id": 3005639, "name": "La Verri\u00e8re", "state": "", "country": "FR", "coord": {"lon": 1.94649, "lat": 48.751999}}, {"id": 3005640, "name": "La Verrie", "state": "", "country": "FR", "coord": {"lon": -0.99596, "lat": 46.961311}}, {"id": 3005646, "name": "La Verrerie", "state": "", "country": "FR", "coord": {"lon": 5.08726, "lat": 45.41375}}, {"id": 3005651, "name": "La Verpilli\u00e8re", "state": "", "country": "FR", "coord": {"lon": 5.14151, "lat": 45.636471}}, {"id": 3005675, "name": "Lavergne", "state": "", "country": "FR", "coord": {"lon": 2.83396, "lat": 45.385109}}, {"id": 3005696, "name": "Laventie", "state": "", "country": "FR", "coord": {"lon": 2.77076, "lat": 50.628181}}, {"id": 3005712, "name": "Lavelanet", "state": "", "country": "FR", "coord": {"lon": 1.84656, "lat": 42.931271}}, {"id": 3005714, "name": "Laveissi\u00e8re", "state": "", "country": "FR", "coord": {"lon": 2.80752, "lat": 45.116299}}, {"id": 3005715, "name": "Laveissenet", "state": "", "country": "FR", "coord": {"lon": 2.88889, "lat": 45.081921}}, {"id": 3005735, "name": "Lavaur", "state": "", "country": "FR", "coord": {"lon": 1.81858, "lat": 43.698471}}, {"id": 3005736, "name": "La Vaupali\u00e8re", "state": "", "country": "FR", "coord": {"lon": 0.9963, "lat": 49.487888}}, {"id": 3005737, "name": "Lavault-Sainte-Anne", "state": "", "country": "FR", "coord": {"lon": 2.6, "lat": 46.316669}}, {"id": 3005741, "name": "Lavaudieu", "state": "", "country": "FR", "coord": {"lon": 3.45463, "lat": 45.26236}}, {"id": 3005743, "name": "Lavaud", "state": "", "country": "FR", "coord": {"lon": 2.21667, "lat": 46.283329}}, {"id": 3005756, "name": "Lavastrie", "state": "", "country": "FR", "coord": {"lon": 3.04383, "lat": 44.935532}}, {"id": 3005763, "name": "La Varenne", "state": "", "country": "FR", "coord": {"lon": -1.31976, "lat": 47.311069}}, {"id": 3005767, "name": "Lavardens", "state": "", "country": "FR", "coord": {"lon": 0.51207, "lat": 43.760479}}, {"id": 3005768, "name": "La Varde", "state": "", "country": "FR", "coord": {"lon": -1.28275, "lat": 49.208092}}, {"id": 3005769, "name": "Lavardac", "state": "", "country": "FR", "coord": {"lon": 0.29825, "lat": 44.177849}}, {"id": 3005775, "name": "Lavans-l\u00e8s-Saint-Claude", "state": "", "country": "FR", "coord": {"lon": 5.78172, "lat": 46.384838}}, {"id": 3005792, "name": "Laval-Pradel", "state": "", "country": "FR", "coord": {"lon": 4.06591, "lat": 44.20665}}, {"id": 3005825, "name": "La Valette-du-Var", "state": "", "country": "FR", "coord": {"lon": 5.98314, "lat": 43.137409}}, {"id": 3005839, "name": "Lavalette", "state": "", "country": "FR", "coord": {"lon": 2.26825, "lat": 43.18428}}, {"id": 3005865, "name": "Arrondissement de Laval", "state": "", "country": "FR", "coord": {"lon": -0.66667, "lat": 48.083328}}, {"id": 3005866, "name": "Laval", "state": "", "country": "FR", "coord": {"lon": -0.76667, "lat": 48.066669}}, {"id": 3005888, "name": "La Vacquerie", "state": "", "country": "FR", "coord": {"lon": -0.85899, "lat": 49.093601}}, {"id": 3005901, "name": "Lauzun", "state": "", "country": "FR", "coord": {"lon": 0.4615, "lat": 44.629662}}, {"id": 3005915, "name": "Lauzerte", "state": "", "country": "FR", "coord": {"lon": 1.13817, "lat": 44.255348}}, {"id": 3005917, "name": "Lauzellie", "state": "", "country": "FR", "coord": {"lon": 0.75721, "lat": 45.067402}}, {"id": 3005932, "name": "Lauwin-Planque", "state": "", "country": "FR", "coord": {"lon": 3.0451, "lat": 50.39024}}, {"id": 3005943, "name": "Lautrec", "state": "", "country": "FR", "coord": {"lon": 2.13925, "lat": 43.70591}}, {"id": 3005949, "name": "Lautenbachzell", "state": "", "country": "FR", "coord": {"lon": 7.14643, "lat": 47.941238}}, {"id": 3005950, "name": "Lautenbach", "state": "", "country": "FR", "coord": {"lon": 7.15768, "lat": 47.940552}}, {"id": 3005955, "name": "Laussou", "state": "", "country": "FR", "coord": {"lon": 0.80627, "lat": 44.582802}}, {"id": 3005956, "name": "Laussonne", "state": "", "country": "FR", "coord": {"lon": 4.05272, "lat": 44.96941}}, {"id": 3005966, "name": "Lauris", "state": "", "country": "FR", "coord": {"lon": 5.31518, "lat": 43.74799}}, {"id": 3005975, "name": "Lauret", "state": "", "country": "FR", "coord": {"lon": -0.34256, "lat": 43.562408}}, {"id": 3005979, "name": "Laurens", "state": "", "country": "FR", "coord": {"lon": 3.19714, "lat": 43.522381}}, {"id": 3005983, "name": "Laure-Minervois", "state": "", "country": "FR", "coord": {"lon": 2.52031, "lat": 43.271061}}, {"id": 3005984, "name": "Laur\u00e8de", "state": "", "country": "FR", "coord": {"lon": -0.79214, "lat": 43.755829}}, {"id": 3006022, "name": "Launay", "state": "", "country": "FR", "coord": {"lon": 0.51667, "lat": 48.75}}, {"id": 3006023, "name": "L'Aunay", "state": "", "country": "FR", "coord": {"lon": 0.37585, "lat": 48.732658}}, {"id": 3006035, "name": "Launaguet", "state": "", "country": "FR", "coord": {"lon": 1.45603, "lat": 43.678181}}, {"id": 3006036, "name": "Launac", "state": "", "country": "FR", "coord": {"lon": 1.18172, "lat": 43.743568}}, {"id": 3006056, "name": "Laudun-l'Ardoise", "state": "", "country": "FR", "coord": {"lon": 4.66667, "lat": 44.099998}}, {"id": 3006062, "name": "Laudigerie", "state": "", "country": "FR", "coord": {"lon": 1.17129, "lat": 45.09866}}, {"id": 3006063, "name": "Laudeux", "state": "", "country": "FR", "coord": {"lon": 2.4411, "lat": 45.84021}}, {"id": 3006089, "name": "La Turbie", "state": "", "country": "FR", "coord": {"lon": 7.40101, "lat": 43.74514}}, {"id": 3006090, "name": "La Turballe", "state": "", "country": "FR", "coord": {"lon": -2.50734, "lat": 47.346859}}, {"id": 3006092, "name": "La Tuque", "state": "", "country": "FR", "coord": {"lon": 0.52874, "lat": 44.560631}}, {"id": 3006121, "name": "Lattes", "state": "", "country": "FR", "coord": {"lon": 3.9046, "lat": 43.56752}}, {"id": 3006131, "name": "La Tronche", "state": "", "country": "FR", "coord": {"lon": 5.73645, "lat": 45.204288}}, {"id": 3006137, "name": "La Trinit\u00e9-sur-Mer", "state": "", "country": "FR", "coord": {"lon": -3.02994, "lat": 47.5868}}, {"id": 3006142, "name": "La Trinit\u00e9-des-Laitiers", "state": "", "country": "FR", "coord": {"lon": 0.37818, "lat": 48.797218}}, {"id": 3006152, "name": "La Trinit\u00e9", "state": "", "country": "FR", "coord": {"lon": 7.31353, "lat": 43.741489}}, {"id": 3006161, "name": "Latresne", "state": "", "country": "FR", "coord": {"lon": -0.48994, "lat": 44.786011}}, {"id": 3006170, "name": "La Tremblade", "state": "", "country": "FR", "coord": {"lon": -1.14266, "lat": 45.768059}}, {"id": 3006183, "name": "La Tranche-sur-Mer", "state": "", "country": "FR", "coord": {"lon": -1.437, "lat": 46.342999}}, {"id": 3006188, "name": "La Tour-sur-Orb", "state": "", "country": "FR", "coord": {"lon": 3.15071, "lat": 43.651859}}, {"id": 3006196, "name": "La Tourlandry", "state": "", "country": "FR", "coord": {"lon": -0.69688, "lat": 47.143761}}, {"id": 3006200, "name": "La Tour-en-Jarez", "state": "", "country": "FR", "coord": {"lon": 4.38759, "lat": 45.485229}}, {"id": 3006201, "name": "Arrondissement de La Tour-du-Pin", "state": "", "country": "FR", "coord": {"lon": 5.41667, "lat": 45.583328}}, {"id": 3006202, "name": "La Tour-du-Pin", "state": "", "country": "FR", "coord": {"lon": 5.45, "lat": 45.566669}}, {"id": 3006205, "name": "La Tour-du-Crieu", "state": "", "country": "FR", "coord": {"lon": 1.65275, "lat": 43.10471}}, {"id": 3006207, "name": "La Tour-de-Salvagny", "state": "", "country": "FR", "coord": {"lon": 4.71626, "lat": 45.812328}}, {"id": 3006211, "name": "La Tour-d'Auvergne", "state": "", "country": "FR", "coord": {"lon": 2.69007, "lat": 45.533321}}, {"id": 3006214, "name": "La Tour-Blanche", "state": "", "country": "FR", "coord": {"lon": 0.44657, "lat": 45.365929}}, {"id": 3006215, "name": "Latour-Bas-Elne", "state": "", "country": "FR", "coord": {"lon": 3.00201, "lat": 42.606461}}, {"id": 3006219, "name": "La Tour", "state": "", "country": "FR", "coord": {"lon": 6.42933, "lat": 46.13448}}, {"id": 3006262, "name": "Latill\u00e9", "state": "", "country": "FR", "coord": {"lon": 0.0763, "lat": 46.618179}}, {"id": 3006265, "name": "Lathus-Saint-R\u00e9my", "state": "", "country": "FR", "coord": {"lon": 0.96667, "lat": 46.333328}}, {"id": 3006283, "name": "La Teste-de-Buch", "state": "", "country": "FR", "coord": {"lon": -1.14059, "lat": 44.62875}}, {"id": 3006285, "name": "La Tessoualle", "state": "", "country": "FR", "coord": {"lon": -0.85119, "lat": 47.004761}}, {"id": 3006286, "name": "La Terrisse", "state": "", "country": "FR", "coord": {"lon": 2.98265, "lat": 45.283489}}, {"id": 3006293, "name": "La Terrasse", "state": "", "country": "FR", "coord": {"lon": 5.93277, "lat": 45.32634}}, {"id": 3006313, "name": "La Tardi\u00e8re", "state": "", "country": "FR", "coord": {"lon": -0.73143, "lat": 46.660961}}, {"id": 3006319, "name": "La Talerie", "state": "", "country": "FR", "coord": {"lon": 1.28281, "lat": 45.12051}}, {"id": 3006320, "name": "La Talaudi\u00e8re", "state": "", "country": "FR", "coord": {"lon": 4.43173, "lat": 45.480942}}, {"id": 3006330, "name": "La Suze-sur-Sarthe", "state": "", "country": "FR", "coord": {"lon": 0.02519, "lat": 47.887531}}, {"id": 3006336, "name": "La Such\u00e8re", "state": "", "country": "FR", "coord": {"lon": 4.29757, "lat": 45.042461}}, {"id": 3006344, "name": "Lastic", "state": "", "country": "FR", "coord": {"lon": 3.20998, "lat": 45.112381}}, {"id": 3006345, "name": "Lastelle", "state": "", "country": "FR", "coord": {"lon": -1.45592, "lat": 49.27285}}, {"id": 3006348, "name": "Lassy", "state": "", "country": "FR", "coord": {"lon": -0.67785, "lat": 48.915001}}, {"id": 3006349, "name": "Lassy", "state": "", "country": "FR", "coord": {"lon": -1.8719, "lat": 47.978291}}, {"id": 3006354, "name": "Lasson", "state": "", "country": "FR", "coord": {"lon": -0.46336, "lat": 49.23407}}, {"id": 3006358, "name": "Lassigny", "state": "", "country": "FR", "coord": {"lon": 2.84289, "lat": 49.58828}}, {"id": 3006361, "name": "Lasseubetat", "state": "", "country": "FR", "coord": {"lon": -0.45, "lat": 43.166672}}, {"id": 3006363, "name": "Lasseube", "state": "", "country": "FR", "coord": {"lon": -0.48333, "lat": 43.23333}}, {"id": 3006376, "name": "Lasse", "state": "", "country": "FR", "coord": {"lon": -1.26177, "lat": 43.156651}}, {"id": 3006380, "name": "Lassay-les-Ch\u00e2teaux", "state": "", "country": "FR", "coord": {"lon": -0.49758, "lat": 48.438351}}, {"id": 3006385, "name": "La Souys", "state": "", "country": "FR", "coord": {"lon": -0.52591, "lat": 44.83086}}, {"id": 3006387, "name": "La Souterraine", "state": "", "country": "FR", "coord": {"lon": 1.48701, "lat": 46.237141}}, {"id": 3006414, "name": "La Seyne-sur-Mer", "state": "", "country": "FR", "coord": {"lon": 5.88472, "lat": 43.098179}}, {"id": 3006430, "name": "La Sentinelle", "state": "", "country": "FR", "coord": {"lon": 3.48425, "lat": 50.351151}}, {"id": 3006439, "name": "La Selle-la-Forge", "state": "", "country": "FR", "coord": {"lon": -0.54103, "lat": 48.732948}}, {"id": 3006454, "name": "La S\u00e9guini\u00e8re", "state": "", "country": "FR", "coord": {"lon": -0.93857, "lat": 47.063568}}, {"id": 3006456, "name": "La S\u00e9galassi\u00e8re", "state": "", "country": "FR", "coord": {"lon": 2.20893, "lat": 44.891899}}, {"id": 3006458, "name": "La S\u00e9auve-sur-Sem\u00e8ne", "state": "", "country": "FR", "coord": {"lon": 4.25318, "lat": 45.29702}}, {"id": 3006463, "name": "Lascombes", "state": "", "country": "FR", "coord": {"lon": 2.86428, "lat": 45.367882}}, {"id": 3006466, "name": "Lasclaveries", "state": "", "country": "FR", "coord": {"lon": -0.28333, "lat": 43.433331}}, {"id": 3006493, "name": "La Sauvetat", "state": "", "country": "FR", "coord": {"lon": 3.8504, "lat": 44.849041}}, {"id": 3006497, "name": "La Sauve", "state": "", "country": "FR", "coord": {"lon": -0.31667, "lat": 44.76667}}, {"id": 3006502, "name": "La Saussaye", "state": "", "country": "FR", "coord": {"lon": 0.98094, "lat": 49.259361}}, {"id": 3006524, "name": "La Salvetat-Peyral\u00e8s", "state": "", "country": "FR", "coord": {"lon": 2.20297, "lat": 44.219398}}, {"id": 3006527, "name": "La Salvetat", "state": "", "country": "FR", "coord": {"lon": 2.3412, "lat": 44.837849}}, {"id": 3006528, "name": "La Salvetat", "state": "", "country": "FR", "coord": {"lon": 0.89339, "lat": 44.793221}}, {"id": 3006530, "name": "La Salvetat-sur-Agout", "state": "", "country": "FR", "coord": {"lon": 2.71667, "lat": 43.599998}}, {"id": 3006531, "name": "La Salvetat-Saint-Gilles", "state": "", "country": "FR", "coord": {"lon": 1.27192, "lat": 43.576221}}, {"id": 3006534, "name": "La Salle-et-Chapelle-Aubry", "state": "", "country": "FR", "coord": {"lon": -0.97512, "lat": 47.25013}}, {"id": 3006543, "name": "Lasalle", "state": "", "country": "FR", "coord": {"lon": 3.85477, "lat": 44.0453}}, {"id": 3006570, "name": "Laruscade", "state": "", "country": "FR", "coord": {"lon": -0.33333, "lat": 45.116669}}, {"id": 3006572, "name": "Laruns", "state": "", "country": "FR", "coord": {"lon": -0.42658, "lat": 42.988258}}, {"id": 3006603, "name": "Lartigue", "state": "", "country": "FR", "coord": {"lon": -0.09565, "lat": 44.251591}}, {"id": 3006616, "name": "Larrivi\u00e8re-Saint-Savin", "state": "", "country": "FR", "coord": {"lon": -0.41667, "lat": 43.76667}}, {"id": 3006617, "name": "Larringes", "state": "", "country": "FR", "coord": {"lon": 6.57318, "lat": 46.367371}}, {"id": 3006622, "name": "Larrey", "state": "", "country": "FR", "coord": {"lon": 5.01667, "lat": 47.316669}}, {"id": 3006627, "name": "Larressore", "state": "", "country": "FR", "coord": {"lon": -1.43976, "lat": 43.36792}}, {"id": 3006641, "name": "La Roux", "state": "", "country": "FR", "coord": {"lon": 3.87871, "lat": 45.187611}}, {"id": 3006650, "name": "La Roussi\u00e8re", "state": "", "country": "FR", "coord": {"lon": 1.6, "lat": 48.966671}}, {"id": 3006670, "name": "La Rougi\u00e8re", "state": "", "country": "FR", "coord": {"lon": 2.2, "lat": 44.716671}}, {"id": 3006690, "name": "La Roquette-sur-Siagne", "state": "", "country": "FR", "coord": {"lon": 6.95705, "lat": 43.59948}}, {"id": 3006693, "name": "Laroque-Timbaut", "state": "", "country": "FR", "coord": {"lon": 0.76274, "lat": 44.282379}}, {"id": 3006697, "name": "La Roque-Gageac", "state": "", "country": "FR", "coord": {"lon": 1.18343, "lat": 44.82513}}, {"id": 3006701, "name": "la Roca d'Albera", "state": "", "country": "FR", "coord": {"lon": 2.93374, "lat": 42.521301}}, {"id": 3006704, "name": "La Roquebrussanne", "state": "", "country": "FR", "coord": {"lon": 5.97618, "lat": 43.33989}}, {"id": 3006705, "name": "Laroquebrou", "state": "", "country": "FR", "coord": {"lon": 2.19393, "lat": 44.967281}}, {"id": 3006711, "name": "Laroque", "state": "", "country": "FR", "coord": {"lon": 3.72397, "lat": 43.923199}}, {"id": 3006739, "name": "La Romagne", "state": "", "country": "FR", "coord": {"lon": -1.02, "lat": 47.061192}}, {"id": 3006747, "name": "Larodde", "state": "", "country": "FR", "coord": {"lon": 2.55, "lat": 45.533329}}, {"id": 3006751, "name": "La Roche-Vineuse", "state": "", "country": "FR", "coord": {"lon": 4.72023, "lat": 46.345242}}, {"id": 3006755, "name": "La Rochette", "state": "", "country": "FR", "coord": {"lon": 2.66357, "lat": 48.50882}}, {"id": 3006758, "name": "La Rochette", "state": "", "country": "FR", "coord": {"lon": 6.12065, "lat": 45.460251}}, {"id": 3006766, "name": "Arrondissement de La Roche-sur-Yon", "state": "", "country": "FR", "coord": {"lon": -1.33333, "lat": 46.75}}, {"id": 3006767, "name": "La Roche-sur-Yon", "state": "", "country": "FR", "coord": {"lon": -1.43333, "lat": 46.666672}}, {"id": 3006770, "name": "La Roche-sur-Foron", "state": "", "country": "FR", "coord": {"lon": 6.31224, "lat": 46.066601}}, {"id": 3006771, "name": "Laroche-Saint-Cydroine", "state": "", "country": "FR", "coord": {"lon": 3.48467, "lat": 47.96801}}, {"id": 3006775, "name": "La Roche-Posay", "state": "", "country": "FR", "coord": {"lon": 0.81354, "lat": 46.786541}}, {"id": 3006779, "name": "Larochemillay", "state": "", "country": "FR", "coord": {"lon": 4.00274, "lat": 46.876789}}, {"id": 3006780, "name": "La Roche-Maurice", "state": "", "country": "FR", "coord": {"lon": -4.20211, "lat": 48.474548}}, {"id": 3006783, "name": "Arrondissement de La Rochelle", "state": "", "country": "FR", "coord": {"lon": -1.0, "lat": 46.25}}, {"id": 3006787, "name": "La Rochelle", "state": "", "country": "FR", "coord": {"lon": -1.15, "lat": 46.166672}}, {"id": 3006793, "name": "La Rochefoucauld", "state": "", "country": "FR", "coord": {"lon": 0.38564, "lat": 45.740479}}, {"id": 3006795, "name": "La Roche-des-Arnauds", "state": "", "country": "FR", "coord": {"lon": 5.95519, "lat": 44.56134}}, {"id": 3006796, "name": "La Roche-Derrien", "state": "", "country": "FR", "coord": {"lon": -3.26142, "lat": 48.746262}}, {"id": 3006798, "name": "La Roche-de-Glun", "state": "", "country": "FR", "coord": {"lon": 4.84488, "lat": 45.013359}}, {"id": 3006801, "name": "La Roche-Chalais", "state": "", "country": "FR", "coord": {"lon": 0.01667, "lat": 45.150002}}, {"id": 3006806, "name": "La Roche-Blanche", "state": "", "country": "FR", "coord": {"lon": 3.12648, "lat": 45.700642}}, {"id": 3006835, "name": "Laroche", "state": "", "country": "FR", "coord": {"lon": 3.3186, "lat": 45.330818}}, {"id": 3006853, "name": "La Robini\u00e8re", "state": "", "country": "FR", "coord": {"lon": 0.78333, "lat": 47.133331}}, {"id": 3006876, "name": "Larmor-Plage", "state": "", "country": "FR", "coord": {"lon": -3.38339, "lat": 47.706459}}, {"id": 3006877, "name": "Larmor-Baden", "state": "", "country": "FR", "coord": {"lon": -2.8944, "lat": 47.583408}}, {"id": 3006885, "name": "La Rivi\u00e8re-Saint-Sauveur", "state": "", "country": "FR", "coord": {"lon": 0.2703, "lat": 49.408211}}, {"id": 3006889, "name": "La Rivi\u00e8re-de-Corps", "state": "", "country": "FR", "coord": {"lon": 4.01947, "lat": 48.288399}}, {"id": 3006928, "name": "La Riche", "state": "", "country": "FR", "coord": {"lon": 0.67072, "lat": 47.389961}}, {"id": 3006929, "name": "La Richardais", "state": "", "country": "FR", "coord": {"lon": -2.03638, "lat": 48.606411}}, {"id": 3006930, "name": "La Ricamarie", "state": "", "country": "FR", "coord": {"lon": 4.31199, "lat": 45.41684}}, {"id": 3006952, "name": "L'Argillier", "state": "", "country": "FR", "coord": {"lon": 2.995, "lat": 45.39072}}, {"id": 3006956, "name": "Arrondissement de Largenti\u00e8re", "state": "", "country": "FR", "coord": {"lon": 4.16667, "lat": 44.583328}}, {"id": 3006958, "name": "Largenti\u00e8re", "state": "", "country": "FR", "coord": {"lon": 4.3, "lat": 44.533329}}, {"id": 3006959, "name": "Largelier", "state": "", "country": "FR", "coord": {"lon": 3.36654, "lat": 45.332432}}, {"id": 3006979, "name": "La R\u00e9ole", "state": "", "country": "FR", "coord": {"lon": -0.03691, "lat": 44.582008}}, {"id": 3006987, "name": "La Renaudie", "state": "", "country": "FR", "coord": {"lon": 3.72237, "lat": 45.736031}}, {"id": 3006995, "name": "La Remu\u00e9e", "state": "", "country": "FR", "coord": {"lon": 0.40283, "lat": 49.527729}}, {"id": 3006999, "name": "La Remaudi\u00e8re", "state": "", "country": "FR", "coord": {"lon": -1.24358, "lat": 47.237621}}, {"id": 3007004, "name": "La Regrippi\u00e8re", "state": "", "country": "FR", "coord": {"lon": -1.1762, "lat": 47.181671}}, {"id": 3007017, "name": "Lardy", "state": "", "country": "FR", "coord": {"lon": 2.2736, "lat": 48.518471}}, {"id": 3007037, "name": "Larche", "state": "", "country": "FR", "coord": {"lon": 1.41418, "lat": 45.12291}}, {"id": 3007038, "name": "Larch\u00e9", "state": "", "country": "FR", "coord": {"lon": 0.82622, "lat": 44.6716}}, {"id": 3007043, "name": "Larchamp", "state": "", "country": "FR", "coord": {"lon": -0.68448, "lat": 48.69434}}, {"id": 3007044, "name": "Larchamp", "state": "", "country": "FR", "coord": {"lon": -0.999, "lat": 48.361309}}, {"id": 3007045, "name": "Larceveau-Arros-Cibits", "state": "", "country": "FR", "coord": {"lon": -1.09068, "lat": 43.213829}}, {"id": 3007048, "name": "Lar\u00e7ay", "state": "", "country": "FR", "coord": {"lon": 0.78145, "lat": 47.366489}}, {"id": 3007059, "name": "Larbont", "state": "", "country": "FR", "coord": {"lon": 1.39798, "lat": 42.9953}}, {"id": 3007064, "name": "La Ravoire", "state": "", "country": "FR", "coord": {"lon": 5.96871, "lat": 45.55978}}, {"id": 3007076, "name": "Larajasse", "state": "", "country": "FR", "coord": {"lon": 4.50028, "lat": 45.612518}}, {"id": 3007082, "name": "Laragne-Mont\u00e9glin", "state": "", "country": "FR", "coord": {"lon": 5.81667, "lat": 44.316669}}, {"id": 3007100, "name": "Laqueuille", "state": "", "country": "FR", "coord": {"lon": 2.7325, "lat": 45.649761}}, {"id": 3007101, "name": "La Queue-les-Yvelines", "state": "", "country": "FR", "coord": {"lon": 1.76667, "lat": 48.799999}}, {"id": 3007102, "name": "La Queue-en-Brie", "state": "", "country": "FR", "coord": {"lon": 2.58112, "lat": 48.785198}}, {"id": 3007116, "name": "Lapugnoy", "state": "", "country": "FR", "coord": {"lon": 2.5346, "lat": 50.51635}}, {"id": 3007118, "name": "Lapte", "state": "", "country": "FR", "coord": {"lon": 4.21705, "lat": 45.185619}}, {"id": 3007122, "name": "La Prunerette", "state": "", "country": "FR", "coord": {"lon": 3.45664, "lat": 45.412708}}, {"id": 3007128, "name": "Laprugne", "state": "", "country": "FR", "coord": {"lon": 3.74244, "lat": 45.98621}}, {"id": 3007158, "name": "Lapouyade", "state": "", "country": "FR", "coord": {"lon": -0.28333, "lat": 45.083328}}, {"id": 3007160, "name": "Lapoutroie", "state": "", "country": "FR", "coord": {"lon": 7.16696, "lat": 48.153229}},