[{"id": 3072133, "name": "Letonice", "state": "", "country": "CZ", "coord": {"lon": 16.959129, "lat": 49.177261}}, {"id": 3072134, "name": "Letohrad", "state": "", "country": "CZ", "coord": {"lon": 16.498791, "lat": 50.035801}}, {"id": 3072137, "name": "Let\u0148any", "state": "", "country": "CZ", "coord": {"lon": 14.51667, "lat": 50.133331}}, {"id": 3072155, "name": "Le\u0161tina", "state": "", "country": "CZ", "coord": {"lon": 16.927481, "lat": 49.86879}}, {"id": 3072184, "name": "Le\u0161n\u00e1", "state": "", "country": "CZ", "coord": {"lon": 17.93004, "lat": 49.52055}}, {"id": 3072221, "name": "Lene\u0161ice", "state": "", "country": "CZ", "coord": {"lon": 13.7659, "lat": 50.37516}}, {"id": 3072224, "name": "Lelekovice", "state": "", "country": "CZ", "coord": {"lon": 16.578739, "lat": 49.291439}}, {"id": 3072232, "name": "Lednice", "state": "", "country": "CZ", "coord": {"lon": 16.803391, "lat": 48.799919}}, {"id": 3072234, "name": "Ledenice", "state": "", "country": "CZ", "coord": {"lon": 14.61886, "lat": 48.933289}}, {"id": 3072235, "name": "Lede\u010d nad S\u00e1zavou", "state": "", "country": "CZ", "coord": {"lon": 15.27772, "lat": 49.695171}}, {"id": 3072263, "name": "L\u00e1zn\u011b Luha\u010dovice", "state": "", "country": "CZ", "coord": {"lon": 17.76667, "lat": 49.099998}}, {"id": 3072265, "name": "L\u00e1zn\u011b Kyn\u017evart", "state": "", "country": "CZ", "coord": {"lon": 12.62474, "lat": 50.010578}}, {"id": 3072268, "name": "L\u00e1zn\u011b B\u011blohrad", "state": "", "country": "CZ", "coord": {"lon": 15.58269, "lat": 50.428741}}, {"id": 3072319, "name": "Lan\u017ehot", "state": "", "country": "CZ", "coord": {"lon": 16.966949, "lat": 48.72443}}, {"id": 3072325, "name": "L\u00e1ny", "state": "", "country": "CZ", "coord": {"lon": 13.95041, "lat": 50.12471}}, {"id": 3072332, "name": "Lan\u0161kroun", "state": "", "country": "CZ", "coord": {"lon": 16.6119, "lat": 49.91217}}, {"id": 3072342, "name": "Lahovi\u010dky", "state": "", "country": "CZ", "coord": {"lon": 14.39698, "lat": 50.001339}}, {"id": 3072394, "name": "Kyn\u0161perk nad Oh\u0159\u00ed", "state": "", "country": "CZ", "coord": {"lon": 12.53027, "lat": 50.118931}}, {"id": 3072407, "name": "Kyjov", "state": "", "country": "CZ", "coord": {"lon": 17.12253, "lat": 49.010181}}, {"id": 3072449, "name": "Kvasiny", "state": "", "country": "CZ", "coord": {"lon": 16.263229, "lat": 50.212502}}, {"id": 3072451, "name": "Kvasice", "state": "", "country": "CZ", "coord": {"lon": 17.46974, "lat": 49.242229}}, {"id": 3072462, "name": "Okres Kutn\u00e1 Hora", "state": "", "country": "CZ", "coord": {"lon": 15.25, "lat": 49.833328}}, {"id": 3072463, "name": "Kutn\u00e1 Hora", "state": "", "country": "CZ", "coord": {"lon": 15.26816, "lat": 49.948391}}, {"id": 3072476, "name": "Ku\u0159im", "state": "", "country": "CZ", "coord": {"lon": 16.531441, "lat": 49.298519}}, {"id": 3072483, "name": "Kun\u017eak", "state": "", "country": "CZ", "coord": {"lon": 15.19028, "lat": 49.121189}}, {"id": 3072484, "name": "Kunvald", "state": "", "country": "CZ", "coord": {"lon": 16.49996, "lat": 50.129269}}, {"id": 3072486, "name": "Kun\u0161t\u00e1t", "state": "", "country": "CZ", "coord": {"lon": 16.51722, "lat": 49.506451}}, {"id": 3072497, "name": "Kunovice", "state": "", "country": "CZ", "coord": {"lon": 17.47011, "lat": 49.044991}}, {"id": 3072503, "name": "Kun\u00edn", "state": "", "country": "CZ", "coord": {"lon": 17.989651, "lat": 49.63377}}, {"id": 3072527, "name": "Kun\u010dina", "state": "", "country": "CZ", "coord": {"lon": 16.62763, "lat": 49.794552}}, {"id": 3072529, "name": "Kun\u010di\u010dky", "state": "", "country": "CZ", "coord": {"lon": 18.296101, "lat": 49.807362}}, {"id": 3072531, "name": "Kun\u010dice pod Ond\u0159ejn\u00edkem", "state": "", "country": "CZ", "coord": {"lon": 18.261129, "lat": 49.550701}}, {"id": 3072581, "name": "Kryry", "state": "", "country": "CZ", "coord": {"lon": 13.4266, "lat": 50.17437}}, {"id": 3072598, "name": "Krupka", "state": "", "country": "CZ", "coord": {"lon": 13.85815, "lat": 50.68449}}, {"id": 3072605, "name": "Krumv\u00ed\u0159", "state": "", "country": "CZ", "coord": {"lon": 16.910271, "lat": 48.98901}}, {"id": 3072638, "name": "Krouna", "state": "", "country": "CZ", "coord": {"lon": 16.026739, "lat": 49.7724}}, {"id": 3072649, "name": "Krom\u011b\u0159\u00ed\u017e", "state": "", "country": "CZ", "coord": {"lon": 17.39312, "lat": 49.297852}}, {"id": 3072656, "name": "Krnov", "state": "", "country": "CZ", "coord": {"lon": 17.70385, "lat": 50.089668}}, {"id": 3072661, "name": "Krmel\u00edn", "state": "", "country": "CZ", "coord": {"lon": 18.235411, "lat": 49.729141}}, {"id": 3072675, "name": "K\u0159\u00ed\u017eov\u00e1", "state": "", "country": "CZ", "coord": {"lon": 15.85207, "lat": 49.688412}}, {"id": 3072693, "name": "K\u0159i\u017eanov", "state": "", "country": "CZ", "coord": {"lon": 16.1096, "lat": 49.38858}}, {"id": 3072717, "name": "K\u0159inec", "state": "", "country": "CZ", "coord": {"lon": 15.13782, "lat": 50.264488}}, {"id": 3072748, "name": "K\u0159e\u0161ice", "state": "", "country": "CZ", "coord": {"lon": 14.2145, "lat": 50.522591}}, {"id": 3072760, "name": "K\u0159epice", "state": "", "country": "CZ", "coord": {"lon": 16.719891, "lat": 48.999859}}, {"id": 3072771, "name": "K\u0159enovice", "state": "", "country": "CZ", "coord": {"lon": 16.829321, "lat": 49.142159}}, {"id": 3072781, "name": "K\u0159em\u017ee", "state": "", "country": "CZ", "coord": {"lon": 14.30568, "lat": 48.904968}}, {"id": 3072841, "name": "Krava\u0159e", "state": "", "country": "CZ", "coord": {"lon": 18.004721, "lat": 49.93203}}, {"id": 3072889, "name": "Kr\u00e1sn\u00e1 L\u00edpa", "state": "", "country": "CZ", "coord": {"lon": 14.50999, "lat": 50.913029}}, {"id": 3072890, "name": "Kr\u00e1sn\u00e1 L\u00edpa", "state": "", "country": "CZ", "coord": {"lon": 13.3575, "lat": 50.48378}}, {"id": 3072894, "name": "Kr\u00e1sn\u00e1 Hora nad Vltavou", "state": "", "country": "CZ", "coord": {"lon": 14.27742, "lat": 49.60461}}, {"id": 3072903, "name": "Kraslice", "state": "", "country": "CZ", "coord": {"lon": 12.51747, "lat": 50.323719}}, {"id": 3072927, "name": "Kr\u00e1l\u016fv Dv\u016fr", "state": "", "country": "CZ", "coord": {"lon": 14.03445, "lat": 49.94981}}, {"id": 3072929, "name": "Kralupy nad Vltavou", "state": "", "country": "CZ", "coord": {"lon": 14.31149, "lat": 50.24107}}, {"id": 3072941, "name": "Kralovice", "state": "", "country": "CZ", "coord": {"lon": 13.48747, "lat": 49.981918}}, {"id": 3072952, "name": "Kr\u00e1l\u00edky", "state": "", "country": "CZ", "coord": {"lon": 16.76054, "lat": 50.083839}}, {"id": 3072954, "name": "Kralice na Han\u00e9", "state": "", "country": "CZ", "coord": {"lon": 17.180479, "lat": 49.462959}}, {"id": 3073000, "name": "Kozmice", "state": "", "country": "CZ", "coord": {"lon": 18.15584, "lat": 49.9128}}, {"id": 3073008, "name": "Kozlovice", "state": "", "country": "CZ", "coord": {"lon": 18.256559, "lat": 49.590401}}, {"id": 3073025, "name": "Ko\u017elany", "state": "", "country": "CZ", "coord": {"lon": 13.54107, "lat": 49.993889}}, {"id": 3073049, "name": "Koz\u00e1kov", "state": "", "country": "CZ", "coord": {"lon": 15.2655, "lat": 50.586021}}, {"id": 3073052, "name": "Kov\u00e1\u0159sk\u00e1", "state": "", "country": "CZ", "coord": {"lon": 13.05388, "lat": 50.43821}}, {"id": 3073059, "name": "Kov\u00e1\u0159ov", "state": "", "country": "CZ", "coord": {"lon": 14.27809, "lat": 49.517601}}, {"id": 3073082, "name": "Kout na \u0160umav\u011b", "state": "", "country": "CZ", "coord": {"lon": 13.00208, "lat": 49.40255}}, {"id": 3073084, "name": "Kou\u0159im", "state": "", "country": "CZ", "coord": {"lon": 14.97703, "lat": 50.003059}}, {"id": 3073093, "name": "Koudelka", "state": "", "country": "CZ", "coord": {"lon": 16.024599, "lat": 50.08556}}, {"id": 3073105, "name": "Kotojedy", "state": "", "country": "CZ", "coord": {"lon": 17.40197, "lat": 49.275551}}, {"id": 3073130, "name": "Kostice", "state": "", "country": "CZ", "coord": {"lon": 16.978689, "lat": 48.746849}}, {"id": 3073147, "name": "Kostelec na Han\u00e9", "state": "", "country": "CZ", "coord": {"lon": 17.058241, "lat": 49.513981}}, {"id": 3073149, "name": "Kostelec nad Orlic\u00ed", "state": "", "country": "CZ", "coord": {"lon": 16.21319, "lat": 50.122669}}, {"id": 3073151, "name": "Kostelec nad Labem", "state": "", "country": "CZ", "coord": {"lon": 14.58552, "lat": 50.226528}}, {"id": 3073152, "name": "Kostelec nad \u010cern\u00fdmi Lesy", "state": "", "country": "CZ", "coord": {"lon": 14.85922, "lat": 49.99403}}, {"id": 3073170, "name": "Ko\u0161\u0165any", "state": "", "country": "CZ", "coord": {"lon": 13.75554, "lat": 50.655071}}, {"id": 3073172, "name": "Ko\u0161\u0165\u00e1lov", "state": "", "country": "CZ", "coord": {"lon": 15.40403, "lat": 50.571651}}, {"id": 3073178, "name": "Kosova Hora", "state": "", "country": "CZ", "coord": {"lon": 14.47173, "lat": 49.65414}}, {"id": 3073190, "name": "Kosmonosy", "state": "", "country": "CZ", "coord": {"lon": 14.93, "lat": 50.438499}}, {"id": 3073222, "name": "Kory\u010dany", "state": "", "country": "CZ", "coord": {"lon": 17.16433, "lat": 49.106392}}, {"id": 3073241, "name": "Ko\u0159enov", "state": "", "country": "CZ", "coord": {"lon": 15.36532, "lat": 50.759258}}, {"id": 3073251, "name": "Kopytov", "state": "", "country": "CZ", "coord": {"lon": 18.35465, "lat": 49.9412}}, {"id": 3073254, "name": "Kop\u0159ivnice", "state": "", "country": "CZ", "coord": {"lon": 18.1448, "lat": 49.599468}}, {"id": 3073261, "name": "Kopidlno", "state": "", "country": "CZ", "coord": {"lon": 15.27029, "lat": 50.330849}}, {"id": 3073280, "name": "Konsk\u00e1", "state": "", "country": "CZ", "coord": {"lon": 18.63092, "lat": 49.684299}}, {"id": 3073299, "name": "Konice", "state": "", "country": "CZ", "coord": {"lon": 16.889111, "lat": 49.590302}}, {"id": 3073322, "name": "Komorn\u00ed Lhotka", "state": "", "country": "CZ", "coord": {"lon": 18.527769, "lat": 49.658112}}, {"id": 3073345, "name": "Kom\u00e1rov", "state": "", "country": "CZ", "coord": {"lon": 13.85636, "lat": 49.806499}}, {"id": 3073357, "name": "Kolov\u00e1", "state": "", "country": "CZ", "coord": {"lon": 12.90333, "lat": 50.187431}}, {"id": 3073358, "name": "Kolomuty", "state": "", "country": "CZ", "coord": {"lon": 14.97899, "lat": 50.4021}}, {"id": 3073369, "name": "Kolinec", "state": "", "country": "CZ", "coord": {"lon": 13.439, "lat": 49.29895}}, {"id": 3073371, "name": "Kol\u00edn", "state": "", "country": "CZ", "coord": {"lon": 15.20057, "lat": 50.028141}}, {"id": 3073389, "name": "Kokory", "state": "", "country": "CZ", "coord": {"lon": 17.375441, "lat": 49.49482}}, {"id": 3073407, "name": "Kojet\u00edn", "state": "", "country": "CZ", "coord": {"lon": 17.302071, "lat": 49.351791}}, {"id": 3073483, "name": "Kobyl\u00ed", "state": "", "country": "CZ", "coord": {"lon": 16.89159, "lat": 48.932861}}, {"id": 3073493, "name": "Kobe\u0159ice", "state": "", "country": "CZ", "coord": {"lon": 18.05212, "lat": 49.985481}}, {"id": 3073523, "name": "Kn\u011b\u017epole", "state": "", "country": "CZ", "coord": {"lon": 17.51671, "lat": 49.098549}}, {"id": 3073526, "name": "Kn\u011b\u017emost", "state": "", "country": "CZ", "coord": {"lon": 15.03829, "lat": 50.48917}}, {"id": 3073527, "name": "Kn\u011b\u017e\u00edvka", "state": "", "country": "CZ", "coord": {"lon": 14.28333, "lat": 50.133331}}, {"id": 3073535, "name": "Kn\u011b\u017eice", "state": "", "country": "CZ", "coord": {"lon": 15.67216, "lat": 49.270779}}, {"id": 3073541, "name": "Kn\u011b\u017edub", "state": "", "country": "CZ", "coord": {"lon": 17.39546, "lat": 48.886662}}, {"id": 3073557, "name": "Klu\u010dov", "state": "", "country": "CZ", "coord": {"lon": 15.93508, "lat": 49.166988}}, {"id": 3073574, "name": "Kloko\u010dov", "state": "", "country": "CZ", "coord": {"lon": 17.74069, "lat": 49.74789}}, {"id": 3073582, "name": "Klobuky", "state": "", "country": "CZ", "coord": {"lon": 13.98748, "lat": 50.29401}}, {"id": 3073583, "name": "Klobouky", "state": "", "country": "CZ", "coord": {"lon": 16.86298, "lat": 48.99609}}, {"id": 3073599, "name": "Klimkovice", "state": "", "country": "CZ", "coord": {"lon": 18.125851, "lat": 49.78809}}, {"id": 3073644, "name": "Klen\u010d\u00ed pod \u010cerchovem", "state": "", "country": "CZ", "coord": {"lon": 12.81473, "lat": 49.434841}}, {"id": 3073652, "name": "Klecany", "state": "", "country": "CZ", "coord": {"lon": 14.41148, "lat": 50.175991}}, {"id": 3073653, "name": "Klec\u00e1nky", "state": "", "country": "CZ", "coord": {"lon": 14.4029, "lat": 50.171021}}, {"id": 3073660, "name": "Klatovy", "state": "", "country": "CZ", "coord": {"lon": 13.29505, "lat": 49.395519}}, {"id": 3073666, "name": "Kl\u00e1\u0161ter Hradi\u0161t\u011b nad Jizerou", "state": "", "country": "CZ", "coord": {"lon": 14.94472, "lat": 50.523411}}, {"id": 3073668, "name": "Kl\u00e1\u0161terec nad Oh\u0159\u00ed", "state": "", "country": "CZ", "coord": {"lon": 13.17128, "lat": 50.384449}}, {"id": 3073672, "name": "Kl\u00e1\u0161ter", "state": "", "country": "CZ", "coord": {"lon": 12.87623, "lat": 49.967621}}, {"id": 3073679, "name": "Kl\u00e1novice", "state": "", "country": "CZ", "coord": {"lon": 14.66887, "lat": 50.094952}}, {"id": 3073692, "name": "Kladruby", "state": "", "country": "CZ", "coord": {"lon": 12.97991, "lat": 49.715302}}, {"id": 3073699, "name": "Kladno", "state": "", "country": "CZ", "coord": {"lon": 14.10285, "lat": 50.147339}}, {"id": 3073731, "name": "Kel\u010d", "state": "", "country": "CZ", "coord": {"lon": 17.815331, "lat": 49.478439}}, {"id": 3073739, "name": "Kdyn\u011b", "state": "", "country": "CZ", "coord": {"lon": 13.03968, "lat": 49.39077}}, {"id": 3073743, "name": "Kbely", "state": "", "country": "CZ", "coord": {"lon": 14.55, "lat": 50.133331}}, {"id": 3073752, "name": "Kazn\u011bjov", "state": "", "country": "CZ", "coord": {"lon": 13.38295, "lat": 49.893131}}, {"id": 3073753, "name": "Katusice", "state": "", "country": "CZ", "coord": {"lon": 14.77736, "lat": 50.445099}}, {"id": 3073754, "name": "Katovice", "state": "", "country": "CZ", "coord": {"lon": 13.83035, "lat": 49.273479}}, {"id": 3073760, "name": "Kate\u0159inky", "state": "", "country": "CZ", "coord": {"lon": 17.92131, "lat": 49.945358}}, {"id": 3073769, "name": "Ka\u0161persk\u00e9 Hory", "state": "", "country": "CZ", "coord": {"lon": 13.55616, "lat": 49.142891}}, {"id": 3073780, "name": "Kasejovice", "state": "", "country": "CZ", "coord": {"lon": 13.7406, "lat": 49.4627}}, {"id": 3073789, "name": "Karvin\u00e1", "state": "", "country": "CZ", "coord": {"lon": 18.541691, "lat": 49.854}}, {"id": 3073792, "name": "Karolinka", "state": "", "country": "CZ", "coord": {"lon": 18.240061, "lat": 49.35128}}, {"id": 3073803, "name": "Karlovy Vary", "state": "", "country": "CZ", "coord": {"lon": 12.87117, "lat": 50.232712}}, {"id": 3073811, "name": "Karlovice", "state": "", "country": "CZ", "coord": {"lon": 17.445629, "lat": 50.10564}}, {"id": 3073817, "name": "Karlova Stud\u00e1nka", "state": "", "country": "CZ", "coord": {"lon": 17.30685, "lat": 50.073101}}, {"id": 3073838, "name": "Karl\u00edn", "state": "", "country": "CZ", "coord": {"lon": 14.44711, "lat": 50.09272}}, {"id": 3073850, "name": "Karda\u0161ova \u0158e\u010dice", "state": "", "country": "CZ", "coord": {"lon": 14.85315, "lat": 49.18478}}, {"id": 3073862, "name": "Kaplice", "state": "", "country": "CZ", "coord": {"lon": 14.49628, "lat": 48.738491}}, {"id": 3073892, "name": "Kamenn\u00fd \u00dajezd", "state": "", "country": "CZ", "coord": {"lon": 14.44638, "lat": 48.89753}}, {"id": 3073893, "name": "Kamenn\u00fd P\u0159\u00edvoz", "state": "", "country": "CZ", "coord": {"lon": 14.50339, "lat": 49.862991}}, {"id": 3073899, "name": "Kamenn\u00e9 \u017dehrovice", "state": "", "country": "CZ", "coord": {"lon": 14.01809, "lat": 50.126968}}, {"id": 3073928, "name": "Kamenick\u00fd \u0160enov", "state": "", "country": "CZ", "coord": {"lon": 14.47287, "lat": 50.77359}}, {"id": 3073936, "name": "Kamenice nad Lipou", "state": "", "country": "CZ", "coord": {"lon": 15.07519, "lat": 49.303028}}, {"id": 3073944, "name": "Kamenice", "state": "", "country": "CZ", "coord": {"lon": 14.58242, "lat": 49.901508}}, {"id": 3073948, "name": "Kamenice", "state": "", "country": "CZ", "coord": {"lon": 15.78023, "lat": 49.366589}}, {"id": 3074004, "name": "K\u00e1jov", "state": "", "country": "CZ", "coord": {"lon": 14.25859, "lat": 48.810822}}, {"id": 3074020, "name": "Kada\u0148", "state": "", "country": "CZ", "coord": {"lon": 13.26667, "lat": 50.383331}}, {"id": 3074031, "name": "Ka\u010dice", "state": "", "country": "CZ", "coord": {"lon": 13.98815, "lat": 50.162609}}, {"id": 3074039, "name": "Kadan", "state": "", "country": "CZ", "coord": {"lon": 13.27131, "lat": 50.37598}}, {"id": 3074049, "name": "Josef\u016fv D\u016fl", "state": "", "country": "CZ", "coord": {"lon": 15.23146, "lat": 50.78191}}, {"id": 3074099, "name": "Jistebn\u00edk", "state": "", "country": "CZ", "coord": {"lon": 18.13063, "lat": 49.754002}}, {"id": 3074102, "name": "Jistebnice", "state": "", "country": "CZ", "coord": {"lon": 14.5276, "lat": 49.485531}}, {"id": 3074107, "name": "Jirny", "state": "", "country": "CZ", "coord": {"lon": 14.69923, "lat": 50.11578}}, {"id": 3074110, "name": "Jirkov", "state": "", "country": "CZ", "coord": {"lon": 13.44769, "lat": 50.49979}}, {"id": 3074111, "name": "Ji\u0159ina", "state": "", "country": "CZ", "coord": {"lon": 14.77009, "lat": 50.168652}}, {"id": 3074119, "name": "Ji\u0159\u00edkov", "state": "", "country": "CZ", "coord": {"lon": 14.5691, "lat": 50.99514}}, {"id": 3074149, "name": "Jind\u0159ich\u016fv Hradec", "state": "", "country": "CZ", "coord": {"lon": 15.00301, "lat": 49.144039}}, {"id": 3074161, "name": "Jind\u0159ichov", "state": "", "country": "CZ", "coord": {"lon": 17.51903, "lat": 50.251839}}, {"id": 3074166, "name": "Jince", "state": "", "country": "CZ", "coord": {"lon": 13.97867, "lat": 49.78624}}, {"id": 3074170, "name": "Jimramov", "state": "", "country": "CZ", "coord": {"lon": 16.22632, "lat": 49.637192}}, {"id": 3074174, "name": "J\u00edlovi\u0161t\u011b", "state": "", "country": "CZ", "coord": {"lon": 14.34274, "lat": 49.927521}}, {"id": 3074178, "name": "J\u00edlov\u00e9 u Prahy", "state": "", "country": "CZ", "coord": {"lon": 14.49333, "lat": 49.895451}}, {"id": 3074181, "name": "J\u00edlov\u00e9", "state": "", "country": "CZ", "coord": {"lon": 14.10383, "lat": 50.760818}}, {"id": 3074187, "name": "Jilemnice", "state": "", "country": "CZ", "coord": {"lon": 15.50653, "lat": 50.608898}}, {"id": 3074199, "name": "Jihlava", "state": "", "country": "CZ", "coord": {"lon": 15.59124, "lat": 49.396099}}, {"id": 3074204, "name": "Ji\u010d\u00edn", "state": "", "country": "CZ", "coord": {"lon": 15.35162, "lat": 50.437229}}, {"id": 3074239, "name": "Jevi\u0161ovice", "state": "", "country": "CZ", "coord": {"lon": 15.98992, "lat": 48.987358}}, {"id": 3074241, "name": "Jev\u00ed\u010dko", "state": "", "country": "CZ", "coord": {"lon": 16.71125, "lat": 49.632198}}, {"id": 3074243, "name": "Jevany", "state": "", "country": "CZ", "coord": {"lon": 14.81048, "lat": 49.97057}}, {"id": 3074280, "name": "Jesen\u00edk nad Odrou", "state": "", "country": "CZ", "coord": {"lon": 17.90526, "lat": 49.611938}}, {"id": 3074281, "name": "Jesen\u00edk", "state": "", "country": "CZ", "coord": {"lon": 17.204639, "lat": 50.22937}}, {"id": 3074284, "name": "Jesenice", "state": "", "country": "CZ", "coord": {"lon": 13.46948, "lat": 50.097031}}, {"id": 3074286, "name": "Jesenice", "state": "", "country": "CZ", "coord": {"lon": 14.5135, "lat": 49.96814}}, {"id": 3074302, "name": "Jen\u0161tejn", "state": "", "country": "CZ", "coord": {"lon": 14.6118, "lat": 50.15266}}, {"id": 3074322, "name": "Jene\u010d", "state": "", "country": "CZ", "coord": {"lon": 14.21482, "lat": 50.087299}}, {"id": 3074331, "name": "Jemnice", "state": "", "country": "CZ", "coord": {"lon": 15.56994, "lat": 49.018978}}, {"id": 3074360, "name": "Jedovnice", "state": "", "country": "CZ", "coord": {"lon": 16.755951, "lat": 49.344528}}, {"id": 3074373, "name": "Jedlov\u00e1", "state": "", "country": "CZ", "coord": {"lon": 16.30608, "lat": 49.660999}}, {"id": 3074398, "name": "Javorn\u00edk", "state": "", "country": "CZ", "coord": {"lon": 17.00272, "lat": 50.39077}}, {"id": 3074440, "name": "Jarov", "state": "", "country": "CZ", "coord": {"lon": 14.07234, "lat": 49.953781}}, {"id": 3074444, "name": "Jaro\u0161ov nad Ne\u017e\u00e1rkou", "state": "", "country": "CZ", "coord": {"lon": 15.06734, "lat": 49.189892}}, {"id": 3074452, "name": "Jaroslavice", "state": "", "country": "CZ", "coord": {"lon": 16.233509, "lat": 48.756569}}, {"id": 3074459, "name": "Jarom\u011b\u0159ice nad Rokytnou", "state": "", "country": "CZ", "coord": {"lon": 15.89331, "lat": 49.094082}}, {"id": 3074461, "name": "Jarom\u011b\u0159ice", "state": "", "country": "CZ", "coord": {"lon": 16.75185, "lat": 49.625561}}, {"id": 3074462, "name": "Jarom\u011b\u0159", "state": "", "country": "CZ", "coord": {"lon": 15.92136, "lat": 50.356201}}, {"id": 3074482, "name": "Janov nad Nisou", "state": "", "country": "CZ", "coord": {"lon": 15.16913, "lat": 50.772041}}, {"id": 3074491, "name": "Janovice nad \u00dahlavou", "state": "", "country": "CZ", "coord": {"lon": 13.21813, "lat": 49.34515}}, {"id": 3074500, "name": "Janovice", "state": "", "country": "CZ", "coord": {"lon": 18.406019, "lat": 49.62141}}, {"id": 3074512, "name": "Janov", "state": "", "country": "CZ", "coord": {"lon": 13.56368, "lat": 50.585079}}, {"id": 3074558, "name": "Jalub\u00ed", "state": "", "country": "CZ", "coord": {"lon": 17.427879, "lat": 49.116261}}, {"id": 3074577, "name": "Jakartovice", "state": "", "country": "CZ", "coord": {"lon": 17.684, "lat": 49.9151}}, {"id": 3074587, "name": "J\u00e1chymov", "state": "", "country": "CZ", "coord": {"lon": 12.93465, "lat": 50.358459}}, {"id": 3074593, "name": "Jablunkov", "state": "", "country": "CZ", "coord": {"lon": 18.76458, "lat": 49.576721}}, {"id": 3074594, "name": "Jabl\u016fnka", "state": "", "country": "CZ", "coord": {"lon": 17.950211, "lat": 49.383549}}, {"id": 3074597, "name": "Jablonn\u00e9 v Podje\u0161t\u011bd\u00ed", "state": "", "country": "CZ", "coord": {"lon": 14.76052, "lat": 50.765282}}, {"id": 3074598, "name": "Jablonn\u00e9 nad Orlic\u00ed", "state": "", "country": "CZ", "coord": {"lon": 16.60059, "lat": 50.02964}}, {"id": 3074603, "name": "Jablonec nad Nisou", "state": "", "country": "CZ", "coord": {"lon": 15.17108, "lat": 50.724312}}, {"id": 3074604, "name": "Jablonec nad Jizerou", "state": "", "country": "CZ", "coord": {"lon": 15.42959, "lat": 50.703468}}, {"id": 3074614, "name": "Ivanovice na Han\u00e9", "state": "", "country": "CZ", "coord": {"lon": 17.09343, "lat": 49.30542}}, {"id": 3074615, "name": "Ivan\u010dice", "state": "", "country": "CZ", "coord": {"lon": 16.37752, "lat": 49.10144}}, {"id": 3074621, "name": "H\u00fdskov", "state": "", "country": "CZ", "coord": {"lon": 14.05055, "lat": 49.990719}}, {"id": 3074636, "name": "Hvozdn\u00e1", "state": "", "country": "CZ", "coord": {"lon": 17.751631, "lat": 49.248482}}, {"id": 3074676, "name": "Hustope\u010de Nad Be\u010dvou", "state": "", "country": "CZ", "coord": {"lon": 17.86994, "lat": 49.530529}}, {"id": 3074677, "name": "Hustope\u010de", "state": "", "country": "CZ", "coord": {"lon": 16.737619, "lat": 48.940849}}, {"id": 3074686, "name": "Husinec", "state": "", "country": "CZ", "coord": {"lon": 13.98697, "lat": 49.054958}}, {"id": 3074692, "name": "H\u016frky", "state": "", "country": "CZ", "coord": {"lon": 12.90962, "lat": 50.220631}}, {"id": 3074723, "name": "Humpolec", "state": "", "country": "CZ", "coord": {"lon": 15.35932, "lat": 49.541519}}, {"id": 3074731, "name": "Hul\u00edn", "state": "", "country": "CZ", "coord": {"lon": 17.463739, "lat": 49.316891}}, {"id": 3074733, "name": "Hukvaldy", "state": "", "country": "CZ", "coord": {"lon": 18.221889, "lat": 49.62381}}, {"id": 3074737, "name": "Hudlice", "state": "", "country": "CZ", "coord": {"lon": 13.97063, "lat": 49.96096}}, {"id": 3074763, "name": "Hru\u0161ovany u Brna", "state": "", "country": "CZ", "coord": {"lon": 16.59429, "lat": 49.038631}}, {"id": 3074764, "name": "Hru\u0161ovany nad Jevi\u0161ovkou", "state": "", "country": "CZ", "coord": {"lon": 16.40271, "lat": 48.82991}}, {"id": 3074773, "name": "Hru\u0161ky", "state": "", "country": "CZ", "coord": {"lon": 16.974039, "lat": 48.792721}}, {"id": 3074795, "name": "Hroznov\u00e1 Lhota", "state": "", "country": "CZ", "coord": {"lon": 17.416969, "lat": 48.907841}}, {"id": 3074797, "name": "Hrozn\u011bt\u00edn", "state": "", "country": "CZ", "coord": {"lon": 12.8718, "lat": 50.309399}}, {"id": 3074803, "name": "Hrotovice", "state": "", "country": "CZ", "coord": {"lon": 16.060671, "lat": 49.1077}}, {"id": 3074805, "name": "Hronov", "state": "", "country": "CZ", "coord": {"lon": 16.182301, "lat": 50.479679}}, {"id": 3074807, "name": "Hromnice", "state": "", "country": "CZ", "coord": {"lon": 13.44146, "lat": 49.849072}}, {"id": 3074808, "name": "Hroch\u016fv T\u00fdnec", "state": "", "country": "CZ", "coord": {"lon": 15.91054, "lat": 49.959461}}, {"id": 3074817, "name": "Hrob", "state": "", "country": "CZ", "coord": {"lon": 13.72676, "lat": 50.659191}}, {"id": 3074853, "name": "H\u0159ebe\u010d", "state": "", "country": "CZ", "coord": {"lon": 14.16446, "lat": 50.135948}}, {"id": 3074864, "name": "Hrd\u011bjovice", "state": "", "country": "CZ", "coord": {"lon": 14.47857, "lat": 49.018929}}, {"id": 3074889, "name": "Hranice", "state": "", "country": "CZ", "coord": {"lon": 12.17577, "lat": 50.304588}}, {"id": 3074893, "name": "Hranice", "state": "", "country": "CZ", "coord": {"lon": 17.73469, "lat": 49.547958}}, {"id": 3074909, "name": "Hradi\u0161tko", "state": "", "country": "CZ", "coord": {"lon": 14.40935, "lat": 49.868279}}, {"id": 3074944, "name": "Hr\u00e1dek nad Nisou", "state": "", "country": "CZ", "coord": {"lon": 14.84455, "lat": 50.852791}}, {"id": 3074954, "name": "Hr\u00e1dek", "state": "", "country": "CZ", "coord": {"lon": 13.65296, "lat": 49.713161}}, {"id": 3074955, "name": "Hr\u00e1dek", "state": "", "country": "CZ", "coord": {"lon": 18.7372, "lat": 49.616611}}, {"id": 3074956, "name": "Hr\u00e1dek", "state": "", "country": "CZ", "coord": {"lon": 13.4985, "lat": 49.261269}}, {"id": 3074961, "name": "Hradec nad Svitavou", "state": "", "country": "CZ", "coord": {"lon": 16.480579, "lat": 49.71143}}, {"id": 3074967, "name": "Hradec Kr\u00e1lov\u00e9", "state": "", "country": "CZ", "coord": {"lon": 15.83277, "lat": 50.209229}}, {"id": 3074975, "name": "Hradec nad Moravici", "state": "", "country": "CZ", "coord": {"lon": 17.87842, "lat": 49.870419}}, {"id": 3074985, "name": "Hrad\u010dany", "state": "", "country": "CZ", "coord": {"lon": 15.26986, "lat": 50.157982}}, {"id": 3075001, "name": "Hracholusky", "state": "", "country": "CZ", "coord": {"lon": 14.24767, "lat": 50.417919}}, {"id": 3075005, "name": "Hrabyn\u011b", "state": "", "country": "CZ", "coord": {"lon": 18.054831, "lat": 49.882488}}, {"id": 3075022, "name": "Hovor\u010dovice", "state": "", "country": "CZ", "coord": {"lon": 14.51789, "lat": 50.178661}}, {"id": 3075023, "name": "Hovorany", "state": "", "country": "CZ", "coord": {"lon": 16.99346, "lat": 48.954929}}, {"id": 3075025, "name": "Hov\u011bz\u00ed", "state": "", "country": "CZ", "coord": {"lon": 18.060619, "lat": 49.30365}}, {"id": 3075042, "name": "Hostou\u0148", "state": "", "country": "CZ", "coord": {"lon": 12.77147, "lat": 49.559711}}, {"id": 3075043, "name": "Hostomice", "state": "", "country": "CZ", "coord": {"lon": 13.80803, "lat": 50.5877}}, {"id": 3075044, "name": "Hostomice", "state": "", "country": "CZ", "coord": {"lon": 14.0456, "lat": 49.82526}}, {"id": 3075049, "name": "Ho\u0161\u0165ka", "state": "", "country": "CZ", "coord": {"lon": 14.335, "lat": 50.48859}}, {"id": 3075051, "name": "Hostivice", "state": "", "country": "CZ", "coord": {"lon": 14.25856, "lat": 50.081581}}, {"id": 3075058, "name": "Hostinn\u00e9", "state": "", "country": "CZ", "coord": {"lon": 15.72334, "lat": 50.540661}}, {"id": 3075079, "name": "Host\u011bradice", "state": "", "country": "CZ", "coord": {"lon": 16.25931, "lat": 48.950062}}, {"id": 3075086, "name": "Hostavice", "state": "", "country": "CZ", "coord": {"lon": 14.55822, "lat": 50.092831}}, {"id": 3075091, "name": "Ho\u0161\u0165\u00e1lkov\u00e1", "state": "", "country": "CZ", "coord": {"lon": 17.86944, "lat": 49.354671}}, {"id": 3075112, "name": "Hor\u0161ovsk\u00fd T\u00fdn", "state": "", "country": "CZ", "coord": {"lon": 12.94405, "lat": 49.529652}}, {"id": 3075119, "name": "Ho\u0159ovice", "state": "", "country": "CZ", "coord": {"lon": 13.90268, "lat": 49.835972}}, {"id": 3075127, "name": "Horom\u011b\u0159ice", "state": "", "country": "CZ", "coord": {"lon": 14.33879, "lat": 50.131729}}, {"id": 3075179, "name": "Horn\u00ed T\u011brlicko", "state": "", "country": "CZ", "coord": {"lon": 18.482901, "lat": 49.75177}}, {"id": 3075187, "name": "Horn\u00ed Such\u00e1", "state": "", "country": "CZ", "coord": {"lon": 18.48189, "lat": 49.797798}}, {"id": 3075191, "name": "Horn\u00ed Stropnice", "state": "", "country": "CZ", "coord": {"lon": 14.73502, "lat": 48.761238}}, {"id": 3075193, "name": "Horn\u00ed \u0160t\u011bp\u00e1nov", "state": "", "country": "CZ", "coord": {"lon": 16.790779, "lat": 49.549011}}, {"id": 3075206, "name": "Horn\u00ed Sloupnice", "state": "", "country": "CZ", "coord": {"lon": 16.339479, "lat": 49.921379}}, {"id": 3075208, "name": "Horn\u00ed Slavkov", "state": "", "country": "CZ", "coord": {"lon": 12.80758, "lat": 50.13863}}, {"id": 3075257, "name": "Horn\u00ed Po\u010dernice", "state": "", "country": "CZ", "coord": {"lon": 14.61036, "lat": 50.112099}}, {"id": 3075259, "name": "Horn\u00ed Po\u010daply", "state": "", "country": "CZ", "coord": {"lon": 14.38993, "lat": 50.4244}}, {"id": 3075262, "name": "Horn\u00ed Plan\u00e1", "state": "", "country": "CZ", "coord": {"lon": 14.03257, "lat": 48.767361}}, {"id": 3075289, "name": "Horn\u00ed Mo\u0161t\u011bnice", "state": "", "country": "CZ", "coord": {"lon": 17.45879, "lat": 49.412128}}, {"id": 3075291, "name": "Horn\u00ed Morava", "state": "", "country": "CZ", "coord": {"lon": 16.801189, "lat": 50.145611}}, {"id": 3075296, "name": "Horn\u00ed M\u011bsto", "state": "", "country": "CZ", "coord": {"lon": 17.211121, "lat": 49.908451}}, {"id": 3075316, "name": "Horn\u00ed Lide\u010d", "state": "", "country": "CZ", "coord": {"lon": 18.060989, "lat": 49.18121}}, {"id": 3075318, "name": "Horn\u00ed Liboc", "state": "", "country": "CZ", "coord": {"lon": 14.33333, "lat": 50.083328}}, {"id": 3075319, "name": "Horn\u00ed Libina", "state": "", "country": "CZ", "coord": {"lon": 17.07262, "lat": 49.88987}}, {"id": 3075356, "name": "Horn\u00ed Ji\u0159et\u00edn", "state": "", "country": "CZ", "coord": {"lon": 13.54717, "lat": 50.57309}}, {"id": 3075358, "name": "Horn\u00ed Jind\u0159ichov", "state": "", "country": "CZ", "coord": {"lon": 14.56383, "lat": 50.94846}}, {"id": 3075361, "name": "Horn\u00ed Jelen\u00ed", "state": "", "country": "CZ", "coord": {"lon": 16.08396, "lat": 50.049011}}, {"id": 3075387, "name": "Horn\u00ed Gruntramovice", "state": "", "country": "CZ", "coord": {"lon": 17.549999, "lat": 49.799999}}, {"id": 3075422, "name": "Horn\u00ed \u010cermn\u00e1", "state": "", "country": "CZ", "coord": {"lon": 16.607719, "lat": 49.970531}}, {"id": 3075423, "name": "Horn\u00ed Cerekev", "state": "", "country": "CZ", "coord": {"lon": 15.32769, "lat": 49.320259}}, {"id": 3075433, "name": "Horn\u00ed B\u0159\u00edza", "state": "", "country": "CZ", "coord": {"lon": 13.35558, "lat": 49.840118}}, {"id": 3075436, "name": "Horn\u00ed Brann\u00e1", "state": "", "country": "CZ", "coord": {"lon": 15.57146, "lat": 50.608261}}, {"id": 3075441, "name": "Horn\u00ed Bo\u0159\u00edkovice", "state": "", "country": "CZ", "coord": {"lon": 16.717159, "lat": 50.056702}}, {"id": 3075447, "name": "Horn\u00ed Bludovice", "state": "", "country": "CZ", "coord": {"lon": 18.436769, "lat": 49.749649}}, {"id": 3075451, "name": "Horn\u00ed Bene\u0161ov", "state": "", "country": "CZ", "coord": {"lon": 17.602619, "lat": 49.96682}}, {"id": 3075454, "name": "Horn\u00ed Be\u010dva", "state": "", "country": "CZ", "coord": {"lon": 18.288589, "lat": 49.432159}}, {"id": 3075471, "name": "Horka nad Moravou", "state": "", "country": "CZ", "coord": {"lon": 17.210699, "lat": 49.640091}}, {"id": 3075493, "name": "Ho\u0159ice", "state": "", "country": "CZ", "coord": {"lon": 15.63183, "lat": 50.366089}}, {"id": 3075522, "name": "Hora\u017e\u010fovice", "state": "", "country": "CZ", "coord": {"lon": 13.701, "lat": 49.32069}}, {"id": 3075562, "name": "Hol\u00fd\u0161ov", "state": "", "country": "CZ", "coord": {"lon": 13.10129, "lat": 49.593609}}, {"id": 3075587, "name": "Holoubkov", "state": "", "country": "CZ", "coord": {"lon": 13.69246, "lat": 49.775982}}, {"id": 3075599, "name": "Holice", "state": "", "country": "CZ", "coord": {"lon": 15.9859, "lat": 50.06601}}, {"id": 3075606, "name": "Hole\u0161ov", "state": "", "country": "CZ", "coord": {"lon": 17.57832, "lat": 49.333309}}, {"id": 3075620, "name": "Holasovice", "state": "", "country": "CZ", "coord": {"lon": 17.80847, "lat": 49.998428}}, {"id": 3075622, "name": "Hol\u00e1sky", "state": "", "country": "CZ", "coord": {"lon": 16.651331, "lat": 49.143539}}, {"id": 3075624, "name": "Holasice", "state": "", "country": "CZ", "coord": {"lon": 16.607559, "lat": 49.075859}}, {"id": 3075643, "name": "Hodslavice", "state": "", "country": "CZ", "coord": {"lon": 18.02367, "lat": 49.538559}}, {"id": 3075654, "name": "Hodon\u00edn", "state": "", "country": "CZ", "coord": {"lon": 17.132441, "lat": 48.84893}}, {"id": 3075656, "name": "Hodonice", "state": "", "country": "CZ", "coord": {"lon": 16.16337, "lat": 48.8368}}, {"id": 3075663, "name": "Hodkovi\u010dky", "state": "", "country": "CZ", "coord": {"lon": 14.41741, "lat": 50.028091}}, {"id": 3075664, "name": "Hodkovice nad Mohelkou", "state": "", "country": "CZ", "coord": {"lon": 15.08985, "lat": 50.665859}}, {"id": 3075690, "name": "Hn\u011bvot\u00edn", "state": "", "country": "CZ", "coord": {"lon": 17.179541, "lat": 49.572048}}, {"id": 3075691, "name": "Hn\u011bvo\u0161ice", "state": "", "country": "CZ", "coord": {"lon": 18.008289, "lat": 50.002991}}, {"id": 3075715, "name": "Hluk", "state": "", "country": "CZ", "coord": {"lon": 17.52668, "lat": 48.988121}}, {"id": 3075716, "name": "Hlu\u010d\u00edn", "state": "", "country": "CZ", "coord": {"lon": 18.191959, "lat": 49.897949}}, {"id": 3075731, "name": "Hlubok\u00e1 nad Vltavou", "state": "", "country": "CZ", "coord": {"lon": 14.43427, "lat": 49.05225}}, {"id": 3075744, "name": "Hlubo\u010dky", "state": "", "country": "CZ", "coord": {"lon": 17.39436, "lat": 49.617828}}, {"id": 3075756, "name": "Hlohovec", "state": "", "country": "CZ", "coord": {"lon": 16.7623, "lat": 48.773991}}, {"id": 3075766, "name": "Hlinsko", "state": "", "country": "CZ", "coord": {"lon": 15.90756, "lat": 49.762131}}, {"id": 3075827, "name": "Hevl\u00edn", "state": "", "country": "CZ", "coord": {"lon": 16.38131, "lat": 48.75209}}, {"id": 3075841, "name": "He\u0159man\u016fv M\u011bstec", "state": "", "country": "CZ", "coord": {"lon": 15.66492, "lat": 49.947071}}, {"id": 3075843, "name": "He\u0159manova Hu\u0165", "state": "", "country": "CZ", "coord": {"lon": 13.10069, "lat": 49.706791}}, {"id": 3075877, "name": "Her\u00e1lec", "state": "", "country": "CZ", "coord": {"lon": 15.99431, "lat": 49.688911}}, {"id": 3075878, "name": "Her\u00e1lec", "state": "", "country": "CZ", "coord": {"lon": 15.45708, "lat": 49.53083}}, {"id": 3075882, "name": "Hen\u010dlov", "state": "", "country": "CZ", "coord": {"lon": 17.391319, "lat": 49.438919}}, {"id": 3075894, "name": "Hejnice", "state": "", "country": "CZ", "coord": {"lon": 15.18168, "lat": 50.877201}}, {"id": 3075905, "name": "Hazlov", "state": "", "country": "CZ", "coord": {"lon": 12.27238, "lat": 50.156342}}, {"id": 3075919, "name": "Havl\u00ed\u010dk\u016fv Brod", "state": "", "country": "CZ", "coord": {"lon": 15.58069, "lat": 49.607849}}, {"id": 3075921, "name": "Hav\u00ed\u0159ov", "state": "", "country": "CZ", "coord": {"lon": 18.43688, "lat": 49.779839}}, {"id": 3075930, "name": "Ha\u0165", "state": "", "country": "CZ", "coord": {"lon": 18.239309, "lat": 49.946442}}, {"id": 3075949, "name": "Hartmanice", "state": "", "country": "CZ", "coord": {"lon": 13.45455, "lat": 49.169479}}, {"id": 3075952, "name": "Harrachov", "state": "", "country": "CZ", "coord": {"lon": 14.45457, "lat": 51.018509}}, {"id": 3075953, "name": "Harrachov", "state": "", "country": "CZ", "coord": {"lon": 15.43141, "lat": 50.772091}}, {"id": 3075958, "name": "Hanu\u0161ovice", "state": "", "country": "CZ", "coord": {"lon": 16.936411, "lat": 50.08049}}, {"id": 3075996, "name": "Halenkovice", "state": "", "country": "CZ", "coord": {"lon": 17.47156, "lat": 49.171021}}, {"id": 3075997, "name": "Halenkov", "state": "", "country": "CZ", "coord": {"lon": 18.14749, "lat": 49.317402}}, {"id": 3076001, "name": "H\u00e1j ve Slezsku", "state": "", "country": "CZ", "coord": {"lon": 18.0954, "lat": 49.89856}}, {"id": 3076027, "name": "H\u00e1je", "state": "", "country": "CZ", "coord": {"lon": 12.36947, "lat": 50.057861}}, {"id": 3076053, "name": "Habry", "state": "", "country": "CZ", "coord": {"lon": 15.48486, "lat": 49.756031}}, {"id": 3076076, "name": "Habartov", "state": "", "country": "CZ", "coord": {"lon": 12.55054, "lat": 50.182968}}, {"id": 3076077, "name": "Habartice", "state": "", "country": "CZ", "coord": {"lon": 15.06515, "lat": 51.019032}}, {"id": 3076084, "name": "Grygov", "state": "", "country": "CZ", "coord": {"lon": 17.30887, "lat": 49.53841}}, {"id": 3076098, "name": "Gol\u010d\u016fv Jen\u00edkov", "state": "", "country": "CZ", "coord": {"lon": 15.47686, "lat": 49.816261}}, {"id": 3076116, "name": "Fulnek", "state": "", "country": "CZ", "coord": {"lon": 17.903191, "lat": 49.712379}}, {"id": 3076118, "name": "Fry\u0161t\u00e1k", "state": "", "country": "CZ", "coord": {"lon": 17.68346, "lat": 49.285198}}, {"id": 3076120, "name": "Frymburk", "state": "", "country": "CZ", "coord": {"lon": 14.16564, "lat": 48.660938}}, {"id": 3076123, "name": "Fr\u00fddlant nad Ostravic\u00ed", "state": "", "country": "CZ", "coord": {"lon": 18.359671, "lat": 49.5928}}, {"id": 3076124, "name": "Fr\u00fddlant", "state": "", "country": "CZ", "coord": {"lon": 15.07974, "lat": 50.921391}}, {"id": 3076127, "name": "Fr\u00fddek-M\u00edstek", "state": "", "country": "CZ", "coord": {"lon": 18.35, "lat": 49.683331}}, {"id": 3076129, "name": "Fry\u010dovice", "state": "", "country": "CZ", "coord": {"lon": 18.223209, "lat": 49.666771}}, {"id": 3076132, "name": "Fren\u0161t\u00e1t pod Radho\u0161t\u011bm", "state": "", "country": "CZ", "coord": {"lon": 18.210779, "lat": 49.548351}}, {"id": 3076136, "name": "Franti\u0161kovy L\u00e1zn\u011b", "state": "", "country": "CZ", "coord": {"lon": 12.35174, "lat": 50.120331}}, {"id": 3076140, "name": "Franti\u0161kov", "state": "", "country": "CZ", "coord": {"lon": 15.01667, "lat": 50.76667}}, {"id": 3076153, "name": "Francova Lhota", "state": "", "country": "CZ", "coord": {"lon": 18.11175, "lat": 49.20174}}, {"id": 3076234, "name": "D\u00fd\u0161ina", "state": "", "country": "CZ", "coord": {"lon": 13.4915, "lat": 49.777351}}, {"id": 3076258, "name": "Dvorska", "state": "", "country": "CZ", "coord": {"lon": 16.70059, "lat": 49.140839}}, {"id": 3076284, "name": "Dvorce", "state": "", "country": "CZ", "coord": {"lon": 17.547621, "lat": 49.833321}}, {"id": 3076311, "name": "Duchcov", "state": "", "country": "CZ", "coord": {"lon": 13.74621, "lat": 50.60376}}, {"id": 3076328, "name": "Dubn\u00e9", "state": "", "country": "CZ", "coord": {"lon": 14.36038, "lat": 48.976189}}, {"id": 3076329, "name": "Dub\u0148any", "state": "", "country": "CZ", "coord": {"lon": 17.09004, "lat": 48.916939}}, {"id": 3076330, "name": "Dub nad Moravou", "state": "", "country": "CZ", "coord": {"lon": 17.277229, "lat": 49.482491}}, {"id": 3076342, "name": "Dubicko", "state": "", "country": "CZ", "coord": {"lon": 16.96266, "lat": 49.82806}}, {"id": 3076346, "name": "Dub\u00ed", "state": "", "country": "CZ", "coord": {"lon": 13.78561, "lat": 50.685581}}, {"id": 3076348, "name": "Dub\u00ed", "state": "", "country": "CZ", "coord": {"lon": 15.41857, "lat": 49.533878}}, {"id": 3076355, "name": "Dube\u010d", "state": "", "country": "CZ", "coord": {"lon": 14.59414, "lat": 50.062538}}, {"id": 3076363, "name": "Dub\u00e1", "state": "", "country": "CZ", "coord": {"lon": 14.54023, "lat": 50.54034}}, {"id": 3076402, "name": "Drnovice", "state": "", "country": "CZ", "coord": {"lon": 16.542231, "lat": 49.469311}}, {"id": 3076403, "name": "Drnovice", "state": "", "country": "CZ", "coord": {"lon": 16.95146, "lat": 49.276299}}, {"id": 3076408, "name": "Drnholec", "state": "", "country": "CZ", "coord": {"lon": 16.485861, "lat": 48.85746}}, {"id": 3076413, "name": "D\u0159ite\u0148", "state": "", "country": "CZ", "coord": {"lon": 14.34596, "lat": 49.142799}}, {"id": 3076428, "name": "D\u0159evohostice", "state": "", "country": "CZ", "coord": {"lon": 17.592039, "lat": 49.425941}}, {"id": 3076470, "name": "Dr\u00e1sov", "state": "", "country": "CZ", "coord": {"lon": 16.47798, "lat": 49.331829}}, {"id": 3076508, "name": "Drahanovice", "state": "", "country": "CZ", "coord": {"lon": 17.077009, "lat": 49.57856}}, {"id": 3076521, "name": "Doudlevce", "state": "", "country": "CZ", "coord": {"lon": 13.38143, "lat": 49.719429}}, {"id": 3076522, "name": "Doudleby nad Orlic\u00ed", "state": "", "country": "CZ", "coord": {"lon": 16.261311, "lat": 50.107422}}, {"id": 3076531, "name": "Doubravice nad Svitavou", "state": "", "country": "CZ", "coord": {"lon": 16.62937, "lat": 49.436642}}, {"id": 3076555, "name": "Doubrava", "state": "", "country": "CZ", "coord": {"lon": 18.480181, "lat": 49.85873}}, {"id": 3076586, "name": "Okres Doma\u017elice", "state": "", "country": "CZ", "coord": {"lon": 12.91667, "lat": 49.5}}, {"id": 3076587, "name": "Doma\u017elice", "state": "", "country": "CZ", "coord": {"lon": 12.92976, "lat": 49.440491}}, {"id": 3076604, "name": "Doman\u00edn", "state": "", "country": "CZ", "coord": {"lon": 17.28476, "lat": 49.001671}}, {"id": 3076615, "name": "Doloplazy", "state": "", "country": "CZ", "coord": {"lon": 17.413931, "lat": 49.56876}}, {"id": 3076621, "name": "Doln\u00ed \u017divotice", "state": "", "country": "CZ", "coord": {"lon": 17.77969, "lat": 49.89732}}, {"id": 3076627, "name": "Doln\u00ed \u017dandov", "state": "", "country": "CZ", "coord": {"lon": 12.55101, "lat": 50.017941}}, {"id": 3076650, "name": "Doln\u00ed \u00dajezd", "state": "", "country": "CZ", "coord": {"lon": 16.25461, "lat": 49.825619}}, {"id": 3076651, "name": "Doln\u00ed \u00dajezd", "state": "", "country": "CZ", "coord": {"lon": 17.535469, "lat": 49.545971}}, {"id": 3076671, "name": "Doln\u00ed Stud\u00e9nky", "state": "", "country": "CZ", "coord": {"lon": 16.971069, "lat": 49.935059}}, {"id": 3076685, "name": "Doln\u00ed Sloupnice", "state": "", "country": "CZ", "coord": {"lon": 16.29401, "lat": 49.927212}}, {"id": 3076694, "name": "Doln\u00ed Rychnov", "state": "", "country": "CZ", "coord": {"lon": 12.64507, "lat": 50.164619}}, {"id": 3076701, "name": "Doln\u00ed Rove\u0148", "state": "", "country": "CZ", "coord": {"lon": 15.96774, "lat": 50.02927}}, {"id": 3076726, "name": "Doln\u00ed Poustevna", "state": "", "country": "CZ", "coord": {"lon": 14.28684, "lat": 50.98251}}, {"id": 3076734, "name": "Doln\u00ed Podlu\u017e\u00ed", "state": "", "country": "CZ", "coord": {"lon": 14.59503, "lat": 50.879879}}, {"id": 3076735, "name": "Doln\u00ed Po\u010dernice", "state": "", "country": "CZ", "coord": {"lon": 14.57199, "lat": 50.087601}}, {"id": 3076761, "name": "Doln\u00ed N\u011bm\u010d\u00ed", "state": "", "country": "CZ", "coord": {"lon": 17.58585, "lat": 48.968369}}, {"id": 3076767, "name": "Doln\u00ed Mokropsy", "state": "", "country": "CZ", "coord": {"lon": 14.32952, "lat": 49.940781}}, {"id": 3076777, "name": "Doln\u00ed Lutyn\u011b", "state": "", "country": "CZ", "coord": {"lon": 18.42815, "lat": 49.898762}}, {"id": 3076780, "name": "Doln\u00ed Lou\u0107ky", "state": "", "country": "CZ", "coord": {"lon": 16.358709, "lat": 49.360989}}, {"id": 3076786, "name": "Doln\u00ed Litv\u00ednov", "state": "", "country": "CZ", "coord": {"lon": 13.61172, "lat": 50.597401}}, {"id": 3076793, "name": "Doln\u00ed Liboc", "state": "", "country": "CZ", "coord": {"lon": 14.31667, "lat": 50.083328}}, {"id": 3076794, "name": "Doln\u00ed Libina", "state": "", "country": "CZ", "coord": {"lon": 17.10729, "lat": 49.858212}}, {"id": 3076800, "name": "Doln\u00ed Lhota", "state": "", "country": "CZ", "coord": {"lon": 18.092409, "lat": 49.842361}}, {"id": 3076822, "name": "Doln\u00ed Kounice", "state": "", "country": "CZ", "coord": {"lon": 16.46492, "lat": 49.07011}}, {"id": 3076873, "name": "Doln\u00ed Dvo\u0159i\u0161t\u011b", "state": "", "country": "CZ", "coord": {"lon": 14.45221, "lat": 48.656422}}, {"id": 3076876, "name": "Doln\u00ed Dunajovice", "state": "", "country": "CZ", "coord": {"lon": 16.592831, "lat": 48.854469}}, {"id": 3076882, "name": "Doln\u00ed Dobrou\u010d", "state": "", "country": "CZ", "coord": {"lon": 16.49766, "lat": 49.992729}}, {"id": 3076901, "name": "Doln\u00ed \u010cernilov", "state": "", "country": "CZ", "coord": {"lon": 15.96107, "lat": 50.261101}}, {"id": 3076902, "name": "Doln\u00ed \u010cermn\u00e1", "state": "", "country": "CZ", "coord": {"lon": 16.564751, "lat": 49.979542}}, {"id": 3076903, "name": "Doln\u00ed Cerekev", "state": "", "country": "CZ", "coord": {"lon": 15.45655, "lat": 49.34449}}, {"id": 3076907, "name": "Doln\u00ed Bukovsko", "state": "", "country": "CZ", "coord": {"lon": 14.58127, "lat": 49.17086}}, {"id": 3076915, "name": "Doln\u00ed B\u0159e\u017eany", "state": "", "country": "CZ", "coord": {"lon": 14.4585, "lat": 49.963211}}, {"id": 3076918, "name": "Doln\u00ed Bousov", "state": "", "country": "CZ", "coord": {"lon": 15.12812, "lat": 50.438251}}, {"id": 3076923, "name": "Doln\u00ed Bojanovice", "state": "", "country": "CZ", "coord": {"lon": 17.028589, "lat": 48.858608}}, {"id": 3076925, "name": "Doln\u00ed Bohd\u00edkov", "state": "", "country": "CZ", "coord": {"lon": 16.904329, "lat": 50.00996}}, {"id": 3076930, "name": "Doln\u00ed Be\u0159kovice", "state": "", "country": "CZ", "coord": {"lon": 14.45024, "lat": 50.393131}}, {"id": 3076931, "name": "Doln\u00ed Bene\u0161ov", "state": "", "country": "CZ", "coord": {"lon": 18.108351, "lat": 49.921009}}, {"id": 3076934, "name": "Doln\u00ed Be\u010dva", "state": "", "country": "CZ", "coord": {"lon": 18.194189, "lat": 49.454979}}, {"id": 3076960, "name": "Dolany", "state": "", "country": "CZ", "coord": {"lon": 17.322399, "lat": 49.649872}}, {"id": 3076972, "name": "Doksy", "state": "", "country": "CZ", "coord": {"lon": 14.65553, "lat": 50.564709}}, {"id": 3076973, "name": "Doksy", "state": "", "country": "CZ", "coord": {"lon": 14.04782, "lat": 50.118999}}, {"id": 3076984, "name": "Dob\u0161ice", "state": "", "country": "CZ", "coord": {"lon": 16.08218, "lat": 48.848339}}, {"id": 3076985, "name": "Dobru\u0161ka", "state": "", "country": "CZ", "coord": {"lon": 16.160009, "lat": 50.292011}}, {"id": 3076988, "name": "Dobrov\u00edz", "state": "", "country": "CZ", "coord": {"lon": 14.21773, "lat": 50.11306}}, {"id": 3076991, "name": "Dobrovice", "state": "", "country": "CZ", "coord": {"lon": 14.96233, "lat": 50.369331}}, {"id": 3077001, "name": "Dobron\u00edn", "state": "", "country": "CZ", "coord": {"lon": 15.64992, "lat": 49.478329}}, {"id": 3077006, "name": "Dobrom\u011b\u0159ice", "state": "", "country": "CZ", "coord": {"lon": 13.79473, "lat": 50.37009}}, {"id": 3077010, "name": "Dobro\u010dovice", "state": "", "country": "CZ", "coord": {"lon": 14.69991, "lat": 50.05632}}, {"id": 3077023, "name": "Dob\u0159\u00edv", "state": "", "country": "CZ", "coord": {"lon": 13.68681, "lat": 49.71566}}, {"id": 3077024, "name": "Dob\u0159\u00ed\u0161", "state": "", "country": "CZ", "coord": {"lon": 14.16717, "lat": 49.781132}}, {"id": 3077034, "name": "Dob\u0159ichovice", "state": "", "country": "CZ", "coord": {"lon": 14.27469, "lat": 49.92749}}, {"id": 3077071, "name": "Dobratice", "state": "", "country": "CZ", "coord": {"lon": 18.49226, "lat": 49.660389}}, {"id": 3077073, "name": "Dob\u0159any", "state": "", "country": "CZ", "coord": {"lon": 13.29307, "lat": 49.654819}}, {"id": 3077075, "name": "Dobr\u00e1", "state": "", "country": "CZ", "coord": {"lon": 18.413931, "lat": 49.673828}}, {"id": 3077119, "name": "Dlouh\u00e1 T\u0159ebov\u00e1", "state": "", "country": "CZ", "coord": {"lon": 16.42329, "lat": 49.940399}}, {"id": 3077148, "name": "Divi\u0161ov", "state": "", "country": "CZ", "coord": {"lon": 14.87579, "lat": 49.78849}}, {"id": 3077184, "name": "D\u011btmarovice", "state": "", "country": "CZ", "coord": {"lon": 18.460791, "lat": 49.894119}}, {"id": 3077188, "name": "D\u011btenice", "state": "", "country": "CZ", "coord": {"lon": 15.17052, "lat": 50.36808}}, {"id": 3077198, "name": "Desn\u00e1", "state": "", "country": "CZ", "coord": {"lon": 15.30284, "lat": 50.759869}}, {"id": 3077244, "name": "D\u011b\u010d\u00edn", "state": "", "country": "CZ", "coord": {"lon": 14.21478, "lat": 50.78215}}, {"id": 3077258, "name": "Davle", "state": "", "country": "CZ", "coord": {"lon": 14.40037, "lat": 49.892181}}, {"id": 3077264, "name": "Da\u0161ice", "state": "", "country": "CZ", "coord": {"lon": 15.91244, "lat": 50.028439}}, {"id": 3077268, "name": "Darkovice", "state": "", "country": "CZ", "coord": {"lon": 18.22213, "lat": 49.935921}}, {"id": 3077269, "name": "Darkov", "state": "", "country": "CZ", "coord": {"lon": 18.55471, "lat": 49.838329}}, {"id": 3077285, "name": "Dambo\u0159ice", "state": "", "country": "CZ", "coord": {"lon": 16.91757, "lat": 49.03828}}, {"id": 3077291, "name": "Dalovice", "state": "", "country": "CZ", "coord": {"lon": 12.89581, "lat": 50.247791}}, {"id": 3077304, "name": "Da\u010dice", "state": "", "country": "CZ", "coord": {"lon": 15.43727, "lat": 49.081539}}, {"id": 3077309, "name": "\u010e\u00e1blice", "state": "", "country": "CZ", "coord": {"lon": 14.48565, "lat": 50.145611}}, {"id": 3077311, "name": "Czechia", "state": "", "country": "CZ", "coord": {"lon": 15.0, "lat": 49.75}}, {"id": 3077318, "name": "Cvikov", "state": "", "country": "CZ", "coord": {"lon": 14.63298, "lat": 50.77668}}, {"id": 3077331, "name": "\u010cty\u0159i Dvory", "state": "", "country": "CZ", "coord": {"lon": 14.45269, "lat": 48.982738}}, {"id": 3077349, "name": "\u010ckyn\u011b", "state": "", "country": "CZ", "coord": {"lon": 13.82906, "lat": 49.115028}}, {"id": 3077359, "name": "\u010c\u00ed\u017ekovice", "state": "", "country": "CZ", "coord": {"lon": 14.02839, "lat": 50.48418}}, {"id": 3077366, "name": "C\u00edtov", "state": "", "country": "CZ", "coord": {"lon": 14.39813, "lat": 50.37225}}, {"id": 3077385, "name": "\u010cisovice", "state": "", "country": "CZ", "coord": {"lon": 14.31478, "lat": 49.86338}}, {"id": 3077391, "name": "C\u00edrkvice", "state": "", "country": "CZ", "coord": {"lon": 15.33505, "lat": 49.945599}}, {"id": 3077407, "name": "\u010cimelice", "state": "", "country": "CZ", "coord": {"lon": 14.06922, "lat": 49.465569}}, {"id": 3077418, "name": "Cihelny", "state": "", "country": "CZ", "coord": {"lon": 12.8362, "lat": 50.179729}}, {"id": 3077453, "name": "Chy\u0161ky", "state": "", "country": "CZ", "coord": {"lon": 14.42757, "lat": 49.52346}}, {"id": 3077457, "name": "Ch\u00fdnov", "state": "", "country": "CZ", "coord": {"lon": 14.81122, "lat": 49.406769}}, {"id": 3077461, "name": "Chy\u0148ava", "state": "", "country": "CZ", "coord": {"lon": 14.07398, "lat": 50.027359}}, {"id": 3077478, "name": "Chval\u0161iny", "state": "", "country": "CZ", "coord": {"lon": 14.21114, "lat": 48.854012}}, {"id": 3077501, "name": "Chvaletice", "state": "", "country": "CZ", "coord": {"lon": 15.41846, "lat": 50.034431}}, {"id": 3077508, "name": "Chval\u010dov", "state": "", "country": "CZ", "coord": {"lon": 17.711491, "lat": 49.389179}}, {"id": 3077510, "name": "Chur\u00e1nov", "state": "", "country": "CZ", "coord": {"lon": 13.62425, "lat": 49.066219}}, {"id": 3077533, "name": "Chucheln\u00e1", "state": "", "country": "CZ", "coord": {"lon": 18.11656, "lat": 49.986641}}, {"id": 3077538, "name": "Okres Chrudim", "state": "", "country": "CZ", "coord": {"lon": 15.83333, "lat": 49.833328}}, {"id": 3077539, "name": "Chrudim", "state": "", "country": "CZ", "coord": {"lon": 15.79558, "lat": 49.951092}}, {"id": 3077543, "name": "Chroustovice", "state": "", "country": "CZ", "coord": {"lon": 15.99143, "lat": 49.955528}}, {"id": 3077549, "name": "Chropyn\u011b", "state": "", "country": "CZ", "coord": {"lon": 17.36451, "lat": 49.356441}}, {"id": 3077558, "name": "Ch\u0159ibsk\u00e1", "state": "", "country": "CZ", "coord": {"lon": 14.48444, "lat": 50.86079}}, {"id": 3077584, "name": "Chrastava", "state": "", "country": "CZ", "coord": {"lon": 14.96884, "lat": 50.816929}}, {"id": 3077596, "name": "Chrast", "state": "", "country": "CZ", "coord": {"lon": 15.93396, "lat": 49.90205}}, {"id": 3077598, "name": "Chr\u00e1st", "state": "", "country": "CZ", "coord": {"lon": 13.49358, "lat": 49.793201}}, {"id": 3077624, "name": "Chotusice", "state": "", "country": "CZ", "coord": {"lon": 15.39428, "lat": 49.949139}}, {"id": 3077625, "name": "Chotoviny", "state": "", "country": "CZ", "coord": {"lon": 14.67695, "lat": 49.478031}}, {"id": 3077650, "name": "Chot\u011b\u0161ov", "state": "", "country": "CZ", "coord": {"lon": 13.20271, "lat": 49.654079}}, {"id": 3077665, "name": "Chot\u011bbuz", "state": "", "country": "CZ", "coord": {"lon": 18.56912, "lat": 49.76849}}, {"id": 3077669, "name": "Chot\u011bbo\u0159", "state": "", "country": "CZ", "coord": {"lon": 15.67018, "lat": 49.720718}}, {"id": 3077685, "name": "Chomutov", "state": "", "country": "CZ", "coord": {"lon": 13.41779, "lat": 50.46048}}, {"id": 3077705, "name": "Chodov\u00e1 Plan\u00e1", "state": "", "country": "CZ", "coord": {"lon": 12.73014, "lat": 49.893211}}, {"id": 3077706, "name": "Chodov", "state": "", "country": "CZ", "coord": {"lon": 12.74551, "lat": 50.240181}}, {"id": 3077725, "name": "Choce\u0148", "state": "", "country": "CZ", "coord": {"lon": 16.22303, "lat": 50.00161}}, {"id": 3077741, "name": "Chlum u T\u0159ebon\u011b", "state": "", "country": "CZ", "coord": {"lon": 14.92799, "lat": 48.962349}}, {"id": 3077751, "name": "Chlumec nad Cidlinou", "state": "", "country": "CZ", "coord": {"lon": 15.46026, "lat": 50.1544}}, {"id": 3077754, "name": "Chlumec", "state": "", "country": "CZ", "coord": {"lon": 13.93964, "lat": 50.699718}}, {"id": 3077760, "name": "Chlum\u010dany", "state": "", "country": "CZ", "coord": {"lon": 13.31323, "lat": 49.632561}}, {"id": 3077828, "name": "Chlebi\u010dov", "state": "", "country": "CZ", "coord": {"lon": 17.96748, "lat": 49.959419}}, {"id": 3077834, "name": "Okres Cheb", "state": "", "country": "CZ", "coord": {"lon": 12.5, "lat": 50.083328}}, {"id": 3077835, "name": "Cheb", "state": "", "country": "CZ", "coord": {"lon": 12.37392, "lat": 50.079632}}, {"id": 3077842, "name": "Charvatce", "state": "", "country": "CZ", "coord": {"lon": 14.99861, "lat": 50.322632}}, {"id": 3077862, "name": "Chaba\u0159ovice", "state": "", "country": "CZ", "coord": {"lon": 13.94184, "lat": 50.67318}}, {"id": 3077872, "name": "\u010cestlice", "state": "", "country": "CZ", "coord": {"lon": 14.58361, "lat": 50.00251}}, {"id": 3077882, "name": "\u010cesk\u00fd T\u011b\u0161\u00edn", "state": "", "country": "CZ", "coord": {"lon": 18.626129, "lat": 49.746132}}, {"id": 3077884, "name": "\u010cesk\u00fd Rudolec", "state": "", "country": "CZ", "coord": {"lon": 15.32437, "lat": 49.068352}}, {"id": 3077889, "name": "\u010cesk\u00fd Krumlov", "state": "", "country": "CZ", "coord": {"lon": 14.31521, "lat": 48.810909}}, {"id": 3077895, "name": "\u010cesk\u00fd Dub", "state": "", "country": "CZ", "coord": {"lon": 14.99617, "lat": 50.660542}}, {"id": 3077898, "name": "\u010cesk\u00fd Brod", "state": "", "country": "CZ", "coord": {"lon": 14.86081, "lat": 50.0742}}, {"id": 3077903, "name": "\u010cesk\u00e9 Velenice", "state": "", "country": "CZ", "coord": {"lon": 14.96368, "lat": 48.768509}}, {"id": 3077906, "name": "\u010cesk\u00e9 Mezi\u0159\u00ed\u010d\u00ed", "state": "", "country": "CZ", "coord": {"lon": 16.044279, "lat": 50.2868}}, {"id": 3077909, "name": "\u010cesk\u00e9 K\u0159i\u017e\u00e1nky", "state": "", "country": "CZ", "coord": {"lon": 16.062519, "lat": 49.68956}}, {"id": 3077916, "name": "\u010cesk\u00e9 Bud\u011bjovice", "state": "", "country": "CZ", "coord": {"lon": 14.47434, "lat": 48.974468}}, {"id": 3077918, "name": "\u010cesk\u00e1 Ves", "state": "", "country": "CZ", "coord": {"lon": 17.22805, "lat": 50.257359}}, {"id": 3077920, "name": "\u010cesk\u00e1 T\u0159ebov\u00e1", "state": "", "country": "CZ", "coord": {"lon": 16.44413, "lat": 49.904362}}, {"id": 3077921, "name": "\u010cesk\u00e1 Skalice", "state": "", "country": "CZ", "coord": {"lon": 16.042761, "lat": 50.394669}}, {"id": 3077929, "name": "\u010cesk\u00e1 L\u00edpa", "state": "", "country": "CZ", "coord": {"lon": 14.53764, "lat": 50.685509}}, {"id": 3077932, "name": "\u010cesk\u00e1 Kamenice", "state": "", "country": "CZ", "coord": {"lon": 14.41767, "lat": 50.797798}}, {"id": 3077955, "name": "\u010cerven\u00fd Kostelec", "state": "", "country": "CZ", "coord": {"lon": 16.09289, "lat": 50.476261}}, {"id": 3077960, "name": "\u010cerven\u00fd Hr\u00e1dek", "state": "", "country": "CZ", "coord": {"lon": 14.4481, "lat": 49.659801}}, {"id": 3077965, "name": "\u010cervenka", "state": "", "country": "CZ", "coord": {"lon": 17.07773, "lat": 49.72068}}, {"id": 3077968, "name": "\u010cerven\u00e9 Pe\u010dky", "state": "", "country": "CZ", "coord": {"lon": 15.20856, "lat": 49.978222}}, {"id": 3077972, "name": "\u010cerven\u00e1 Voda", "state": "", "country": "CZ", "coord": {"lon": 16.74268, "lat": 50.040291}}, {"id": 3077996, "name": "\u010certousy", "state": "", "country": "CZ", "coord": {"lon": 14.63333, "lat": 50.116669}}, {"id": 3078012, "name": "\u010cerno\u017eice", "state": "", "country": "CZ", "coord": {"lon": 15.87403, "lat": 50.31863}}, {"id": 3078021, "name": "\u010cernovice", "state": "", "country": "CZ", "coord": {"lon": 14.96089, "lat": 49.37265}}, {"id": 3078028, "name": "\u010cerno\u0161\u00edn", "state": "", "country": "CZ", "coord": {"lon": 12.88381, "lat": 49.816132}}, {"id": 3078029, "name": "\u010cerno\u0161ice", "state": "", "country": "CZ", "coord": {"lon": 14.31979, "lat": 49.960079}}, {"id": 3078038, "name": "\u010cernilov", "state": "", "country": "CZ", "coord": {"lon": 15.92254, "lat": 50.26265}}, {"id": 3078064, "name": "\u010cern\u010dice", "state": "", "country": "CZ", "coord": {"lon": 13.91642, "lat": 50.56176}}, {"id": 3078065, "name": "\u010cern\u010dice", "state": "", "country": "CZ", "coord": {"lon": 13.84521, "lat": 50.361382}}, {"id": 3078085, "name": "\u010cern\u00e1 Hora", "state": "", "country": "CZ", "coord": {"lon": 16.5814, "lat": 49.413609}}, {"id": 3078114, "name": "Cerhenice", "state": "", "country": "CZ", "coord": {"lon": 15.07203, "lat": 50.07127}}, {"id": 3078122, "name": "\u010cer\u010dany", "state": "", "country": "CZ", "coord": {"lon": 14.70299, "lat": 49.852928}}, {"id": 3078155, "name": "\u010celechovice na Han\u00e9", "state": "", "country": "CZ", "coord": {"lon": 17.09379, "lat": 49.516258}}, {"id": 3078160, "name": "\u010cel\u00e1kovice", "state": "", "country": "CZ", "coord": {"lon": 14.75005, "lat": 50.160381}}, {"id": 3078161, "name": "\u010celadn\u00e1", "state": "", "country": "CZ", "coord": {"lon": 18.337589, "lat": 49.548729}}, {"id": 3078181, "name": "\u010cejkovice", "state": "", "country": "CZ", "coord": {"lon": 16.942301, "lat": 48.905918}}, {"id": 3078187, "name": "\u010cej\u010d", "state": "", "country": "CZ", "coord": {"lon": 16.965111, "lat": 48.946529}}, {"id": 3078203, "name": "\u010cechtice", "state": "", "country": "CZ", "coord": {"lon": 15.04824, "lat": 49.624031}}, {"id": 3078211, "name": "\u010ceb\u00edn", "state": "", "country": "CZ", "coord": {"lon": 16.477909, "lat": 49.31324}}, {"id": 3078223, "name": "\u010castolovice", "state": "", "country": "CZ", "coord": {"lon": 16.18128, "lat": 50.129101}}, {"id": 3078234, "name": "\u010c\u00e1slav", "state": "", "country": "CZ", "coord": {"lon": 15.38972, "lat": 49.910992}}, {"id": 3078251, "name": "\u010cakovice", "state": "", "country": "CZ", "coord": {"lon": 14.52393, "lat": 50.151279}}, {"id": 3078275, "name": "Bzenec", "state": "", "country": "CZ", "coord": {"lon": 17.26685, "lat": 48.973358}}, {"id": 3078286, "name": "Byst\u0159ice pod Host\u00fdnem", "state": "", "country": "CZ", "coord": {"lon": 17.674009, "lat": 49.399239}}, {"id": 3078288, "name": "Byst\u0159ice nad Pern\u0161tejnem", "state": "", "country": "CZ", "coord": {"lon": 16.261471, "lat": 49.522949}}, {"id": 3078300, "name": "Byst\u0159ice", "state": "", "country": "CZ", "coord": {"lon": 14.6674, "lat": 49.732128}}, {"id": 3078301, "name": "Byst\u0159ice", "state": "", "country": "CZ", "coord": {"lon": 18.720381, "lat": 49.63657}}, {"id": 3078303, "name": "Byst\u0159ec", "state": "", "country": "CZ", "coord": {"lon": 16.618999, "lat": 50.011681}}, {"id": 3078306, "name": "Bystr\u00e9", "state": "", "country": "CZ", "coord": {"lon": 16.34679, "lat": 49.62846}}, {"id": 3078309, "name": "Byst\u0159any", "state": "", "country": "CZ", "coord": {"lon": 13.86419, "lat": 50.62867}}, {"id": 3078316, "name": "B\u00fd\u0161\u0165", "state": "", "country": "CZ", "coord": {"lon": 15.91116, "lat": 50.132431}}, {"id": 3078322, "name": "By\u0161ice", "state": "", "country": "CZ", "coord": {"lon": 14.61136, "lat": 50.31044}}, {"id": 3078358, "name": "Bu\u0161t\u011bhrad", "state": "", "country": "CZ", "coord": {"lon": 14.18897, "lat": 50.155941}}, {"id": 3078417, "name": "Bukovec", "state": "", "country": "CZ", "coord": {"lon": 18.82683, "lat": 49.55114}}, {"id": 3078421, "name": "Bukovany", "state": "", "country": "CZ", "coord": {"lon": 12.57265, "lat": 50.166321}}, {"id": 3078458, "name": "Budyn\u011b nad Oh\u0159\u00ed", "state": "", "country": "CZ", "coord": {"lon": 14.12591, "lat": 50.40427}}, {"id": 3078469, "name": "Budi\u0161ov nad Budi\u0161ovkou", "state": "", "country": "CZ", "coord": {"lon": 17.62969, "lat": 49.795109}}, {"id": 3078472, "name": "Budi\u0161ov", "state": "", "country": "CZ", "coord": {"lon": 16.00383, "lat": 49.271381}}, {"id": 3078503, "name": "Bu\u010dovice", "state": "", "country": "CZ", "coord": {"lon": 17.001909, "lat": 49.14896}}, {"id": 3078513, "name": "Buchlovice", "state": "", "country": "CZ", "coord": {"lon": 17.33852, "lat": 49.086269}}, {"id": 3078536, "name": "Bru\u0161perk", "state": "", "country": "CZ", "coord": {"lon": 18.222099, "lat": 49.7001}}, {"id": 3078545, "name": "Brunt\u00e1l", "state": "", "country": "CZ", "coord": {"lon": 17.464701, "lat": 49.988441}}, {"id": 3078547, "name": "Brumovice", "state": "", "country": "CZ", "coord": {"lon": 17.74958, "lat": 50.015301}}, {"id": 3078561, "name": "Brtnice", "state": "", "country": "CZ", "coord": {"lon": 15.67642, "lat": 49.30695}}, {"id": 3078577, "name": "Broumov", "state": "", "country": "CZ", "coord": {"lon": 16.33181, "lat": 50.585659}}, {"id": 3078584, "name": "Brodek u P\u0159erova", "state": "", "country": "CZ", "coord": {"lon": 17.338249, "lat": 49.484192}}, {"id": 3078610, "name": "Brno", "state": "", "country": "CZ", "coord": {"lon": 16.60796, "lat": 49.195221}}, {"id": 3078613, "name": "Brni\u0161t\u011b", "state": "", "country": "CZ", "coord": {"lon": 14.70338, "lat": 50.729191}}, {"id": 3078618, "name": "Brn\u00ed\u010dko", "state": "", "country": "CZ", "coord": {"lon": 17.142031, "lat": 49.772511}}, {"id": 3078620, "name": "Brn\u011bnec", "state": "", "country": "CZ", "coord": {"lon": 16.52202, "lat": 49.62735}}, {"id": 3078633, "name": "Brloh", "state": "", "country": "CZ", "coord": {"lon": 14.21857, "lat": 48.929871}}, {"id": 3078648, "name": "B\u0159idli\u010dn\u00e1", "state": "", "country": "CZ", "coord": {"lon": 17.371071, "lat": 49.911671}}, {"id": 3078659, "name": "B\u0159ezov\u00e1 nad Svitavou", "state": "", "country": "CZ", "coord": {"lon": 16.51799, "lat": 49.64418}}, {"id": 3078664, "name": "B\u0159ezov\u00e1", "state": "", "country": "CZ", "coord": {"lon": 12.64996, "lat": 50.145569}}, {"id": 3078669, "name": "B\u0159ezov\u00e1", "state": "", "country": "CZ", "coord": {"lon": 17.865561, "lat": 49.79158}}, {"id": 3078671, "name": "B\u0159ezov\u00e1", "state": "", "country": "CZ", "coord": {"lon": 17.739861, "lat": 48.92543}}, {"id": 3078672, "name": "B\u0159ezolupy", "state": "", "country": "CZ", "coord": {"lon": 17.580339, "lat": 49.12138}}, {"id": 3078675, "name": "B\u0159ezno", "state": "", "country": "CZ", "coord": {"lon": 13.42118, "lat": 50.401852}}, {"id": 3078683, "name": "B\u0159eznice", "state": "", "country": "CZ", "coord": {"lon": 13.95063, "lat": 49.557629}}, {"id": 3078685, "name": "B\u0159eznice", "state": "", "country": "CZ", "coord": {"lon": 17.662769, "lat": 49.186432}}, {"id": 3078732, "name": "B\u0159ez\u00ed", "state": "", "country": "CZ", "coord": {"lon": 16.56748, "lat": 48.819279}}, {"id": 3078748, "name": "B\u0159evnov", "state": "", "country": "CZ", "coord": {"lon": 14.3831, "lat": 50.074379}}, {"id": 3078773, "name": "B\u0159eclav", "state": "", "country": "CZ", "coord": {"lon": 16.88203, "lat": 48.758968}}, {"id": 3078807, "name": "B\u0159asy", "state": "", "country": "CZ", "coord": {"lon": 13.57833, "lat": 49.837002}}, {"id": 3078812, "name": "Brantice", "state": "", "country": "CZ", "coord": {"lon": 17.62911, "lat": 50.063511}}, {"id": 3078833, "name": "Bran\u00edk", "state": "", "country": "CZ", "coord": {"lon": 14.41235, "lat": 50.035969}}, {"id": 3078836, "name": "Brand\u00fds nad Orlic\u00ed", "state": "", "country": "CZ", "coord": {"lon": 16.28528, "lat": 50.001942}}, {"id": 3078837, "name": "Brand\u00fds nad Labem-Star\u00e1 Boleslav", "state": "", "country": "CZ", "coord": {"lon": 14.66326, "lat": 50.187092}}, {"id": 3078838, "name": "Brand\u00fds nad Labem", "state": "", "country": "CZ", "coord": {"lon": 14.67244, "lat": 50.183559}}, {"id": 3078839, "name": "Brand\u00fdsek", "state": "", "country": "CZ", "coord": {"lon": 14.16199, "lat": 50.189232}}, {"id": 3078845, "name": "Bra\u0148any", "state": "", "country": "CZ", "coord": {"lon": 13.70017, "lat": 50.54295}}, {"id": 3078872, "name": "Bo\u017eice", "state": "", "country": "CZ", "coord": {"lon": 16.28875, "lat": 48.836868}}, {"id": 3078885, "name": "Bouzov", "state": "", "country": "CZ", "coord": {"lon": 16.892879, "lat": 49.704262}}, {"id": 3078903, "name": "Bo\u0161ovice", "state": "", "country": "CZ", "coord": {"lon": 16.83676, "lat": 49.053509}}, {"id": 3078910, "name": "Boskovice", "state": "", "country": "CZ", "coord": {"lon": 16.659969, "lat": 49.487511}}, {"id": 3078912, "name": "Bo\u0161\u00ed\u0159any", "state": "", "country": "CZ", "coord": {"lon": 12.80562, "lat": 50.156288}}, {"id": 3078933, "name": "Bor\u0161ice", "state": "", "country": "CZ", "coord": {"lon": 17.35084, "lat": 49.062538}}, {"id": 3078957, "name": "Borovany", "state": "", "country": "CZ", "coord": {"lon": 14.64227, "lat": 48.898602}}, {"id": 3078973, "name": "Borohr\u00e1dek", "state": "", "country": "CZ", "coord": {"lon": 16.09326, "lat": 50.097771}}, {"id": 3078982, "name": "Bo\u0159itov", "state": "", "country": "CZ", "coord": {"lon": 16.59119, "lat": 49.425041}}, {"id": 3078997, "name": "Bo\u0159etice", "state": "", "country": "CZ", "coord": {"lon": 16.85306, "lat": 48.913021}}, {"id": 3079023, "name": "Borek", "state": "", "country": "CZ", "coord": {"lon": 14.50088, "lat": 49.023392}}, {"id": 3079031, "name": "Bordovice", "state": "", "country": "CZ", "coord": {"lon": 18.15262, "lat": 49.546879}}, {"id": 3079038, "name": "Bor", "state": "", "country": "CZ", "coord": {"lon": 12.77516, "lat": 49.71159}}, {"id": 3079078, "name": "Bolatice", "state": "", "country": "CZ", "coord": {"lon": 18.08358, "lat": 49.951721}}, {"id": 3079080, "name": "Bojov", "state": "", "country": "CZ", "coord": {"lon": 14.34064, "lat": 49.867619}}, {"id": 3079082, "name": "Bojkovice", "state": "", "country": "CZ", "coord": {"lon": 17.814871, "lat": 49.038639}}, {"id": 3079099, "name": "Bohut\u00edn", "state": "", "country": "CZ", "coord": {"lon": 13.94389, "lat": 49.65551}}, {"id": 3079102, "name": "Bohu\u0161ovice nad Oh\u0159\u00ed", "state": "", "country": "CZ", "coord": {"lon": 14.15048, "lat": 50.49316}}, {"id": 3079108, "name": "Bohuslavice", "state": "", "country": "CZ", "coord": {"lon": 18.12866, "lat": 49.942322}}, {"id": 3079121, "name": "Bohu\u0148ovice", "state": "", "country": "CZ", "coord": {"lon": 17.28693, "lat": 49.66301}}, {"id": 3079129, "name": "Bohum\u00edn", "state": "", "country": "CZ", "coord": {"lon": 18.35755, "lat": 49.90411}}, {"id": 3079159, "name": "Bohdalov", "state": "", "country": "CZ", "coord": {"lon": 15.87582, "lat": 49.47921}}, {"id": 3079174, "name": "Bochov", "state": "", "country": "CZ", "coord": {"lon": 13.05227, "lat": 50.14872}}, {"id": 3079194, "name": "Bludov", "state": "", "country": "CZ", "coord": {"lon": 16.92849, "lat": 49.9408}}, {"id": 3079199, "name": "Blu\u010dina", "state": "", "country": "CZ", "coord": {"lon": 16.644501, "lat": 49.05497}}, {"id": 3079203, "name": "Blovice", "state": "", "country": "CZ", "coord": {"lon": 13.54009, "lat": 49.582199}}, {"id": 3079209, "name": "Bl\u00ed\u017ekovice", "state": "", "country": "CZ", "coord": {"lon": 15.83482, "lat": 48.99976}}, {"id": 3079212, "name": "Bl\u00ed\u017eejov", "state": "", "country": "CZ", "coord": {"lon": 12.98926, "lat": 49.5}}, {"id": 3079220, "name": "Bla\u017eovice", "state": "", "country": "CZ", "coord": {"lon": 16.78611, "lat": 49.165691}}, {"id": 3079252, "name": "Blatn\u00e1", "state": "", "country": "CZ", "coord": {"lon": 13.88176, "lat": 49.424889}}, {"id": 3079273, "name": "Blansko", "state": "", "country": "CZ", "coord": {"lon": 16.644461, "lat": 49.363041}}, {"id": 3079332, "name": "B\u00edlovice nad Svitavou", "state": "", "country": "CZ", "coord": {"lon": 16.67247, "lat": 49.247082}}, {"id": 3079334, "name": "B\u00edlovice", "state": "", "country": "CZ", "coord": {"lon": 17.54961, "lat": 49.099651}}, {"id": 3079336, "name": "B\u00edlovec", "state": "", "country": "CZ", "coord": {"lon": 18.01581, "lat": 49.75639}}, {"id": 3079346, "name": "B\u00edlina Kyselka", "state": "", "country": "CZ", "coord": {"lon": 13.76667, "lat": 50.549999}}, {"id": 3079348, "name": "B\u00edlina", "state": "", "country": "CZ", "coord": {"lon": 13.77535, "lat": 50.548538}}, {"id": 3079368, "name": "B\u00edl\u00e1 T\u0159eme\u0161n\u00e1", "state": "", "country": "CZ", "coord": {"lon": 15.74101, "lat": 50.444649}}, {"id": 3079374, "name": "B\u00edl\u00e1 Lhota", "state": "", "country": "CZ", "coord": {"lon": 16.975071, "lat": 49.70953}}, {"id": 3079403, "name": "Bezdru\u017eice", "state": "", "country": "CZ", "coord": {"lon": 12.9711, "lat": 49.907242}}, {"id": 3079410, "name": "Bezd\u011bkov pod T\u0159em\u0161\u00ednem", "state": "", "country": "CZ", "coord": {"lon": 13.87846, "lat": 49.577099}}, {"id": 3079467, "name": "Beroun", "state": "", "country": "CZ", "coord": {"lon": 14.072, "lat": 49.963821}}, {"id": 3079476, "name": "Bernartice", "state": "", "country": "CZ", "coord": {"lon": 14.38101, "lat": 49.368889}}, {"id": 3079500, "name": "Bene\u0161ov nad Plou\u010dnic\u00ed", "state": "", "country": "CZ", "coord": {"lon": 14.31239, "lat": 50.741589}}, {"id": 3079501, "name": "Bene\u0161ov nad \u010cernou", "state": "", "country": "CZ", "coord": {"lon": 14.62737, "lat": 48.729401}}, {"id": 3079508, "name": "Bene\u0161ov", "state": "", "country": "CZ", "coord": {"lon": 14.68697, "lat": 49.78162}}, {"id": 3079511, "name": "Benecko", "state": "", "country": "CZ", "coord": {"lon": 15.54816, "lat": 50.666328}}, {"id": 3079514, "name": "Ben\u00e1tky nad Jizerou", "state": "", "country": "CZ", "coord": {"lon": 14.82343, "lat": 50.290852}}, {"id": 3079532, "name": "B\u011blot\u00edn", "state": "", "country": "CZ", "coord": {"lon": 17.80654, "lat": 49.591202}}, {"id": 3079556, "name": "B\u011bl\u00e1 pod Bezd\u011bzem", "state": "", "country": "CZ", "coord": {"lon": 14.80418, "lat": 50.501209}}, {"id": 3079557, "name": "B\u011bl\u00e1 nad Radbuzou", "state": "", "country": "CZ", "coord": {"lon": 12.71761, "lat": 49.591148}}, {"id": 3079605, "name": "Bediho\u0161\u0165", "state": "", "country": "CZ", "coord": {"lon": 17.16643, "lat": 49.448261}}, {"id": 3079611, "name": "Be\u010dov", "state": "", "country": "CZ", "coord": {"lon": 13.71784, "lat": 50.449718}}, {"id": 3079616, "name": "Bechyn\u011b", "state": "", "country": "CZ", "coord": {"lon": 14.4681, "lat": 49.295231}}, {"id": 3079617, "name": "B\u011bchovice", "state": "", "country": "CZ", "coord": {"lon": 14.61782, "lat": 50.081051}}, {"id": 3079620, "name": "Bechl\u00edn", "state": "", "country": "CZ", "coord": {"lon": 14.34092, "lat": 50.416149}}, {"id": 3079632, "name": "Bavorov", "state": "", "country": "CZ", "coord": {"lon": 14.07893, "lat": 49.121841}}, {"id": 3079637, "name": "Batelov", "state": "", "country": "CZ", "coord": {"lon": 15.39465, "lat": 49.314251}}, {"id": 3079645, "name": "Ba\u0161ka", "state": "", "country": "CZ", "coord": {"lon": 18.37233, "lat": 49.64584}}, {"id": 3079653, "name": "Barto\u0161ovice", "state": "", "country": "CZ", "coord": {"lon": 18.054609, "lat": 49.668839}}, {"id": 3079671, "name": "B\u00e1nov", "state": "", "country": "CZ", "coord": {"lon": 17.71752, "lat": 48.98801}}, {"id": 3079685, "name": "Bakov nad Jizerou", "state": "", "country": "CZ", "coord": {"lon": 14.94149, "lat": 50.4823}}, {"id": 3079732, "name": "Babice", "state": "", "country": "CZ", "coord": {"lon": 17.480749, "lat": 49.12167}}, {"id": 3079751, "name": "A\u0161", "state": "", "country": "CZ", "coord": {"lon": 12.19499, "lat": 50.223869}}, {"id": 3079807, "name": "Aloisov", "state": "", "country": "CZ", "coord": {"lon": 14.54616, "lat": 50.100979}}, {"id": 3079813, "name": "Albrechti\u010dky", "state": "", "country": "CZ", "coord": {"lon": 18.09552, "lat": 49.701691}}, {"id": 3079817, "name": "Albrechtice nad Orlic\u00ed", "state": "", "country": "CZ", "coord": {"lon": 16.064369, "lat": 50.13979}}, {"id": 3079824, "name": "Albrechtice", "state": "", "country": "CZ", "coord": {"lon": 18.524441, "lat": 49.786449}}, {"id": 3079841, "name": "Adamov", "state": "", "country": "CZ", "coord": {"lon": 16.652531, "lat": 49.30162}}, {"id": 3079843, "name": "Abertamy", "state": "", "country": "CZ", "coord": {"lon": 12.81826, "lat": 50.36874}}, {"id": 3079850, "name": "Powiat b\u0119dzi\u0144ski", "state": "", "country": "PL", "coord": {"lon": 19.104191, "lat": 50.329239}}, {"id": 3079855, "name": "\u017bywiec", "state": "", "country": "PL", "coord": {"lon": 19.19243, "lat": 49.685291}}, {"id": 3079876, "name": "Zyglinek", "state": "", "country": "PL", "coord": {"lon": 18.94524, "lat": 50.492859}}, {"id": 3079897, "name": "\u017bychlin", "state": "", "country": "PL", "coord": {"lon": 19.626129, "lat": 52.244041}}, {"id": 3079920, "name": "Zwierzyniec", "state": "", "country": "PL", "coord": {"lon": 19.0042, "lat": 50.13707}}, {"id": 3079923, "name": "Zwierzy\u0144", "state": "", "country": "PL", "coord": {"lon": 15.56763, "lat": 52.832119}}, {"id": 3079942, "name": "\u017buromin", "state": "", "country": "PL", "coord": {"lon": 19.908939, "lat": 53.066109}}, {"id": 3079969, "name": "\u017bukowo", "state": "", "country": "PL", "coord": {"lon": 18.364759, "lat": 54.342201}}, {"id": 3079986, "name": "Zubrzyca G\u00f3rna", "state": "", "country": "PL", "coord": {"lon": 19.649731, "lat": 49.561741}}, {"id": 3079987, "name": "Zubrzyca Dolna", "state": "", "country": "PL", "coord": {"lon": 19.67342, "lat": 49.526878}}, {"id": 3079992, "name": "Zubard\u017a", "state": "", "country": "PL", "coord": {"lon": 19.41667, "lat": 51.783329}}, {"id": 3080004, "name": "\u017bory", "state": "", "country": "PL", "coord": {"lon": 18.700621, "lat": 50.045231}}, {"id": 3080007, "name": "\u017b\u00f3rawina", "state": "", "country": "PL", "coord": {"lon": 17.036711, "lat": 50.980801}}, {"id": 3080047, "name": "\u017bnin", "state": "", "country": "PL", "coord": {"lon": 17.719919, "lat": 52.849579}}, {"id": 3080058, "name": "\u017bmigr\u00f3d", "state": "", "country": "PL", "coord": {"lon": 16.90564, "lat": 51.466721}}, {"id": 3080061, "name": "Z\u0142oty Stok", "state": "", "country": "PL", "coord": {"lon": 16.87586, "lat": 50.444721}}, {"id": 3080071, "name": "Z\u0142ot\u00f3w", "state": "", "country": "PL", "coord": {"lon": 17.040819, "lat": 53.363461}}, {"id": 3080074, "name": "Z\u0142otoryja", "state": "", "country": "PL", "coord": {"lon": 15.91979, "lat": 51.126369}}, {"id": 3080083, "name": "Z\u0142otniki Kujawskie", "state": "", "country": "PL", "coord": {"lon": 18.145639, "lat": 52.899429}}, {"id": 3080084, "name": "Z\u0142otniki", "state": "", "country": "PL", "coord": {"lon": 16.844959, "lat": 52.494068}}, {"id": 3080101, "name": "Z\u0142oczew", "state": "", "country": "PL", "coord": {"lon": 18.60363, "lat": 51.417191}}, {"id": 3080102, "name": "Z\u0142ocieniec", "state": "", "country": "PL", "coord": {"lon": 16.01132, "lat": 53.53286}}, {"id": 3080105, "name": "\u017b\u0142obizna", "state": "", "country": "PL", "coord": {"lon": 17.45813, "lat": 50.842701}}, {"id": 3080111, "name": "Z\u0142awie\u015b Wielka", "state": "", "country": "PL", "coord": {"lon": 18.32897, "lat": 53.095619}}, {"id": 3080126, "name": "Zimnod\u00f3\u0142", "state": "", "country": "PL", "coord": {"lon": 19.618839, "lat": 50.247421}}, {"id": 3080156, "name": "Zielonki", "state": "", "country": "PL", "coord": {"lon": 19.92156, "lat": 50.120911}}, {"id": 3080165, "name": "Zielona G\u00f3ra", "state": "", "country": "PL", "coord": {"lon": 15.50643, "lat": 51.935478}}, {"id": 3080226, "name": "Zi\u0119bice", "state": "", "country": "PL", "coord": {"lon": 17.040649, "lat": 50.601219}}, {"id": 3080231, "name": "Zgorzelec", "state": "", "country": "PL", "coord": {"lon": 15.00835, "lat": 51.149422}}, {"id": 3080242, "name": "Zgoda", "state": "", "country": "PL", "coord": {"lon": 18.91667, "lat": 50.283329}}, {"id": 3080251, "name": "Zgierz", "state": "", "country": "PL", "coord": {"lon": 19.406231, "lat": 51.85561}}, {"id": 3080263, "name": "\u017berniki Wroc\u0142awskie", "state": "", "country": "PL", "coord": {"lon": 17.05662, "lat": 51.033081}}, {"id": 3080271, "name": "\u017bernica", "state": "", "country": "PL", "coord": {"lon": 18.615471, "lat": 50.2477}}, {"id": 3080275, "name": "\u017berk\u00f3w", "state": "", "country": "PL", "coord": {"lon": 17.56349, "lat": 52.068771}}, {"id": 3080291, "name": "Zembrzyce", "state": "", "country": "PL", "coord": {"lon": 19.6012, "lat": 49.775169}}, {"id": 3080295, "name": "Zel\u00f3w", "state": "", "country": "PL", "coord": {"lon": 19.219721, "lat": 51.46452}}, {"id": 3080302, "name": "\u017belistrzewo", "state": "", "country": "PL", "coord": {"lon": 18.417379, "lat": 54.6777}}, {"id": 3080345, "name": "\u017belazk\u00f3w", "state": "", "country": "PL", "coord": {"lon": 18.174299, "lat": 51.854179}}, {"id": 3080367, "name": "Zebrzydowice", "state": "", "country": "PL", "coord": {"lon": 18.5, "lat": 50.099998}}, {"id": 3080368, "name": "Zebrzydowice", "state": "", "country": "PL", "coord": {"lon": 19.672911, "lat": 49.89032}}, {"id": 3080369, "name": "Zebrzydowice", "state": "", "country": "PL", "coord": {"lon": 18.611271, "lat": 49.87793}}, {"id": 3080380, "name": "Z\u0119bowice", "state": "", "country": "PL", "coord": {"lon": 18.344339, "lat": 50.762901}}, {"id": 3080389, "name": "Zdzieszowice", "state": "", "country": "PL", "coord": {"lon": 18.123489, "lat": 50.42482}}, {"id": 3080410, "name": "Zduny", "state": "", "country": "PL", "coord": {"lon": 18.164351, "lat": 51.743931}}, {"id": 3080411, "name": "Zduny", "state": "", "country": "PL", "coord": {"lon": 17.37694, "lat": 51.645802}}, {"id": 3080414, "name": "Zdu\u0144ska Wola", "state": "", "country": "PL", "coord": {"lon": 18.939739, "lat": 51.599152}}, {"id": 3080422, "name": "Zdrojki", "state": "", "country": "PL", "coord": {"lon": 18.50532, "lat": 52.026241}}, {"id": 3080442, "name": "Zbytk\u00f3w", "state": "", "country": "PL", "coord": {"lon": 18.726971, "lat": 49.922878}}, {"id": 3080457, "name": "Zbros\u0142awice", "state": "", "country": "PL", "coord": {"lon": 18.754431, "lat": 50.416119}}, {"id": 3080473, "name": "Zb\u00f3jno", "state": "", "country": "PL", "coord": {"lon": 19.157499, "lat": 53.00848}}, {"id": 3080476, "name": "Zblewo", "state": "", "country": "PL", "coord": {"lon": 18.32262, "lat": 53.933659}}, {"id": 3080494, "name": "Zb\u0105szynek", "state": "", "country": "PL", "coord": {"lon": 15.81654, "lat": 52.243149}}, {"id": 3080495, "name": "Zb\u0105szy\u0144", "state": "", "country": "PL", "coord": {"lon": 15.9252, "lat": 52.2509}}, {"id": 3080502, "name": "Zazamcze", "state": "", "country": "PL", "coord": {"lon": 19.033331, "lat": 52.666672}}, {"id": 3080508, "name": "Zawoja", "state": "", "country": "PL", "coord": {"lon": 19.542271, "lat": 49.643959}}, {"id": 3080525, "name": "Zawiercie Nowe", "state": "", "country": "PL", "coord": {"lon": 19.41342, "lat": 50.505909}}, {"id": 3080526, "name": "Zawiercie", "state": "", "country": "PL", "coord": {"lon": 19.41679, "lat": 50.487659}}, {"id": 3080530, "name": "Zawidz", "state": "", "country": "PL", "coord": {"lon": 19.873671, "lat": 52.82745}}, {"id": 3080533, "name": "Zawid\u00f3w", "state": "", "country": "PL", "coord": {"lon": 15.06213, "lat": 51.025459}}, {"id": 3080538, "name": "Zawadzkie", "state": "", "country": "PL", "coord": {"lon": 18.484671, "lat": 50.60503}}, {"id": 3080590, "name": "Zator", "state": "", "country": "PL", "coord": {"lon": 19.43799, "lat": 49.99604}}, {"id": 3080634, "name": "Zarzecze", "state": "", "country": "PL", "coord": {"lon": 19.69591, "lat": 50.367149}}, {"id": 3080636, "name": "Zarzecze", "state": "", "country": "PL", "coord": {"lon": 19.175261, "lat": 49.719318}}, {"id": 3080644, "name": "\u017bary", "state": "", "country": "PL", "coord": {"lon": 15.13727, "lat": 51.642052}}, {"id": 3080652, "name": "\u017bar\u00f3w", "state": "", "country": "PL", "coord": {"lon": 16.494659, "lat": 50.941158}}, {"id": 3080674, "name": "\u017barki", "state": "", "country": "PL", "coord": {"lon": 19.363569, "lat": 50.625179}}, {"id": 3080675, "name": "\u017barki", "state": "", "country": "PL", "coord": {"lon": 19.35199, "lat": 50.082588}}, {"id": 3080696, "name": "Zapolice", "state": "", "country": "PL", "coord": {"lon": 18.88335, "lat": 51.54319}}, {"id": 3080705, "name": "Zaniemy\u015bl", "state": "", "country": "PL", "coord": {"lon": 17.162279, "lat": 52.155609}}, {"id": 3080736, "name": "Zamarski", "state": "", "country": "PL", "coord": {"lon": 18.66972, "lat": 49.782539}}, {"id": 3080757, "name": "Zalewo", "state": "", "country": "PL", "coord": {"lon": 19.60519, "lat": 53.845341}}, {"id": 3080807, "name": "Zalas", "state": "", "country": "PL", "coord": {"lon": 19.621321, "lat": 50.08033}}, {"id": 3080823, "name": "Zakrz\u00f3w", "state": "", "country": "PL", "coord": {"lon": 19.649731, "lat": 49.825581}}, {"id": 3080830, "name": "Zakrzewo", "state": "", "country": "PL", "coord": {"lon": 17.15472, "lat": 53.411861}}, {"id": 3080846, "name": "Zakrzewice", "state": "", "country": "PL", "coord": {"lon": 17.24972, "lat": 52.074459}}, {"id": 3080866, "name": "Zakopane", "state": "", "country": "PL", "coord": {"lon": 19.948851, "lat": 49.298988}}, {"id": 3080874, "name": "Zajezierze", "state": "", "country": "PL", "coord": {"lon": 17.51667, "lat": 52.23333}}, {"id": 3080895, "name": "Zagrodno", "state": "", "country": "PL", "coord": {"lon": 15.86533, "lat": 51.191341}}, {"id": 3080902, "name": "Zag\u00f3rzynek", "state": "", "country": "PL", "coord": {"lon": 18.082081, "lat": 51.74049}}, {"id": 3080925, "name": "Zag\u00f3rze", "state": "", "country": "PL", "coord": {"lon": 19.40357, "lat": 50.09449}}, {"id": 3080929, "name": "Zag\u00f3r\u00f3w", "state": "", "country": "PL", "coord": {"lon": 17.895611, "lat": 52.16835}}, {"id": 3080931, "name": "Zag\u00f3rnik", "state": "", "country": "PL", "coord": {"lon": 19.378679, "lat": 49.837101}}, {"id": 3080944, "name": "\u017baga\u0144", "state": "", "country": "PL", "coord": {"lon": 15.31486, "lat": 51.617592}}, {"id": 3080951, "name": "Zadzim", "state": "", "country": "PL", "coord": {"lon": 18.849279, "lat": 51.776661}}, {"id": 3080984, "name": "Zabrzeg", "state": "", "country": "PL", "coord": {"lon": 18.942921, "lat": 49.916191}}, {"id": 3080985, "name": "Zabrze", "state": "", "country": "PL", "coord": {"lon": 18.785761, "lat": 50.324921}}, {"id": 3081003, "name": "Zaborze", "state": "", "country": "PL", "coord": {"lon": 19.240669, "lat": 50.021751}}, {"id": 3081004, "name": "Zaborze", "state": "", "country": "PL", "coord": {"lon": 18.803699, "lat": 49.872791}}, {"id": 3081025, "name": "Zabornia", "state": "", "country": "PL", "coord": {"lon": 19.966669, "lat": 49.616669}}, {"id": 3081026, "name": "Zab\u00f3r", "state": "", "country": "PL", "coord": {"lon": 15.71676, "lat": 51.951939}}, {"id": 3081036, "name": "\u017babnica", "state": "", "country": "PL", "coord": {"lon": 19.15621, "lat": 49.58139}}, {"id": 3081045, "name": "Zab\u0142ocie", "state": "", "country": "PL", "coord": {"lon": 18.781469, "lat": 49.902821}}, {"id": 3081046, "name": "Z\u0105bkowice \u015al\u0105skie", "state": "", "country": "PL", "coord": {"lon": 16.812389, "lat": 50.589691}}, {"id": 3081060, "name": "Zabierz\u00f3w", "state": "", "country": "PL", "coord": {"lon": 19.79788, "lat": 50.11425}}, {"id": 3081069, "name": "Zabe\u0142k\u00f3w", "state": "", "country": "PL", "coord": {"lon": 18.314381, "lat": 49.941551}}, {"id": 3081080, "name": "Wy\u017cne", "state": "", "country": "PL", "coord": {"lon": 15.15, "lat": 51.099998}}, {"id": 3081128, "name": "Wysoka", "state": "", "country": "PL", "coord": {"lon": 17.08353, "lat": 53.180908}}, {"id": 3081136, "name": "Wysoka", "state": "", "country": "PL", "coord": {"lon": 19.35368, "lat": 50.42989}}, {"id": 3081138, "name": "Wysoka", "state": "", "country": "PL", "coord": {"lon": 19.603559, "lat": 49.907131}}, {"id": 3081158, "name": "Wyrzysk", "state": "", "country": "PL", "coord": {"lon": 17.268021, "lat": 53.153}}, {"id": 3081161, "name": "Wyry", "state": "", "country": "PL", "coord": {"lon": 18.90052, "lat": 50.132961}}, {"id": 3081196, "name": "Wymys\u0142\u00f3w", "state": "", "country": "PL", "coord": {"lon": 18.98695, "lat": 50.410919}}, {"id": 3081203, "name": "Wymy\u015blanka", "state": "", "country": "PL", "coord": {"lon": 18.9, "lat": 50.166672}}, {"id": 3081206, "name": "Wymiarki", "state": "", "country": "PL", "coord": {"lon": 15.08208, "lat": 51.511089}}, {"id": 3081300, "name": "Wschowa", "state": "", "country": "PL", "coord": {"lon": 16.316629, "lat": 51.807049}}, {"id": 3081324, "name": "Wrze\u015bnia", "state": "", "country": "PL", "coord": {"lon": 17.565189, "lat": 52.325119}}, {"id": 3081330, "name": "Wrz\u0105sowice", "state": "", "country": "PL", "coord": {"lon": 19.946541, "lat": 49.958618}}, {"id": 3081350, "name": "Wronki", "state": "", "country": "PL", "coord": {"lon": 16.38044, "lat": 52.71051}}, {"id": 3081366, "name": "Wroc\u0142aw Pracze", "state": "", "country": "PL", "coord": {"lon": 16.91667, "lat": 51.166672}}, {"id": 3081368, "name": "Wroc\u0142aw", "state": "", "country": "PL", "coord": {"lon": 17.033331, "lat": 51.099998}}, {"id": 3081384, "name": "Wr\u00f3blew", "state": "", "country": "PL", "coord": {"lon": 18.61487, "lat": 51.612148}}, {"id": 3081387, "name": "Wr\u0119czyca Wielka", "state": "", "country": "PL", "coord": {"lon": 18.92086, "lat": 50.84589}}, {"id": 3081403, "name": "Wo\u017cniki", "state": "", "country": "PL", "coord": {"lon": 19.05991, "lat": 50.58934}}, {"id": 3081404, "name": "Wo\u017aniki", "state": "", "country": "PL", "coord": {"lon": 19.49078, "lat": 49.93774}}, {"id": 3081419, "name": "Wolsztyn", "state": "", "country": "PL", "coord": {"lon": 16.117121, "lat": 52.11552}}, {"id": 3081426, "name": "Wo\u0142owice", "state": "", "country": "PL", "coord": {"lon": 19.726299, "lat": 49.988762}}, {"id": 3081430, "name": "Wo\u0142\u00f3w", "state": "", "country": "PL", "coord": {"lon": 16.644291, "lat": 51.336559}}, {"id": 3081471, "name": "Wolin", "state": "", "country": "PL", "coord": {"lon": 14.61465, "lat": 53.84214}}, {"id": 3081488, "name": "Wo\u0142czyn", "state": "", "country": "PL", "coord": {"lon": 18.04994, "lat": 51.018452}}, {"id": 3081495, "name": "Wolbrom", "state": "", "country": "PL", "coord": {"lon": 19.75831, "lat": 50.37957}}, {"id": 3081496, "name": "Wolb\u00f3rz", "state": "", "country": "PL", "coord": {"lon": 19.83049, "lat": 51.501961}}, {"id": 3081525, "name": "Wola Radziszowska", "state": "", "country": "PL", "coord": {"lon": 19.788271, "lat": 49.905579}}, {"id": 3081527, "name": "Wola Raci\u0105\u017cek", "state": "", "country": "PL", "coord": {"lon": 18.816669, "lat": 52.866669}}, {"id": 3081560, "name": "Wola Krzysztoporska", "state": "", "country": "PL", "coord": {"lon": 19.5809, "lat": 51.344181}}, {"id": 3081562, "name": "Wola Ko\u017cuszkowa", "state": "", "country": "PL", "coord": {"lon": 18.220831, "lat": 52.507549}}, {"id": 3081583, "name": "Wola Filipowska", "state": "", "country": "PL", "coord": {"lon": 19.58013, "lat": 50.134331}}, {"id": 3081604, "name": "Wola", "state": "", "country": "PL", "coord": {"lon": 19.123329, "lat": 50.017448}}, {"id": 3081616, "name": "Wojstawice", "state": "", "country": "PL", "coord": {"lon": 16.86293, "lat": 50.715382}}, {"id": 3081636, "name": "Wojkowice", "state": "", "country": "PL", "coord": {"lon": 19.03652, "lat": 50.365089}}, {"id": 3081652, "name": "Wojciesz\u00f3w G\u00f3rny", "state": "", "country": "PL", "coord": {"lon": 15.91667, "lat": 50.950001}}, {"id": 3081653, "name": "Wojciesz\u00f3w", "state": "", "country": "PL", "coord": {"lon": 15.92185, "lat": 50.951939}}, {"id": 3081677, "name": "Wodzis\u0142aw \u015al\u0105ski", "state": "", "country": "PL", "coord": {"lon": 18.47205, "lat": 50.003769}}, {"id": 3081680, "name": "Wodzierady", "state": "", "country": "PL", "coord": {"lon": 19.15123, "lat": 51.718262}}, {"id": 3081691, "name": "Wod\u0105ca", "state": "", "country": "PL", "coord": {"lon": 19.447001, "lat": 50.283741}}, {"id": 3081699, "name": "W\u0142oszczowa", "state": "", "country": "PL", "coord": {"lon": 19.965931, "lat": 50.852558}}, {"id": 3081701, "name": "W\u0142oszakowice", "state": "", "country": "PL", "coord": {"lon": 16.364559, "lat": 51.92754}}, {"id": 3081711, "name": "W\u0142osienica", "state": "", "country": "PL", "coord": {"lon": 19.31671, "lat": 50.018219}}, {"id": 3081733, "name": "W\u0142odowice", "state": "", "country": "PL", "coord": {"lon": 19.45155, "lat": 50.555599}}, {"id": 3081741, "name": "W\u0142oc\u0142awek", "state": "", "country": "PL", "coord": {"lon": 19.067801, "lat": 52.64817}}, {"id": 3081748, "name": "Wle\u0144", "state": "", "country": "PL", "coord": {"lon": 15.67474, "lat": 51.01635}}, {"id": 3081751, "name": "W\u0142asna", "state": "", "country": "PL", "coord": {"lon": 19.085899, "lat": 50.670151}}, {"id": 3081752, "name": "W\u0142adys\u0142awowo", "state": "", "country": "PL", "coord": {"lon": 18.4009, "lat": 54.790859}}, {"id": 3081760, "name": "W\u0142adys\u0142aw\u00f3w", "state": "", "country": "PL", "coord": {"lon": 18.476259, "lat": 52.10313}}, {"id": 3081808, "name": "Witonia", "state": "", "country": "PL", "coord": {"lon": 19.300489, "lat": 52.146549}}, {"id": 3081818, "name": "Witnica", "state": "", "country": "PL", "coord": {"lon": 14.89765, "lat": 52.67318}}, {"id": 3081826, "name": "Witkowo", "state": "", "country": "PL", "coord": {"lon": 17.77264, "lat": 52.43964}}, {"id": 3081832, "name": "Witkowice", "state": "", "country": "PL", "coord": {"lon": 19.279631, "lat": 49.907459}}, {"id": 3081839, "name": "Witaszyce", "state": "", "country": "PL", "coord": {"lon": 17.561819, "lat": 51.941509}}, {"id": 3081844, "name": "Witanowice", "state": "", "country": "PL", "coord": {"lon": 19.525789, "lat": 49.917961}}, {"id": 3081874, "name": "Wis\u0142a", "state": "", "country": "PL", "coord": {"lon": 18.8591, "lat": 49.656288}}, {"id": 3081895, "name": "Wi\u0144sko", "state": "", "country": "PL", "coord": {"lon": 16.613899, "lat": 51.470322}}, {"id": 3081909, "name": "Winiary", "state": "", "country": "PL", "coord": {"lon": 17.60885, "lat": 52.551819}}, {"id": 3081940, "name": "Wilkowice", "state": "", "country": "PL", "coord": {"lon": 16.53417, "lat": 51.885132}}, {"id": 3081942, "name": "Wilkowice", "state": "", "country": "PL", "coord": {"lon": 19.089729, "lat": 49.762821}}, {"id": 3081946, "name": "Wilk\u00f3w", "state": "", "country": "PL", "coord": {"lon": 17.66284, "lat": 51.101582}}, {"id": 3081947, "name": "Wilk\u00f3w", "state": "", "country": "PL", "coord": {"lon": 15.92824, "lat": 51.092121}}, {"id": 3081973, "name": "Wilczyn", "state": "", "country": "PL", "coord": {"lon": 18.161261, "lat": 52.488159}}, {"id": 3082012, "name": "Wilczog\u00f3ra", "state": "", "country": "PL", "coord": {"lon": 18.16744, "lat": 52.47348}}, {"id": 3082016, "name": "Wilcza", "state": "", "country": "PL", "coord": {"lon": 18.59668, "lat": 50.188992}}, {"id": 3082025, "name": "Wilamowice", "state": "", "country": "PL", "coord": {"lon": 19.15237, "lat": 49.917011}}, {"id": 3082044, "name": "Wijewo", "state": "", "country": "PL", "coord": {"lon": 16.18552, "lat": 51.916271}}, {"id": 3082061, "name": "Wieszowa", "state": "", "country": "PL", "coord": {"lon": 18.759239, "lat": 50.384441}}, {"id": 3082101, "name": "Wierzchucino", "state": "", "country": "PL", "coord": {"lon": 18.003071, "lat": 54.787971}}, {"id": 3082110, "name": "Wierzchowo", "state": "", "country": "PL", "coord": {"lon": 16.099609, "lat": 53.460129}}, {"id": 3082119, "name": "Wierzchos\u0142awice", "state": "", "country": "PL", "coord": {"lon": 18.356091, "lat": 52.869228}}, {"id": 3082130, "name": "Wierzchlas", "state": "", "country": "PL", "coord": {"lon": 18.66543, "lat": 51.204571}}, {"id": 3082144, "name": "Wierzbno", "state": "", "country": "PL", "coord": {"lon": 17.179609, "lat": 50.936741}}, {"id": 3082153, "name": "Wierzbinek", "state": "", "country": "PL", "coord": {"lon": 18.510851, "lat": 52.440262}}, {"id": 3082176, "name": "Wierusz\u00f3w", "state": "", "country": "PL", "coord": {"lon": 18.15547, "lat": 51.29488}}, {"id": 3082192, "name": "Wieprz", "state": "", "country": "PL", "coord": {"lon": 19.35688, "lat": 49.89093}}, {"id": 3082193, "name": "Wieprz", "state": "", "country": "PL", "coord": {"lon": 19.180071, "lat": 49.647461}}, {"id": 3082197, "name": "Wielu\u0144", "state": "", "country": "PL", "coord": {"lon": 18.569639, "lat": 51.22097}}, {"id": 3082206, "name": "Wielowie\u015b", "state": "", "country": "PL", "coord": {"lon": 18.616079, "lat": 50.509659}}, {"id": 3082282, "name": "Wielka Wie\u015b", "state": "", "country": "PL", "coord": {"lon": 19.84363, "lat": 50.15694}}, {"id": 3082287, "name": "Wielka Nieszawka", "state": "", "country": "PL", "coord": {"lon": 18.509729, "lat": 52.996189}}, {"id": 3082299, "name": "Wielichowo", "state": "", "country": "PL", "coord": {"lon": 16.351801, "lat": 52.11573}}, {"id": 3082310, "name": "Wielgie", "state": "", "country": "PL", "coord": {"lon": 19.2635, "lat": 52.740761}}, {"id": 3082319, "name": "Wiele\u0144", "state": "", "country": "PL", "coord": {"lon": 16.17136, "lat": 52.894611}}, {"id": 3082333, "name": "Wi\u0119kszyce", "state": "", "country": "PL", "coord": {"lon": 18.102209, "lat": 50.33659}}, {"id": 3082359, "name": "Wiechowice", "state": "", "country": "PL", "coord": {"lon": 17.86652, "lat": 49.982578}}, {"id": 3082364, "name": "Wi\u0119cbork", "state": "", "country": "PL", "coord": {"lon": 17.490641, "lat": 53.35384}}, {"id": 3082376, "name": "Widuchowa", "state": "", "country": "PL", "coord": {"lon": 14.39074, "lat": 53.12693}}, {"id": 3082390, "name": "Widawa", "state": "", "country": "PL", "coord": {"lon": 18.94421, "lat": 51.438549}}, {"id": 3082411, "name": "Wi\u0105z\u00f3w", "state": "", "country": "PL", "coord": {"lon": 17.202141, "lat": 50.813992}}, {"id": 3082473, "name": "Wejherowo", "state": "", "country": "PL", "coord": {"lon": 18.23559, "lat": 54.605679}}, {"id": 3082481, "name": "W\u0119gry", "state": "", "country": "PL", "coord": {"lon": 18.01741, "lat": 50.743191}}, {"id": 3082485, "name": "W\u0119gorzyno", "state": "", "country": "PL", "coord": {"lon": 15.55964, "lat": 53.541012}}, {"id": 3082500, "name": "W\u0119gliniec", "state": "", "country": "PL", "coord": {"lon": 15.22894, "lat": 51.287529}}, {"id": 3082510, "name": "W\u0119gierska G\u00f3rka", "state": "", "country": "PL", "coord": {"lon": 19.116381, "lat": 49.607761}}, {"id": 3082556, "name": "W\u0105sosz", "state": "", "country": "PL", "coord": {"lon": 16.69059, "lat": 51.562241}}, {"id": 3082581, "name": "Wartkowice", "state": "", "country": "PL", "coord": {"lon": 19.001801, "lat": 51.976261}}, {"id": 3082587, "name": "Warta", "state": "", "country": "PL", "coord": {"lon": 18.62483, "lat": 51.710491}}, {"id": 3082597, "name": "Warszewo", "state": "", "country": "PL", "coord": {"lon": 14.5465, "lat": 53.473289}}, {"id": 3082607, "name": "Warnice", "state": "", "country": "PL", "coord": {"lon": 14.99402, "lat": 53.253761}}, {"id": 3082611, "name": "Warlubie", "state": "", "country": "PL", "coord": {"lon": 18.634439, "lat": 53.587509}}, {"id": 3082635, "name": "Wapno", "state": "", "country": "PL", "coord": {"lon": 17.47504, "lat": 52.908039}}, {"id": 3082647, "name": "W\u0105pielsk", "state": "", "country": "PL", "coord": {"lon": 19.27792, "lat": 53.137611}}, {"id": 3082678, "name": "Walim", "state": "", "country": "PL", "coord": {"lon": 16.44482, "lat": 50.697491}}, {"id": 3082680, "name": "Walichnowy", "state": "", "country": "PL", "coord": {"lon": 18.38073, "lat": 51.295792}}, {"id": 3082704, "name": "Wa\u0142cz", "state": "", "country": "PL", "coord": {"lon": 16.47122, "lat": 53.27787}}, {"id": 3082705, "name": "Walce", "state": "", "country": "PL", "coord": {"lon": 18.004271, "lat": 50.373219}}, {"id": 3082707, "name": "Wa\u0142brzych", "state": "", "country": "PL", "coord": {"lon": 16.284321, "lat": 50.771412}}, {"id": 3082712, "name": "W\u0105growiec", "state": "", "country": "PL", "coord": {"lon": 17.19961, "lat": 52.808418}}, {"id": 3082718, "name": "Waganiec", "state": "", "country": "PL", "coord": {"lon": 18.875891, "lat": 52.801201}}, {"id": 3082722, "name": "Wadowice", "state": "", "country": "PL", "coord": {"lon": 19.49292, "lat": 49.88335}}, {"id": 3082734, "name": "W\u0105brze\u017ano", "state": "", "country": "PL", "coord": {"lon": 18.947729, "lat": 53.279888}}, {"id": 3082745, "name": "Ustronie Morskie", "state": "", "country": "PL", "coord": {"lon": 15.75568, "lat": 54.215172}}, {"id": 3082751, "name": "Ustro\u0144", "state": "", "country": "PL", "coord": {"lon": 18.801979, "lat": 49.721531}}, {"id": 3082756, "name": "Ustka", "state": "", "country": "PL", "coord": {"lon": 16.86194, "lat": 54.580479}}, {"id": 3082785, "name": "Unis\u0142aw", "state": "", "country": "PL", "coord": {"lon": 18.386221, "lat": 53.21241}}, {"id": 3082801, "name": "Uniej\u00f3w", "state": "", "country": "PL", "coord": {"lon": 18.793079, "lat": 51.974281}}, {"id": 3082837, "name": "Ujso\u0142y", "state": "", "country": "PL", "coord": {"lon": 19.13801, "lat": 49.482899}}, {"id": 3082838, "name": "Uj\u015bcie", "state": "", "country": "PL", "coord": {"lon": 16.73201, "lat": 53.053391}}, {"id": 3082854, "name": "Ujazd", "state": "", "country": "PL", "coord": {"lon": 19.922251, "lat": 51.597809}}, {"id": 3082855, "name": "Ujazd", "state": "", "country": "PL", "coord": {"lon": 18.349291, "lat": 50.389381}}, {"id": 3082866, "name": "Udanin", "state": "", "country": "PL", "coord": {"lon": 16.454691, "lat": 51.037399}}, {"id": 3082870, "name": "Uciech\u00f3w", "state": "", "country": "PL", "coord": {"lon": 16.681749, "lat": 50.754871}},