[{"id": 3374275, "name": "Ribeira Grande", "state": "", "country": "CV", "coord": {"lon": -25.07243, "lat": 17.18561}}, {"id": 3374301, "name": "Rabil", "state": "", "country": "CV", "coord": {"lon": -22.883329, "lat": 16.133329}}, {"id": 3374314, "name": "Pregui\u00e7a", "state": "", "country": "CV", "coord": {"lon": -22.950001, "lat": 16.75}}, {"id": 3374332, "name": "Concelho da Praia", "state": "", "country": "CV", "coord": {"lon": -23.51667, "lat": 14.95}}, {"id": 3374333, "name": "Praia", "state": "", "country": "CV", "coord": {"lon": -23.50868, "lat": 14.92148}}, {"id": 3374336, "name": "Porto Novo", "state": "", "country": "CV", "coord": {"lon": -25.064711, "lat": 17.01969}}, {"id": 3374338, "name": "Igreja", "state": "", "country": "CV", "coord": {"lon": -24.33333, "lat": 15.03333}}, {"id": 3374346, "name": "Ponta do Sol", "state": "", "country": "CV", "coord": {"lon": -25.091921, "lat": 17.199421}}, {"id": 3374351, "name": "Pombas", "state": "", "country": "CV", "coord": {"lon": -25.020069, "lat": 17.150261}}, {"id": 3374360, "name": "Picos", "state": "", "country": "CV", "coord": {"lon": -23.63236, "lat": 15.0836}}, {"id": 3374391, "name": "Concelho do Paul", "state": "", "country": "CV", "coord": {"lon": -25.01667, "lat": 17.116671}}, {"id": 3374462, "name": "Mindelo", "state": "", "country": "CV", "coord": {"lon": -24.980419, "lat": 16.890141}}, {"id": 3374487, "name": "Concelho do Maio", "state": "", "country": "CV", "coord": {"lon": -23.16667, "lat": 15.21667}}, {"id": 3374707, "name": "Cova Figueira", "state": "", "country": "CV", "coord": {"lon": -24.29343, "lat": 14.89054}}, {"id": 3374725, "name": "Cidade Velha", "state": "", "country": "CV", "coord": {"lon": -23.616671, "lat": 14.91667}}, {"id": 3374766, "name": "Republic of Cabo Verde", "state": "", "country": "CV", "coord": {"lon": -24.0, "lat": 16.0}}, {"id": 3374794, "name": "Calheta", "state": "", "country": "CV", "coord": {"lon": -23.6, "lat": 15.18333}}, {"id": 3374832, "name": "Concelho da Brava", "state": "", "country": "CV", "coord": {"lon": -24.700001, "lat": 14.86667}}, {"id": 3374855, "name": "Concelho da Boa Vista", "state": "", "country": "CV", "coord": {"lon": -22.83333, "lat": 16.08333}}, {"id": 3374888, "name": "Assomada", "state": "", "country": "CV", "coord": {"lon": -23.683331, "lat": 15.1}}, {"id": 3375409, "name": "Vreed-en-Hoop", "state": "", "country": "GY", "coord": {"lon": -58.197979, "lat": 6.80927}}, {"id": 3375463, "name": "Upper Takutu-Upper Essequibo Region", "state": "", "country": "GY", "coord": {"lon": -59.0, "lat": 2.5}}, {"id": 3375469, "name": "Upper Demerara-Berbice Region", "state": "", "country": "GY", "coord": {"lon": -58.333328, "lat": 5.5}}, {"id": 3375941, "name": "Skeldon", "state": "", "country": "GY", "coord": {"lon": -57.133331, "lat": 5.88333}}, {"id": 3376190, "name": "Saint Cuthberts Mission", "state": "", "country": "GY", "coord": {"lon": -58.086658, "lat": 6.36873}}, {"id": 3376223, "name": "Rosignol", "state": "", "country": "GY", "coord": {"lon": -57.533329, "lat": 6.28333}}, {"id": 3376386, "name": "Potaro-Siparuni Region", "state": "", "country": "GY", "coord": {"lon": -59.5, "lat": 5.0}}, {"id": 3376520, "name": "Parika", "state": "", "country": "GY", "coord": {"lon": -58.429409, "lat": 6.83712}}, {"id": 3376762, "name": "New Amsterdam", "state": "", "country": "GY", "coord": {"lon": -57.51667, "lat": 6.25}}, {"id": 3377265, "name": "Mahaicony Village", "state": "", "country": "GY", "coord": {"lon": -57.799999, "lat": 6.55}}, {"id": 3377267, "name": "Mahaica Village", "state": "", "country": "GY", "coord": {"lon": -57.916672, "lat": 6.68333}}, {"id": 3377274, "name": "Mahaica-Berbice Region", "state": "", "country": "GY", "coord": {"lon": -57.833328, "lat": 6.25}}, {"id": 3377301, "name": "Mabaruma", "state": "", "country": "GY", "coord": {"lon": -59.783329, "lat": 8.2}}, {"id": 3377408, "name": "Linden", "state": "", "country": "GY", "coord": {"lon": -58.299999, "lat": 6.0}}, {"id": 3377899, "name": "Kato Village", "state": "", "country": "GY", "coord": {"lon": -59.816669, "lat": 4.66667}}, {"id": 3378535, "name": "Co-operative Republic of Guyana", "state": "", "country": "GY", "coord": {"lon": -59.0, "lat": 5.0}}, {"id": 3378644, "name": "Georgetown", "state": "", "country": "GY", "coord": {"lon": -58.15527, "lat": 6.80448}}, {"id": 3378690, "name": "Catherinas Lust", "state": "", "country": "GY", "coord": {"lon": -57.599998, "lat": 6.4}}, {"id": 3378840, "name": "East Berbice-Corentyne Region", "state": "", "country": "GY", "coord": {"lon": -58.166672, "lat": 4.0}}, {"id": 3378950, "name": "Demerara-Mahaica Region", "state": "", "country": "GY", "coord": {"lon": -58.083328, "lat": 6.5}}, {"id": 3379023, "name": "Cuyuni-Mazaruni Region", "state": "", "country": "GY", "coord": {"lon": -60.0, "lat": 6.0}}, {"id": 3379063, "name": "Courida Park", "state": "", "country": "GY", "coord": {"lon": -58.099998, "lat": 6.81667}}, {"id": 3379199, "name": "Cane Grove", "state": "", "country": "GY", "coord": {"lon": -57.916672, "lat": 6.61667}}, {"id": 3379316, "name": "Bon Success", "state": "", "country": "GY", "coord": {"lon": -59.799999, "lat": 3.38333}}, {"id": 3379507, "name": "Bartica", "state": "", "country": "GY", "coord": {"lon": -58.616669, "lat": 6.4}}, {"id": 3379515, "name": "Barima-Waini Region", "state": "", "country": "GY", "coord": {"lon": -59.75, "lat": 7.66667}}, {"id": 3379893, "name": "Alexanderville", "state": "", "country": "GY", "coord": {"lon": -58.150002, "lat": 6.83333}}, {"id": 3379953, "name": "Agricola Village", "state": "", "country": "GY", "coord": {"lon": -58.166672, "lat": 6.46667}}, {"id": 3380167, "name": "Tonn\u00e9grande", "state": "", "country": "GF", "coord": {"lon": -52.444431, "lat": 4.83038}}, {"id": 3380290, "name": "Sinnamary", "state": "", "country": "GF", "coord": {"lon": -52.950001, "lat": 5.38333}}, {"id": 3380383, "name": "Saint-Louis", "state": "", "country": "GF", "coord": {"lon": -54.046398, "lat": 5.47574}}, {"id": 3380386, "name": "Arrondissement de Saint-Laurent-du-Maroni", "state": "", "country": "GF", "coord": {"lon": -53.75, "lat": 4.0}}, {"id": 3380387, "name": "Saint-Laurent-du-Maroni", "state": "", "country": "GF", "coord": {"lon": -54.033329, "lat": 5.5}}, {"id": 3380394, "name": "Saint-Joseph", "state": "", "country": "GF", "coord": {"lon": -52.353199, "lat": 3.13832}}, {"id": 3380402, "name": "Saint-Georges", "state": "", "country": "GF", "coord": {"lon": -51.799999, "lat": 3.9}}, {"id": 3380450, "name": "Roura", "state": "", "country": "GF", "coord": {"lon": -52.327419, "lat": 4.72629}}, {"id": 3380892, "name": "R\u00e9mire-Montjoly", "state": "", "country": "GF", "coord": {"lon": -52.26667, "lat": 4.91667}}, {"id": 3380965, "name": "Matoury", "state": "", "country": "GF", "coord": {"lon": -52.331718, "lat": 4.84827}}, {"id": 3380993, "name": "Maripa-Village", "state": "", "country": "GF", "coord": {"lon": -54.049999, "lat": 3.63333}}, {"id": 3381041, "name": "Mana", "state": "", "country": "GF", "coord": {"lon": -53.776661, "lat": 5.65919}}, {"id": 3381117, "name": "Macouria", "state": "", "country": "GF", "coord": {"lon": -52.366669, "lat": 4.91667}}, {"id": 3381207, "name": "Le Dix-Septi\u00e8me", "state": "", "country": "GF", "coord": {"lon": -52.349998, "lat": 4.83333}}, {"id": 3381212, "name": "Le Bourg", "state": "", "country": "GF", "coord": {"lon": -52.650002, "lat": 5.15}}, {"id": 3381270, "name": "La D\u00e9sir\u00e9e", "state": "", "country": "GF", "coord": {"lon": -52.333328, "lat": 4.85}}, {"id": 3381303, "name": "Kourou", "state": "", "country": "GF", "coord": {"lon": -52.647789, "lat": 5.15518}}, {"id": 3381428, "name": "Iracoubo", "state": "", "country": "GF", "coord": {"lon": -53.201092, "lat": 5.48024}}, {"id": 3381538, "name": "Grand-Santi", "state": "", "country": "GF", "coord": {"lon": -54.383331, "lat": 4.25}}, {"id": 3381670, "name": "Guyane", "state": "", "country": "GF", "coord": {"lon": -53.0, "lat": 4.0}}, {"id": 3382159, "name": "Arrondissement de Cayenne", "state": "", "country": "GF", "coord": {"lon": -52.5, "lat": 4.0}}, {"id": 3382160, "name": "Cayenne", "state": "", "country": "GF", "coord": {"lon": -52.333328, "lat": 4.93333}}, {"id": 3382226, "name": "Camopi", "state": "", "country": "GF", "coord": {"lon": -52.31575, "lat": 3.16548}}, {"id": 3382261, "name": "Cacao", "state": "", "country": "GF", "coord": {"lon": -52.47224, "lat": 4.57779}}, {"id": 3382527, "name": "Apatou", "state": "", "country": "GF", "coord": {"lon": -54.347221, "lat": 5.155}}, {"id": 3382648, "name": "Zorg en Hoop", "state": "", "country": "SR", "coord": {"lon": -55.200001, "lat": 5.81667}}, {"id": 3382670, "name": "Zanderij", "state": "", "country": "SR", "coord": {"lon": -55.200001, "lat": 5.45}}, {"id": 3382761, "name": "Distrikt Wanica", "state": "", "country": "SR", "coord": {"lon": -55.25, "lat": 5.75}}, {"id": 3382783, "name": "Wageningen", "state": "", "country": "SR", "coord": {"lon": -56.683331, "lat": 5.76667}}, {"id": 3382867, "name": "Totness", "state": "", "country": "SR", "coord": {"lon": -56.316669, "lat": 5.88333}}, {"id": 3382998, "name": "Republic of Suriname", "state": "", "country": "SR", "coord": {"lon": -56.0, "lat": 4.0}}, {"id": 3383023, "name": "Stoelmanseiland", "state": "", "country": "SR", "coord": {"lon": -54.416672, "lat": 4.35}}, {"id": 3383062, "name": "Distrikt Sipaliwini", "state": "", "country": "SR", "coord": {"lon": -56.0, "lat": 4.0}}, {"id": 3383329, "name": "Distrikt Paramaribo", "state": "", "country": "SR", "coord": {"lon": -55.166672, "lat": 5.86667}}, {"id": 3383330, "name": "Paramaribo", "state": "", "country": "SR", "coord": {"lon": -55.166821, "lat": 5.86638}}, {"id": 3383337, "name": "Distrikt Para", "state": "", "country": "SR", "coord": {"lon": -55.333328, "lat": 5.41667}}, {"id": 3383384, "name": "Onverwacht", "state": "", "country": "SR", "coord": {"lon": -55.183331, "lat": 5.58333}}, {"id": 3383427, "name": "Nieuw Nickerie", "state": "", "country": "SR", "coord": {"lon": -56.98333, "lat": 5.95}}, {"id": 3383434, "name": "Nieuw Amsterdam", "state": "", "country": "SR", "coord": {"lon": -55.083328, "lat": 5.88333}}, {"id": 3383438, "name": "Distrikt Nickerie", "state": "", "country": "SR", "coord": {"lon": -56.833328, "lat": 5.66667}}, {"id": 3383494, "name": "Moengo", "state": "", "country": "SR", "coord": {"lon": -54.400002, "lat": 5.61667}}, {"id": 3383570, "name": "Mari\u00ebnburg", "state": "", "country": "SR", "coord": {"lon": -55.021591, "lat": 5.84691}}, {"id": 3383583, "name": "Mar\u00e9chals Kondre", "state": "", "country": "SR", "coord": {"lon": -55.083328, "lat": 5.26667}}, {"id": 3383714, "name": "Lelydorp", "state": "", "country": "SR", "coord": {"lon": -55.23333, "lat": 5.7}}, {"id": 3383751, "name": "Landsboerderij", "state": "", "country": "SR", "coord": {"lon": -55.216671, "lat": 5.81667}}, {"id": 3384125, "name": "Groningen", "state": "", "country": "SR", "coord": {"lon": -55.466671, "lat": 5.8}}, {"id": 3384475, "name": "Brownsweg", "state": "", "country": "SR", "coord": {"lon": -55.166672, "lat": 5.01667}}, {"id": 3384481, "name": "Distrikt Brokopondo", "state": "", "country": "SR", "coord": {"lon": -55.166672, "lat": 4.75}}, {"id": 3384482, "name": "Brokopondo", "state": "", "country": "SR", "coord": {"lon": -54.966671, "lat": 5.06667}}, {"id": 3384653, "name": "Bakrakondre", "state": "", "country": "SR", "coord": {"lon": -55.700001, "lat": 3.8}}, {"id": 3384728, "name": "Appikalo", "state": "", "country": "SR", "coord": {"lon": -56.25, "lat": 2.11667}}, {"id": 3384792, "name": "Albina", "state": "", "country": "SR", "coord": {"lon": -54.049999, "lat": 5.5}}, {"id": 3384868, "name": "Zumbi", "state": "", "country": "BR", "coord": {"lon": -35.683331, "lat": -7.1}}, {"id": 3384930, "name": "Xex\u00e9u", "state": "", "country": "BR", "coord": {"lon": -35.626942, "lat": -8.80222}}, {"id": 3384937, "name": "Xarqueada", "state": "", "country": "BR", "coord": {"lon": -48.362499, "lat": -9.48917}}, {"id": 3384940, "name": "Xambio\u00e1", "state": "", "country": "BR", "coord": {"lon": -48.536388, "lat": -6.41111}}, {"id": 3384983, "name": "Vitorino Freire", "state": "", "country": "BR", "coord": {"lon": -45.166672, "lat": -4.06667}}, {"id": 3384986, "name": "Vit\u00f3ria do Mearim", "state": "", "country": "BR", "coord": {"lon": -44.87056, "lat": -3.46222}}, {"id": 3384987, "name": "Vit\u00f3ria de Santo Ant\u00e3o", "state": "", "country": "BR", "coord": {"lon": -35.291389, "lat": -8.11806}}, {"id": 3385022, "name": "Viseu", "state": "", "country": "BR", "coord": {"lon": -46.139999, "lat": -1.19667}}, {"id": 3385042, "name": "Vinhais", "state": "", "country": "BR", "coord": {"lon": -44.26667, "lat": -2.51667}}, {"id": 3385077, "name": "Conde", "state": "", "country": "BR", "coord": {"lon": -34.907501, "lat": -7.25972}}, {"id": 3385088, "name": "Vigia", "state": "", "country": "BR", "coord": {"lon": -48.14167, "lat": -0.85833}}, {"id": 3385106, "name": "Vi\u00e7osa do Cear\u00e1", "state": "", "country": "BR", "coord": {"lon": -41.09222, "lat": -3.56222}}, {"id": 3385109, "name": "Vi\u00e7osa", "state": "", "country": "BR", "coord": {"lon": -36.240829, "lat": -9.37139}}, {"id": 3385118, "name": "Vic\u00eancia", "state": "", "country": "BR", "coord": {"lon": -35.326672, "lat": -7.65694}}, {"id": 3385122, "name": "Viana", "state": "", "country": "BR", "coord": {"lon": -45.003609, "lat": -3.22028}}, {"id": 3385131, "name": "Vertentes", "state": "", "country": "BR", "coord": {"lon": -35.988331, "lat": -7.90278}}, {"id": 3385226, "name": "Icara\u00ed", "state": "", "country": "BR", "coord": {"lon": -38.650002, "lat": -3.68333}}, {"id": 3385228, "name": "Vera Cruz", "state": "", "country": "BR", "coord": {"lon": -35.428329, "lat": -6.04417}}, {"id": 3385303, "name": "Veados", "state": "", "country": "BR", "coord": {"lon": -40.383331, "lat": -3.86667}}, {"id": 3385467, "name": "V\u00e1rzea Alegre", "state": "", "country": "BR", "coord": {"lon": -40.383331, "lat": -5.35}}, {"id": 3385504, "name": "Varjota", "state": "", "country": "BR", "coord": {"lon": -40.476669, "lat": -4.19444}}, {"id": 3385512, "name": "Varginha", "state": "", "country": "BR", "coord": {"lon": -38.75, "lat": -8.85}}, {"id": 3385538, "name": "Vargem Grande", "state": "", "country": "BR", "coord": {"lon": -43.915829, "lat": -3.54306}}, {"id": 3385582, "name": "Valha-me Deus", "state": "", "country": "BR", "coord": {"lon": -38.216671, "lat": -9.35}}, {"id": 3385592, "name": "Valen\u00e7a do Piau\u00ed", "state": "", "country": "BR", "coord": {"lon": -41.74556, "lat": -6.4075}}, {"id": 3385597, "name": "Val de C\u00e3es", "state": "", "country": "BR", "coord": {"lon": -48.472221, "lat": -1.39694}}, {"id": 3385635, "name": "Uruoca", "state": "", "country": "BR", "coord": {"lon": -40.556671, "lat": -3.31389}}, {"id": 3385645, "name": "Urucurituba", "state": "", "country": "BR", "coord": {"lon": -57.666672, "lat": -2.68333}}, {"id": 3385653, "name": "Uru\u00e7u mirim", "state": "", "country": "BR", "coord": {"lon": -35.609718, "lat": -8.34}}, {"id": 3385658, "name": "Uru\u00e7u\u00ed", "state": "", "country": "BR", "coord": {"lon": -44.55611, "lat": -7.22944}}, {"id": 3385670, "name": "Urucar\u00e1", "state": "", "country": "BR", "coord": {"lon": -57.759998, "lat": -2.53639}}, {"id": 3385674, "name": "Uruburetama", "state": "", "country": "BR", "coord": {"lon": -39.508331, "lat": -3.625}}, {"id": 3385726, "name": "Urbano Santos", "state": "", "country": "BR", "coord": {"lon": -43.40361, "lat": -3.20778}}, {"id": 3385736, "name": "Upanema", "state": "", "country": "BR", "coord": {"lon": -37.257778, "lat": -5.64194}}, {"id": 3385742, "name": "Uni\u00e3o dos Palmares", "state": "", "country": "BR", "coord": {"lon": -36.03194, "lat": -9.16278}}, {"id": 3385745, "name": "Uni\u00e3o", "state": "", "country": "BR", "coord": {"lon": -42.86417, "lat": -4.58583}}, {"id": 3385758, "name": "Umirim", "state": "", "country": "BR", "coord": {"lon": -39.350281, "lat": -3.67722}}, {"id": 3385778, "name": "Umbuzeiro", "state": "", "country": "BR", "coord": {"lon": -35.663609, "lat": -7.69556}}, {"id": 3385788, "name": "Umbus", "state": "", "country": "BR", "coord": {"lon": -41.5, "lat": -7.4}}, {"id": 3385826, "name": "Umarizal", "state": "", "country": "BR", "coord": {"lon": -37.814442, "lat": -5.99056}}, {"id": 3385850, "name": "Uira\u00fana", "state": "", "country": "BR", "coord": {"lon": -38.41222, "lat": -6.51833}}, {"id": 3385873, "name": "Ubajara", "state": "", "country": "BR", "coord": {"lon": -40.921108, "lat": -3.85444}}, {"id": 3385883, "name": "Uau\u00e1", "state": "", "country": "BR", "coord": {"lon": -39.48167, "lat": -9.84139}}, {"id": 3385899, "name": "Tut\u00f3ia", "state": "", "country": "BR", "coord": {"lon": -42.274441, "lat": -2.76194}}, {"id": 3385908, "name": "Turia\u00e7u", "state": "", "country": "BR", "coord": {"lon": -45.37167, "lat": -1.66333}}, {"id": 3385918, "name": "Tuparetama", "state": "", "country": "BR", "coord": {"lon": -37.31139, "lat": -7.60222}}, {"id": 3385920, "name": "Tupanatinga", "state": "", "country": "BR", "coord": {"lon": -37.339722, "lat": -8.75333}}, {"id": 3385922, "name": "Tuntum", "state": "", "country": "BR", "coord": {"lon": -44.648891, "lat": -5.25806}}, {"id": 3385935, "name": "Tucuru\u00ed", "state": "", "country": "BR", "coord": {"lon": -49.672501, "lat": -3.76611}}, {"id": 3385980, "name": "Tucum\u00e3", "state": "", "country": "BR", "coord": {"lon": -50.049999, "lat": -0.18333}}, {"id": 3386027, "name": "Triunfo", "state": "", "country": "BR", "coord": {"lon": -38.599998, "lat": -6.56667}}, {"id": 3386042, "name": "Trindade", "state": "", "country": "BR", "coord": {"lon": -40.26778, "lat": -7.76194}}, {"id": 3386055, "name": "Tri\u00e2ngulo", "state": "", "country": "BR", "coord": {"lon": -37.966671, "lat": -7.2}}, {"id": 3386116, "name": "Travessada", "state": "", "country": "BR", "coord": {"lon": -36.616669, "lat": -9.41667}}, {"id": 3386177, "name": "Trairi", "state": "", "country": "BR", "coord": {"lon": -39.26889, "lat": -3.27778}}, {"id": 3386198, "name": "Traipu", "state": "", "country": "BR", "coord": {"lon": -37.00333, "lat": -9.97056}}, {"id": 3386200, "name": "Tracunha\u00e9m", "state": "", "country": "BR", "coord": {"lon": -35.240002, "lat": -7.80472}}, {"id": 3386201, "name": "Tracuateua", "state": "", "country": "BR", "coord": {"lon": -46.903061, "lat": -1.07611}}, {"id": 3386213, "name": "Touros", "state": "", "country": "BR", "coord": {"lon": -35.460831, "lat": -5.19889}}, {"id": 3386245, "name": "T\u00f4rre Segura", "state": "", "country": "BR", "coord": {"lon": -47.316669, "lat": -5.71667}}, {"id": 3386248, "name": "T\u00f4rres", "state": "", "country": "BR", "coord": {"lon": -35.700001, "lat": -7.51667}}, {"id": 3386260, "name": "Torr\u00e3o", "state": "", "country": "BR", "coord": {"lon": -40.01667, "lat": -7.08333}}, {"id": 3386264, "name": "Toritama", "state": "", "country": "BR", "coord": {"lon": -36.056671, "lat": -8.00667}}, {"id": 3386279, "name": "Tom\u00e9 A\u00e7u", "state": "", "country": "BR", "coord": {"lon": -48.152222, "lat": -2.41889}}, {"id": 3386320, "name": "Tirirical", "state": "", "country": "BR", "coord": {"lon": -44.23333, "lat": -2.56667}}, {"id": 3386329, "name": "Tiradentes", "state": "", "country": "BR", "coord": {"lon": -39.283329, "lat": -7.23333}}, {"id": 3386361, "name": "Timon", "state": "", "country": "BR", "coord": {"lon": -42.83667, "lat": -5.09417}}, {"id": 3386370, "name": "Timb\u00f3", "state": "", "country": "BR", "coord": {"lon": -35.150002, "lat": -6.08333}}, {"id": 3386372, "name": "Timbiras", "state": "", "country": "BR", "coord": {"lon": -43.940559, "lat": -4.25528}}, {"id": 3386396, "name": "Timba\u00faba", "state": "", "country": "BR", "coord": {"lon": -35.318329, "lat": -7.50528}}, {"id": 3386446, "name": "Tibau", "state": "", "country": "BR", "coord": {"lon": -37.252499, "lat": -4.83722}}, {"id": 3386449, "name": "Tiangu\u00e1", "state": "", "country": "BR", "coord": {"lon": -40.991669, "lat": -3.73222}}, {"id": 3386460, "name": "Terra Vermelha", "state": "", "country": "BR", "coord": {"lon": -36.916672, "lat": -7.63333}}, {"id": 3386467, "name": "Terra Santa", "state": "", "country": "BR", "coord": {"lon": -56.486938, "lat": -2.10417}}, {"id": 3386495, "name": "Teresinha", "state": "", "country": "BR", "coord": {"lon": -52.033329, "lat": 0.96667}}, {"id": 3386496, "name": "Teresina", "state": "", "country": "BR", "coord": {"lon": -42.801941, "lat": -5.08917}}, {"id": 3386513, "name": "Tenente Ananias", "state": "", "country": "BR", "coord": {"lon": -38.179722, "lat": -6.465}}, {"id": 3386533, "name": "Teixeira", "state": "", "country": "BR", "coord": {"lon": -37.254169, "lat": -7.22278}}, {"id": 3386543, "name": "Tavares", "state": "", "country": "BR", "coord": {"lon": -37.87833, "lat": -7.63583}}, {"id": 3386567, "name": "S\u00e3o Jo\u00e3o dos Inhamuns", "state": "", "country": "BR", "coord": {"lon": -40.283329, "lat": -6.0}}, {"id": 3386568, "name": "Tau\u00e1", "state": "", "country": "BR", "coord": {"lon": -40.299999, "lat": -5.96667}}, {"id": 3386622, "name": "Taquaritinga do Norte", "state": "", "country": "BR", "coord": {"lon": -36.04417, "lat": -7.90306}}, {"id": 3386628, "name": "Taquarana", "state": "", "country": "BR", "coord": {"lon": -36.497219, "lat": -9.645}}, {"id": 3386657, "name": "Tapuio", "state": "", "country": "BR", "coord": {"lon": -40.616669, "lat": -9.4}}, {"id": 3386693, "name": "Tapero\u00e1", "state": "", "country": "BR", "coord": {"lon": -36.826672, "lat": -7.2075}}, {"id": 3386732, "name": "Tapera", "state": "", "country": "BR", "coord": {"lon": -38.23333, "lat": -9.38333}}, {"id": 3386766, "name": "Tapada", "state": "", "country": "BR", "coord": {"lon": -35.950001, "lat": -7.98333}}, {"id": 3386842, "name": "Tangar\u00e1", "state": "", "country": "BR", "coord": {"lon": -35.80167, "lat": -6.19944}}, {"id": 3386874, "name": "Tamboril", "state": "", "country": "BR", "coord": {"lon": -40.32056, "lat": -4.83222}}, {"id": 3386931, "name": "Tamandar\u00e9", "state": "", "country": "BR", "coord": {"lon": -35.104721, "lat": -8.75972}}, {"id": 3386957, "name": "Taipu", "state": "", "country": "BR", "coord": {"lon": -35.596668, "lat": -5.62167}}, {"id": 3386961, "name": "Tacima", "state": "", "country": "BR", "coord": {"lon": -35.637218, "lat": -6.48833}}, {"id": 3386966, "name": "Tacaratu", "state": "", "country": "BR", "coord": {"lon": -38.14917, "lat": -9.10528}}, {"id": 3386971, "name": "Tacaimb\u00f3", "state": "", "country": "BR", "coord": {"lon": -36.293331, "lat": -8.31611}}, {"id": 3386984, "name": "Tabuleiro do Norte", "state": "", "country": "BR", "coord": {"lon": -38.130562, "lat": -5.24667}}, {"id": 3387082, "name": "Tabira", "state": "", "country": "BR", "coord": {"lon": -37.53944, "lat": -7.59083}}, {"id": 3387115, "name": "Surubim", "state": "", "country": "BR", "coord": {"lon": -35.754719, "lat": -7.83306}}, {"id": 3387130, "name": "Sum\u00e9", "state": "", "country": "BR", "coord": {"lon": -36.880001, "lat": -7.67167}}, {"id": 3387202, "name": "Sousa", "state": "", "country": "BR", "coord": {"lon": -38.228062, "lat": -6.75917}}, {"id": 3387204, "name": "Soure", "state": "", "country": "BR", "coord": {"lon": -48.523331, "lat": -0.71667}}, {"id": 3387242, "name": "Solon\u00f3pole", "state": "", "country": "BR", "coord": {"lon": -39.0075, "lat": -5.73333}}, {"id": 3387258, "name": "Soledade", "state": "", "country": "BR", "coord": {"lon": -36.362782, "lat": -7.05722}}, {"id": 3387266, "name": "Sol\u00e2nea", "state": "", "country": "BR", "coord": {"lon": -35.540001, "lat": -6.755}}, {"id": 3387296, "name": "Sobral", "state": "", "country": "BR", "coord": {"lon": -40.34972, "lat": -3.68611}}, {"id": 3387423, "name": "S\u00edtio Novo do Tocantins", "state": "", "country": "BR", "coord": {"lon": -47.461109, "lat": -5.51833}}, {"id": 3387604, "name": "Sirinha\u00e9m", "state": "", "country": "BR", "coord": {"lon": -35.116112, "lat": -8.59083}}, {"id": 3387620, "name": "Simpl\u00edcio Mendes", "state": "", "country": "BR", "coord": {"lon": -41.910278, "lat": -7.85389}}, {"id": 3387625, "name": "Sim\u00f5es", "state": "", "country": "BR", "coord": {"lon": -40.81778, "lat": -7.59889}}, {"id": 3387644, "name": "Severiano Melo", "state": "", "country": "BR", "coord": {"lon": -37.957779, "lat": -5.77722}}, {"id": 3387663, "name": "Sert\u00e2nia", "state": "", "country": "BR", "coord": {"lon": -37.264439, "lat": -8.07361}}, {"id": 3387727, "name": "Serrita", "state": "", "country": "BR", "coord": {"lon": -39.29583, "lat": -7.93333}}, {"id": 3387743, "name": "Serrinha", "state": "", "country": "BR", "coord": {"lon": -35.283329, "lat": -8.03333}}, {"id": 3387786, "name": "Serra Talhada", "state": "", "country": "BR", "coord": {"lon": -38.298328, "lat": -7.99194}}, {"id": 3387880, "name": "Serra Branca", "state": "", "country": "BR", "coord": {"lon": -38.26667, "lat": -6.53333}}, {"id": 3387926, "name": "Senador Pompeu", "state": "", "country": "BR", "coord": {"lon": -39.37167, "lat": -5.58806}}, {"id": 3387928, "name": "Senador Jos\u00e9 Porf\u00edrio", "state": "", "country": "BR", "coord": {"lon": -51.95417, "lat": -2.59083}}, {"id": 3387944, "name": "Segundo", "state": "", "country": "BR", "coord": {"lon": -38.566669, "lat": -8.6}}, {"id": 3387987, "name": "Satuba", "state": "", "country": "BR", "coord": {"lon": -35.82444, "lat": -9.56333}}, {"id": 3388008, "name": "Saquinho", "state": "", "country": "BR", "coord": {"lon": -36.299999, "lat": -8.9}}, {"id": 3388046, "name": "Sap\u00e9", "state": "", "country": "BR", "coord": {"lon": -35.23278, "lat": -7.09639}}, {"id": 3388092, "name": "S\u00e3o Tom\u00e9", "state": "", "country": "BR", "coord": {"lon": -36.075279, "lat": -5.9725}}, {"id": 3388112, "name": "S\u00e3o Sebasti\u00e3o", "state": "", "country": "BR", "coord": {"lon": -36.554169, "lat": -9.93361}}, {"id": 3388114, "name": "S\u00e3o Sebasti\u00e3o", "state": "", "country": "BR", "coord": {"lon": -36.333328, "lat": -8.7}}, {"id": 3388145, "name": "S\u00e3o Raimundo Nonato", "state": "", "country": "BR", "coord": {"lon": -42.69944, "lat": -9.01528}}, {"id": 3388147, "name": "S\u00e3o Raimundo das Mangabeiras", "state": "", "country": "BR", "coord": {"lon": -45.48111, "lat": -7.02194}}, {"id": 3388167, "name": "S\u00e3o Rafael", "state": "", "country": "BR", "coord": {"lon": -36.920559, "lat": -5.79944}}, {"id": 3388173, "name": "S\u00e3o Pedro do Piau\u00ed", "state": "", "country": "BR", "coord": {"lon": -42.718609, "lat": -5.92944}}, {"id": 3388238, "name": "S\u00e3o Paulo do Potengi", "state": "", "country": "BR", "coord": {"lon": -35.762779, "lat": -5.895}}, {"id": 3388262, "name": "S\u00e3o Nicolau", "state": "", "country": "BR", "coord": {"lon": -40.066669, "lat": -6.66667}}, {"id": 3388266, "name": "S\u00e3o Miguel do Tapuio", "state": "", "country": "BR", "coord": {"lon": -41.32333, "lat": -5.50361}}, {"id": 3388269, "name": "S\u00e3o Miguel dos Campos", "state": "", "country": "BR", "coord": {"lon": -36.093609, "lat": -9.78111}}, {"id": 3388270, "name": "S\u00e3o Miguel do Guam\u00e1", "state": "", "country": "BR", "coord": {"lon": -47.48333, "lat": -1.62667}}, {"id": 3388272, "name": "S\u00e3o Miguel de Taipu", "state": "", "country": "BR", "coord": {"lon": -35.209721, "lat": -7.24972}}, {"id": 3388304, "name": "S\u00e3o Miguel", "state": "", "country": "BR", "coord": {"lon": -35.366669, "lat": -5.46667}}, {"id": 3388318, "name": "S\u00e3o Mateus do Maranh\u00e3o", "state": "", "country": "BR", "coord": {"lon": -44.474998, "lat": -4.04167}}, {"id": 3388336, "name": "S\u00e3o Mamede", "state": "", "country": "BR", "coord": {"lon": -37.095558, "lat": -6.92667}}, {"id": 3388341, "name": "S\u00e3o Lu\u00eds do Quitunde", "state": "", "country": "BR", "coord": {"lon": -35.561111, "lat": -9.31833}}, {"id": 3388368, "name": "S\u00e3o Lu\u00eds", "state": "", "country": "BR", "coord": {"lon": -44.30278, "lat": -2.52972}}, {"id": 3388376, "name": "S\u00e3o Louren\u00e7o da Mata", "state": "", "country": "BR", "coord": {"lon": -35.01833, "lat": -8.00222}}, {"id": 3388403, "name": "S\u00e3o Juli\u00e3o", "state": "", "country": "BR", "coord": {"lon": -40.825562, "lat": -7.08472}}, {"id": 3388435, "name": "S\u00e3o Jos\u00e9 do Egito", "state": "", "country": "BR", "coord": {"lon": -37.274441, "lat": -7.47889}}, {"id": 3388437, "name": "S\u00e3o Jos\u00e9 do Campestre", "state": "", "country": "BR", "coord": {"lon": -35.71389, "lat": -6.31556}}, {"id": 3388440, "name": "S\u00e3o Jos\u00e9 do Belmonte", "state": "", "country": "BR", "coord": {"lon": -38.75972, "lat": -7.86139}}, {"id": 3388441, "name": "S\u00e3o Jos\u00e9 de Ribamar", "state": "", "country": "BR", "coord": {"lon": -44.054169, "lat": -2.56194}}, {"id": 3388442, "name": "S\u00e3o Jos\u00e9 de Piranhas", "state": "", "country": "BR", "coord": {"lon": -38.501942, "lat": -7.12056}}, {"id": 3388443, "name": "S\u00e3o Jos\u00e9 de Mipibu", "state": "", "country": "BR", "coord": {"lon": -35.237782, "lat": -6.07472}}, {"id": 3388447, "name": "S\u00e3o Jos\u00e9 da Tapera", "state": "", "country": "BR", "coord": {"lon": -37.381111, "lat": -9.55833}}, {"id": 3388454, "name": "S\u00e3o Jos\u00e9 da Laje", "state": "", "country": "BR", "coord": {"lon": -36.058331, "lat": -9.00972}}, {"id": 3388456, "name": "S\u00e3o Jos\u00e9 da Coroa Grande", "state": "", "country": "BR", "coord": {"lon": -35.147781, "lat": -8.89778}}, {"id": 3388546, "name": "S\u00e3o Jos\u00e9", "state": "", "country": "BR", "coord": {"lon": -48.683331, "lat": -1.46667}}, {"id": 3388567, "name": "S\u00e3o Joaquim do Monte", "state": "", "country": "BR", "coord": {"lon": -35.80444, "lat": -8.4325}}, {"id": 3388615, "name": "S\u00e3o Jo\u00e3o dos Patos", "state": "", "country": "BR", "coord": {"lon": -43.702221, "lat": -6.495}}, {"id": 3388618, "name": "S\u00e3o Jo\u00e3o do Piau\u00ed", "state": "", "country": "BR", "coord": {"lon": -42.24667, "lat": -8.35806}}, {"id": 3388620, "name": "S\u00e3o Jo\u00e3o do Jaguaribe", "state": "", "country": "BR", "coord": {"lon": -38.273609, "lat": -5.27111}}, {"id": 3388626, "name": "S\u00e3o Jo\u00e3o de Pirabas", "state": "", "country": "BR", "coord": {"lon": -47.177219, "lat": -0.77472}}, {"id": 3388635, "name": "S\u00e3o Jo\u00e3o Batista", "state": "", "country": "BR", "coord": {"lon": -44.806938, "lat": -2.95528}}, {"id": 3388660, "name": "S\u00e3o Jo\u00e3o", "state": "", "country": "BR", "coord": {"lon": -36.366669, "lat": -8.87556}}, {"id": 3388713, "name": "S\u00e3o Gon\u00e7alo do Amarante", "state": "", "country": "BR", "coord": {"lon": -35.329441, "lat": -5.79333}}, {"id": 3388714, "name": "S\u00e3o Gon\u00e7alo do Amarante", "state": "", "country": "BR", "coord": {"lon": -38.96833, "lat": -3.60722}}, {"id": 3388760, "name": "S\u00e3o Geraldo do Araguaia", "state": "", "country": "BR", "coord": {"lon": -48.555, "lat": -6.40056}}, {"id": 3388847, "name": "S\u00e3o F\u00e9lix do Xingu", "state": "", "country": "BR", "coord": {"lon": -51.994999, "lat": -6.64472}}, {"id": 3388868, "name": "S\u00e3o Domingos do Maranh\u00e3o", "state": "", "country": "BR", "coord": {"lon": -44.385281, "lat": -5.57583}}, {"id": 3388869, "name": "S\u00e3o Domingos do Capim", "state": "", "country": "BR", "coord": {"lon": -47.771111, "lat": -1.67417}}, {"id": 3388918, "name": "S\u00e3o Cipriano", "state": "", "country": "BR", "coord": {"lon": -40.48333, "lat": -3.58333}}, {"id": 3388925, "name": "S\u00e3o Caitano", "state": "", "country": "BR", "coord": {"lon": -36.14278, "lat": -8.32583}}, {"id": 3388926, "name": "S\u00e3o Caetano de Odivelas", "state": "", "country": "BR", "coord": {"lon": -48.02, "lat": -0.75}}, {"id": 3388949, "name": "S\u00e3o Bernardo", "state": "", "country": "BR", "coord": {"lon": -42.417782, "lat": -3.36139}}, {"id": 3388991, "name": "S\u00e3o Bento", "state": "", "country": "BR", "coord": {"lon": -37.75, "lat": -6.28333}}, {"id": 3389006, "name": "S\u00e3o Bento", "state": "", "country": "BR", "coord": {"lon": -44.821388, "lat": -2.69583}}, {"id": 3389012, "name": "S\u00e3o Benedito do Rio Preto", "state": "", "country": "BR", "coord": {"lon": -43.528332, "lat": -3.33361}}, {"id": 3389023, "name": "S\u00e3o Benedito", "state": "", "country": "BR", "coord": {"lon": -40.865002, "lat": -4.04861}}, {"id": 3389062, "name": "Santo Ant\u00f4nio do Tau\u00e1", "state": "", "country": "BR", "coord": {"lon": -48.12944, "lat": -1.15194}}, {"id": 3389134, "name": "Santo Ant\u00f4nio", "state": "", "country": "BR", "coord": {"lon": -35.478889, "lat": -6.31056}}, {"id": 3389225, "name": "Santa Teresinha", "state": "", "country": "BR", "coord": {"lon": -37.445278, "lat": -7.03889}}, {"id": 3389294, "name": "Santa Rosa", "state": "", "country": "BR", "coord": {"lon": -41.433331, "lat": -3.28333}}, {"id": 3389321, "name": "Santa Rita", "state": "", "country": "BR", "coord": {"lon": -34.978062, "lat": -7.11389}}, {"id": 3389339, "name": "Santa Rita", "state": "", "country": "BR", "coord": {"lon": -43.883331, "lat": -3.83333}}, {"id": 3389353, "name": "Santar\u00e9m", "state": "", "country": "BR", "coord": {"lon": -54.708328, "lat": -2.44306}}, {"id": 3389358, "name": "Santa Quit\u00e9ria do Maranh\u00e3o", "state": "", "country": "BR", "coord": {"lon": -42.546669, "lat": -3.51556}}, {"id": 3389361, "name": "Santa Quit\u00e9ria", "state": "", "country": "BR", "coord": {"lon": -40.15667, "lat": -4.33194}}, {"id": 3389379, "name": "Santana dos Garrotes", "state": "", "country": "BR", "coord": {"lon": -37.985828, "lat": -7.38389}}, {"id": 3389380, "name": "Santana do Munda\u00fa", "state": "", "country": "BR", "coord": {"lon": -36.222221, "lat": -9.16806}}, {"id": 3389381, "name": "Santana do Matos", "state": "", "country": "BR", "coord": {"lon": -36.65556, "lat": -5.9575}}, {"id": 3389382, "name": "Santana do Munda\u00fa", "state": "", "country": "BR", "coord": {"lon": -36.183331, "lat": -9.16667}}, {"id": 3389384, "name": "Santana do Ipanema", "state": "", "country": "BR", "coord": {"lon": -37.245281, "lat": -9.37833}}, {"id": 3389386, "name": "Santana do Cariri", "state": "", "country": "BR", "coord": {"lon": -39.736938, "lat": -7.18833}}, {"id": 3389387, "name": "Santana do Acara\u00fa", "state": "", "country": "BR", "coord": {"lon": -40.212219, "lat": -3.46056}}, {"id": 3389389, "name": "Santana de Mangueira", "state": "", "country": "BR", "coord": {"lon": -38.332218, "lat": -7.555}}, {"id": 3389458, "name": "Santa Maria Velha", "state": "", "country": "BR", "coord": {"lon": -49.26833, "lat": -8.34028}}, {"id": 3389459, "name": "Santa Maria do Par\u00e1", "state": "", "country": "BR", "coord": {"lon": -47.575562, "lat": -1.35028}}, {"id": 3389462, "name": "Santa Maria da Boa Vista", "state": "", "country": "BR", "coord": {"lon": -39.825562, "lat": -8.80778}}, {"id": 3389557, "name": "Santa Luzia", "state": "", "country": "BR", "coord": {"lon": -47.200001, "lat": -7.63333}}, {"id": 3389560, "name": "Santa Luzia", "state": "", "country": "BR", "coord": {"lon": -36.91861, "lat": -6.87222}}, {"id": 3389590, "name": "Santa Isabel do Par\u00e1", "state": "", "country": "BR", "coord": {"lon": -48.160561, "lat": -1.29861}}, {"id": 3389609, "name": "Santa In\u00eas", "state": "", "country": "BR", "coord": {"lon": -45.380001, "lat": -3.66667}}, {"id": 3389622, "name": "Santa Helena", "state": "", "country": "BR", "coord": {"lon": -45.299999, "lat": -2.23111}}, {"id": 3389652, "name": "Santa Cruz do Capibaribe", "state": "", "country": "BR", "coord": {"lon": -36.20472, "lat": -7.9575}}, {"id": 3389655, "name": "Santa Cruz da Baixa Verde", "state": "", "country": "BR", "coord": {"lon": -38.152779, "lat": -7.82056}}, {"id": 3389673, "name": "Santa Cruz", "state": "", "country": "BR", "coord": {"lon": -36.022781, "lat": -6.22944}}, {"id": 3389707, "name": "Santa Br\u00edgida", "state": "", "country": "BR", "coord": {"lon": -38.127781, "lat": -9.73611}}, {"id": 3389721, "name": "Sanhar\u00f3", "state": "", "country": "BR", "coord": {"lon": -36.565559, "lat": -8.36056}}, {"id": 3389780, "name": "Salvaterra", "state": "", "country": "BR", "coord": {"lon": -48.51667, "lat": -0.75333}}, {"id": 3389822, "name": "Salin\u00f3polis", "state": "", "country": "BR", "coord": {"lon": -47.35611, "lat": -0.61361}}, {"id": 3389860, "name": "Salgueiro", "state": "", "country": "BR", "coord": {"lon": -39.119171, "lat": -8.07417}}, {"id": 3389873, "name": "Salgado de S\u00e3o F\u00e9lix", "state": "", "country": "BR", "coord": {"lon": -35.440559, "lat": -7.35694}}, {"id": 3389898, "name": "Salgado", "state": "", "country": "BR", "coord": {"lon": -36.26667, "lat": -9.6}}, {"id": 3389930, "name": "Salgadinho", "state": "", "country": "BR", "coord": {"lon": -35.632778, "lat": -7.93639}}, {"id": 3390099, "name": "Saco", "state": "", "country": "BR", "coord": {"lon": -40.150002, "lat": -7.21667}}, {"id": 3390138, "name": "Saboeiro", "state": "", "country": "BR", "coord": {"lon": -39.90667, "lat": -6.54194}}, {"id": 3390160, "name": "Russas", "state": "", "country": "BR", "coord": {"lon": -37.97583, "lat": -4.94028}}, {"id": 3390188, "name": "Ros\u00e1rio", "state": "", "country": "BR", "coord": {"lon": -44.235001, "lat": -2.93444}}, {"id": 3390219, "name": "Rodolfo Fernandes", "state": "", "country": "BR", "coord": {"lon": -38.060001, "lat": -5.78806}}, {"id": 3390220, "name": "Rodelas", "state": "", "country": "BR", "coord": {"lon": -38.76667, "lat": -8.84556}}, {"id": 3390280, "name": "Rio Tinto", "state": "", "country": "BR", "coord": {"lon": -35.080559, "lat": -6.80306}}, {"id": 3390288, "name": "Rio Largo", "state": "", "country": "BR", "coord": {"lon": -35.853329, "lat": -9.47833}}, {"id": 3390290, "name": "Rio Grande do Norte", "state": "", "country": "BR", "coord": {"lon": -36.0, "lat": -5.75}}, {"id": 3390295, "name": "Rio Formoso", "state": "", "country": "BR", "coord": {"lon": -35.158611, "lat": -8.66361}}, {"id": 3390326, "name": "Ribeir\u00e3o", "state": "", "country": "BR", "coord": {"lon": -35.377781, "lat": -8.51444}}, {"id": 3390490, "name": "Riacho das Almas", "state": "", "country": "BR", "coord": {"lon": -35.856392, "lat": -8.13389}}, {"id": 3390522, "name": "Riacho", "state": "", "country": "BR", "coord": {"lon": -35.383331, "lat": -9.25}}, {"id": 3390542, "name": "Riach\u00e3o do Bacamarte", "state": "", "country": "BR", "coord": {"lon": -35.662781, "lat": -7.24806}}, {"id": 3390581, "name": "Riach\u00e3o", "state": "", "country": "BR", "coord": {"lon": -46.617222, "lat": -7.36194}}, {"id": 3390659, "name": "Reriutaba", "state": "", "country": "BR", "coord": {"lon": -40.582218, "lat": -4.14167}}, {"id": 3390674, "name": "Rem\u00edgio", "state": "", "country": "BR", "coord": {"lon": -35.783329, "lat": -6.93333}}, {"id": 3390700, "name": "Regenera\u00e7\u00e3o", "state": "", "country": "BR", "coord": {"lon": -42.688332, "lat": -6.23778}}, {"id": 3390732, "name": "Reden\u00e7\u00e3o", "state": "", "country": "BR", "coord": {"lon": -38.73056, "lat": -4.22583}}, {"id": 3390760, "name": "Recife", "state": "", "country": "BR", "coord": {"lon": -34.881111, "lat": -8.05389}}, {"id": 3390814, "name": "Raposa", "state": "", "country": "BR", "coord": {"lon": -44.183331, "lat": -6.51667}}, {"id": 3390864, "name": "Rajada", "state": "", "country": "BR", "coord": {"lon": -36.633331, "lat": -6.53333}}, {"id": 3390896, "name": "Quixer\u00e9", "state": "", "country": "BR", "coord": {"lon": -37.988609, "lat": -5.07417}}, {"id": 3390901, "name": "Quixeramobim", "state": "", "country": "BR", "coord": {"lon": -39.292782, "lat": -5.19917}}, {"id": 3390907, "name": "Quixad\u00e1", "state": "", "country": "BR", "coord": {"lon": -39.015282, "lat": -4.97139}}, {"id": 3390965, "name": "Quipap\u00e1", "state": "", "country": "BR", "coord": {"lon": -36.011669, "lat": -8.82778}}, {"id": 3391040, "name": "Queimadas", "state": "", "country": "BR", "coord": {"lon": -35.898331, "lat": -7.35833}}, {"id": 3391090, "name": "Quebrangulo", "state": "", "country": "BR", "coord": {"lon": -36.471111, "lat": -9.31889}}, {"id": 3391130, "name": "Puxinan\u00e3", "state": "", "country": "BR", "coord": {"lon": -35.96056, "lat": -7.16111}}, {"id": 3391172, "name": "Princesa Isabel", "state": "", "country": "BR", "coord": {"lon": -37.993328, "lat": -7.73667}}, {"id": 3391188, "name": "Primavera", "state": "", "country": "BR", "coord": {"lon": -46.583328, "lat": -7.96667}}, {"id": 3391220, "name": "Presidente Dutra", "state": "", "country": "BR", "coord": {"lon": -44.490002, "lat": -5.29}}, {"id": 3391287, "name": "Prainha", "state": "", "country": "BR", "coord": {"lon": -53.48, "lat": -1.8}}, {"id": 3391329, "name": "Poti Velho", "state": "", "country": "BR", "coord": {"lon": -42.833328, "lat": -5.03333}}, {"id": 3391360, "name": "Santana", "state": "", "country": "BR", "coord": {"lon": -51.181671, "lat": -0.05833}}, {"id": 3391371, "name": "Porto Franco", "state": "", "country": "BR", "coord": {"lon": -47.39917, "lat": -6.33833}}, {"id": 3391387, "name": "Porto de Moz", "state": "", "country": "BR", "coord": {"lon": -52.238331, "lat": -1.74833}}, {"id": 3391395, "name": "Porto da Folha", "state": "", "country": "BR", "coord": {"lon": -37.278332, "lat": -9.91722}}, {"id": 3391397, "name": "Porto Calvo", "state": "", "country": "BR", "coord": {"lon": -35.398331, "lat": -9.045}}, {"id": 3391408, "name": "Porto", "state": "", "country": "BR", "coord": {"lon": -42.709999, "lat": -3.89333}}, {"id": 3391412, "name": "Portel", "state": "", "country": "BR", "coord": {"lon": -50.82111, "lat": -1.93556}}, {"id": 3391489, "name": "Pontes", "state": "", "country": "BR", "coord": {"lon": -43.366669, "lat": -4.83333}}, {"id": 3391556, "name": "Pombos", "state": "", "country": "BR", "coord": {"lon": -35.395828, "lat": -8.14139}}, {"id": 3391571, "name": "Pombal", "state": "", "country": "BR", "coord": {"lon": -37.80167, "lat": -6.77028}}, {"id": 3391622, "name": "Po\u00e7o Limpo", "state": "", "country": "BR", "coord": {"lon": -35.549999, "lat": -5.81667}}, {"id": 3391657, "name": "Po\u00e7o Doce", "state": "", "country": "BR", "coord": {"lon": -39.112221, "lat": -3.44028}}, {"id": 3391686, "name": "Po\u00e7o das Trincheiras", "state": "", "country": "BR", "coord": {"lon": -37.285561, "lat": -9.3125}}, {"id": 3391744, "name": "Po\u00e7o Branco", "state": "", "country": "BR", "coord": {"lon": -35.662781, "lat": -5.62278}}, {"id": 3391762, "name": "Pocinhos", "state": "", "country": "BR", "coord": {"lon": -36.061111, "lat": -7.07667}}, {"id": 3391774, "name": "Po\u00e7\u00e3o de Pedras", "state": "", "country": "BR", "coord": {"lon": -44.849998, "lat": -4.66667}}, {"id": 3391889, "name": "Pitimbu", "state": "", "country": "BR", "coord": {"lon": -34.808609, "lat": -7.47056}}, {"id": 3391895, "name": "Pirpirituba", "state": "", "country": "BR", "coord": {"lon": -35.498611, "lat": -6.78}}, {"id": 3391908, "name": "Piripiri", "state": "", "country": "BR", "coord": {"lon": -41.776939, "lat": -4.27333}}, {"id": 3391918, "name": "Pires Ferreira", "state": "", "country": "BR", "coord": {"lon": -40.645279, "lat": -4.24667}}, {"id": 3391940, "name": "Pirapemas", "state": "", "country": "BR", "coord": {"lon": -44.223331, "lat": -3.72667}}, {"id": 3391991, "name": "Piracuruca", "state": "", "country": "BR", "coord": {"lon": -41.709171, "lat": -3.92806}}, {"id": 3392018, "name": "Pio XII", "state": "", "country": "BR", "coord": {"lon": -45.1525, "lat": -3.8325}}, {"id": 3392020, "name": "Pio IX", "state": "", "country": "BR", "coord": {"lon": -40.57917, "lat": -6.8375}}, {"id": 3392054, "name": "Pinheiro", "state": "", "country": "BR", "coord": {"lon": -45.0825, "lat": -2.52139}}, {"id": 3392088, "name": "Pindar\u00e9 Mirim", "state": "", "country": "BR", "coord": {"lon": -45.34333, "lat": -3.60833}}, {"id": 3392095, "name": "Pimenteiras", "state": "", "country": "BR", "coord": {"lon": -41.41917, "lat": -6.24528}}, {"id": 3392126, "name": "Pilar", "state": "", "country": "BR", "coord": {"lon": -35.956669, "lat": -9.59722}}, {"id": 3392127, "name": "Pilar", "state": "", "country": "BR", "coord": {"lon": -35.259998, "lat": -7.26722}}, {"id": 3392145, "name": "Picu\u00ed", "state": "", "country": "BR", "coord": {"lon": -36.346939, "lat": -6.51056}}, {"id": 3392167, "name": "Picos", "state": "", "country": "BR", "coord": {"lon": -41.466942, "lat": -7.07694}}, {"id": 3392213, "name": "Piau\u00ed", "state": "", "country": "BR", "coord": {"lon": -43.0, "lat": -7.0}}, {"id": 3392225, "name": "Pianc\u00f3", "state": "", "country": "BR", "coord": {"lon": -37.929169, "lat": -7.19806}}, {"id": 3392242, "name": "Petrolina", "state": "", "country": "BR", "coord": {"lon": -40.500832, "lat": -9.39861}}, {"id": 3392243, "name": "Jatob\u00e1", "state": "", "country": "BR", "coord": {"lon": -38.26889, "lat": -9.18306}}, {"id": 3392251, "name": "Pesqueira", "state": "", "country": "BR", "coord": {"lon": -36.696388, "lat": -8.35778}}, {"id": 3392268, "name": "Pernambuco", "state": "", "country": "BR", "coord": {"lon": -37.0, "lat": -8.0}}, {"id": 3392345, "name": "Pentecoste", "state": "", "country": "BR", "coord": {"lon": -39.270279, "lat": -3.79278}}, {"id": 3392361, "name": "Pend\u00eancias", "state": "", "country": "BR", "coord": {"lon": -36.722221, "lat": -5.26}}, {"id": 3392368, "name": "Penalva", "state": "", "country": "BR", "coord": {"lon": -45.173611, "lat": -3.29417}}, {"id": 3392415, "name": "Peixe", "state": "", "country": "BR", "coord": {"lon": -35.666672, "lat": -9.3}}, {"id": 3392425, "name": "Pedro Velho", "state": "", "country": "BR", "coord": {"lon": -35.22139, "lat": -6.43917}}, {"id": 3392431, "name": "Pedro II", "state": "", "country": "BR", "coord": {"lon": -41.458611, "lat": -4.42472}}, {"id": 3392478, "name": "Pedras de Fogo", "state": "", "country": "BR", "coord": {"lon": -35.11639, "lat": -7.40194}}, {"id": 3392544, "name": "Pedra Lavrada", "state": "", "country": "BR", "coord": {"lon": -36.470829, "lat": -6.75778}}, {"id": 3392629, "name": "Pedra Branca", "state": "", "country": "BR", "coord": {"lon": -39.71722, "lat": -5.45417}}, {"id": 3392657, "name": "Pedra", "state": "", "country": "BR", "coord": {"lon": -36.94083, "lat": -8.49694}}, {"id": 3392731, "name": "Paulo Ramos", "state": "", "country": "BR", "coord": {"lon": -45.183331, "lat": -4.21667}}, {"id": 3392732, "name": "Paulo Jacinto", "state": "", "country": "BR", "coord": {"lon": -36.36972, "lat": -9.36611}}, {"id": 3392734, "name": "Paulo Afonso", "state": "", "country": "BR", "coord": {"lon": -38.214722, "lat": -9.40611}}, {"id": 3392738, "name": "Paulistana", "state": "", "country": "BR", "coord": {"lon": -41.149719, "lat": -8.14361}}, {"id": 3392740, "name": "Paulista", "state": "", "country": "BR", "coord": {"lon": -34.873058, "lat": -7.94083}}, {"id": 3392742, "name": "Paulista", "state": "", "country": "BR", "coord": {"lon": -37.624168, "lat": -6.59389}}, {"id": 3392862, "name": "Patu", "state": "", "country": "BR", "coord": {"lon": -37.636669, "lat": -6.11}}, {"id": 3392887, "name": "Patos", "state": "", "country": "BR", "coord": {"lon": -37.279999, "lat": -7.02444}}, {"id": 3392907, "name": "Pastos Bons", "state": "", "country": "BR", "coord": {"lon": -44.076672, "lat": -6.60167}}, {"id": 3392916, "name": "Passira", "state": "", "country": "BR", "coord": {"lon": -35.580559, "lat": -7.995}}, {"id": 3392942, "name": "Passagem Franca", "state": "", "country": "BR", "coord": {"lon": -43.783611, "lat": -6.17972}}, {"id": 3392986, "name": "Paruj\u00e9", "state": "", "country": "BR", "coord": {"lon": -37.283329, "lat": -9.53333}}, {"id": 3392996, "name": "Parnarama", "state": "", "country": "BR", "coord": {"lon": -43.09333, "lat": -5.68167}}, {"id": 3392997, "name": "Parnamirim", "state": "", "country": "BR", "coord": {"lon": -39.578331, "lat": -8.09056}}, {"id": 3392998, "name": "Parnamirim", "state": "", "country": "BR", "coord": {"lon": -35.262779, "lat": -5.91556}}, {"id": 3393001, "name": "Parna\u00edba", "state": "", "country": "BR", "coord": {"lon": -41.776669, "lat": -2.90472}}, {"id": 3393008, "name": "Parintins", "state": "", "country": "BR", "coord": {"lon": -56.735828, "lat": -2.62833}}, {"id": 3393017, "name": "Parelhas", "state": "", "country": "BR", "coord": {"lon": -36.657501, "lat": -6.68778}}, {"id": 3393046, "name": "Parangaba", "state": "", "country": "BR", "coord": {"lon": -38.561668, "lat": -3.78583}}, {"id": 3393065, "name": "Parambu", "state": "", "country": "BR", "coord": {"lon": -40.694439, "lat": -6.21111}}, {"id": 3393091, "name": "Paraipaba", "state": "", "country": "BR", "coord": {"lon": -39.148331, "lat": -3.43944}}, {"id": 3393095, "name": "Paraibano", "state": "", "country": "BR", "coord": {"lon": -43.983608, "lat": -6.43306}}, {"id": 3393098, "name": "Para\u00edba", "state": "", "country": "BR", "coord": {"lon": -36.5, "lat": -7.25}}, {"id": 3393106, "name": "Paragominas", "state": "", "country": "BR", "coord": {"lon": -47.48333, "lat": -2.96667}}, {"id": 3393115, "name": "Paracuru", "state": "", "country": "BR", "coord": {"lon": -39.03056, "lat": -3.41}}, {"id": 3393129, "name": "Par\u00e1", "state": "", "country": "BR", "coord": {"lon": -53.0, "lat": -4.0}}, {"id": 3393174, "name": "P\u00e3o de A\u00e7\u00facar", "state": "", "country": "BR", "coord": {"lon": -37.436668, "lat": -9.74833}}, {"id": 3393190, "name": "Panelas", "state": "", "country": "BR", "coord": {"lon": -36.005829, "lat": -8.66361}}, {"id": 3393240, "name": "Palmeirais", "state": "", "country": "BR", "coord": {"lon": -43.063332, "lat": -5.97778}}, {"id": 3393264, "name": "Palmares", "state": "", "country": "BR", "coord": {"lon": -35.591671, "lat": -8.68333}}, {"id": 3393269, "name": "Palma", "state": "", "country": "BR", "coord": {"lon": -37.349998, "lat": -9.65}}, {"id": 3393279, "name": "Palhano", "state": "", "country": "BR", "coord": {"lon": -37.958889, "lat": -4.74528}}, {"id": 3393351, "name": "Paes Landim", "state": "", "country": "BR", "coord": {"lon": -42.255562, "lat": -7.77778}}, {"id": 3393386, "name": "Pacoti", "state": "", "country": "BR", "coord": {"lon": -38.923328, "lat": -4.225}}, {"id": 3393400, "name": "Pacatuba", "state": "", "country": "BR", "coord": {"lon": -38.620281, "lat": -3.98417}}, {"id": 3393409, "name": "Pacajus", "state": "", "country": "BR", "coord": {"lon": -38.46056, "lat": -4.1725}}, {"id": 3393422, "name": "Ouro Velho", "state": "", "country": "BR", "coord": {"lon": -37.149441, "lat": -7.62333}}, {"id": 3393452, "name": "Ouricuri", "state": "", "country": "BR", "coord": {"lon": -40.081669, "lat": -7.8825}}, {"id": 3393455, "name": "Our\u00e9m", "state": "", "country": "BR", "coord": {"lon": -47.114441, "lat": -1.55194}}, {"id": 3393465, "name": "Or\u00f3s", "state": "", "country": "BR", "coord": {"lon": -38.913609, "lat": -6.24444}}, {"id": 3393470, "name": "Orob\u00f3", "state": "", "country": "BR", "coord": {"lon": -35.602219, "lat": -7.745}}, {"id": 3393471, "name": "Oriximin\u00e1", "state": "", "country": "BR", "coord": {"lon": -55.866112, "lat": -1.76556}}, {"id": 3393525, "name": "Oliven\u00e7a", "state": "", "country": "BR", "coord": {"lon": -37.190559, "lat": -9.51861}}, {"id": 3393536, "name": "Olinda", "state": "", "country": "BR", "coord": {"lon": -34.855282, "lat": -8.00889}}, {"id": 3393544, "name": "\u00d4lho do Sert\u00e3o", "state": "", "country": "BR", "coord": {"lon": -36.75, "lat": -9.83333}}, {"id": 3393595, "name": "\u00d4lho d\u2019\u00c1gua de Igreja", "state": "", "country": "BR", "coord": {"lon": -38.933331, "lat": -7.28333}}, {"id": 3393680, "name": "\u00d4lho d\u2019\u00c1gua", "state": "", "country": "BR", "coord": {"lon": -44.650002, "lat": -4.56667}}, {"id": 3393692, "name": "Olho d\u2019Agua", "state": "", "country": "BR", "coord": {"lon": -39.950001, "lat": -2.88333}}, {"id": 3393758, "name": "Oiapoque", "state": "", "country": "BR", "coord": {"lon": -51.834999, "lat": 3.84306}}, {"id": 3393762, "name": "Oeiras do Par\u00e1", "state": "", "country": "BR", "coord": {"lon": -49.854439, "lat": -2.00306}}, {"id": 3393764, "name": "Oeiras", "state": "", "country": "BR", "coord": {"lon": -42.131111, "lat": -7.02528}}, {"id": 3393766, "name": "Ocara", "state": "", "country": "BR", "coord": {"lon": -38.596668, "lat": -4.49083}}, {"id": 3393768, "name": "\u00d3bidos", "state": "", "country": "BR", "coord": {"lon": -55.518059, "lat": -1.9175}}, {"id": 3393783, "name": "Novo Oriente", "state": "", "country": "BR", "coord": {"lon": -40.77417, "lat": -5.53444}}, {"id": 3393792, "name": "Novo Lino", "state": "", "country": "BR", "coord": {"lon": -35.646671, "lat": -8.915}}, {"id": 3393829, "name": "Nova Timboteua", "state": "", "country": "BR", "coord": {"lon": -47.392502, "lat": -1.20778}}, {"id": 3393832, "name": "Nova Russas", "state": "", "country": "BR", "coord": {"lon": -40.563061, "lat": -4.70667}}, {"id": 3393838, "name": "Nova Olinda do Norte", "state": "", "country": "BR", "coord": {"lon": -59.09417, "lat": -3.88806}}, {"id": 3393867, "name": "Nova Floresta", "state": "", "country": "BR", "coord": {"lon": -36.203331, "lat": -6.45528}}, {"id": 3393876, "name": "Nova Cruz", "state": "", "country": "BR", "coord": {"lon": -35.433891, "lat": -6.47806}}, {"id": 3393922, "name": "N\u00edsia Floresta", "state": "", "country": "BR", "coord": {"lon": -35.208611, "lat": -6.09111}}, {"id": 3393929, "name": "Nhamund\u00e1", "state": "", "country": "BR", "coord": {"lon": -56.713058, "lat": -2.18611}}, {"id": 3393968, "name": "Nazarezinho", "state": "", "country": "BR", "coord": {"lon": -38.324718, "lat": -6.91583}}, {"id": 3393972, "name": "Nazar\u00e9 da Mata", "state": "", "country": "BR", "coord": {"lon": -35.227779, "lat": -7.74167}}, {"id": 3394018, "name": "Natuba", "state": "", "country": "BR", "coord": {"lon": -35.549999, "lat": -7.64139}}, {"id": 3394023, "name": "Natal", "state": "", "country": "BR", "coord": {"lon": -35.209438, "lat": -5.795}}, {"id": 3394102, "name": "Muriti", "state": "", "country": "BR", "coord": {"lon": -38.333328, "lat": -9.96667}}, {"id": 3394103, "name": "Muriti", "state": "", "country": "BR", "coord": {"lon": -39.383331, "lat": -7.21667}}, {"id": 3394116, "name": "Murici", "state": "", "country": "BR", "coord": {"lon": -35.943329, "lat": -9.30667}}, {"id": 3394238, "name": "Mulungu", "state": "", "country": "BR", "coord": {"lon": -35.461941, "lat": -7.02444}}, {"id": 3394326, "name": "Muan\u00e1", "state": "", "country": "BR", "coord": {"lon": -49.216671, "lat": -1.52833}}, {"id": 3394372, "name": "Morros", "state": "", "country": "BR", "coord": {"lon": -46.300282, "lat": -9.44667}}, {"id": 3394453, "name": "Moreno", "state": "", "country": "BR", "coord": {"lon": -35.09222, "lat": -8.11861}}, {"id": 3394481, "name": "Mora\u00fajo", "state": "", "country": "BR", "coord": {"lon": -40.680561, "lat": -3.46667}}, {"id": 3394500, "name": "Morada Nova", "state": "", "country": "BR", "coord": {"lon": -38.372501, "lat": -5.10667}}, {"id": 3394539, "name": "Montes Altos", "state": "", "country": "BR", "coord": {"lon": -47.066669, "lat": -5.83333}}, {"id": 3394549, "name": "Monteiro", "state": "", "country": "BR", "coord": {"lon": -37.119999, "lat": -7.88944}}, {"id": 3394557, "name": "Monte Horebe", "state": "", "country": "BR", "coord": {"lon": -38.586391, "lat": -7.215}}, {"id": 3394561, "name": "Monte Dourado", "state": "", "country": "BR", "coord": {"lon": -52.528332, "lat": -0.86667}}, {"id": 3394594, "name": "Monte Alegre", "state": "", "country": "BR", "coord": {"lon": -36.301392, "lat": -5.88972}}, {"id": 3394605, "name": "Monte Alegre", "state": "", "country": "BR", "coord": {"lon": -54.069172, "lat": -2.00778}}, {"id": 3394612, "name": "Montanhas", "state": "", "country": "BR", "coord": {"lon": -35.287498, "lat": -6.48583}}, {"id": 3394618, "name": "Monsenhor Tabosa", "state": "", "country": "BR", "coord": {"lon": -40.063332, "lat": -4.78944}}, {"id": 3394621, "name": "Monsenhor Gil", "state": "", "country": "BR", "coord": {"lon": -42.60778, "lat": -5.56417}}, {"id": 3394640, "name": "Mon\u00e7\u00e3o", "state": "", "country": "BR", "coord": {"lon": -45.25111, "lat": -3.49167}}, {"id": 3394645, "name": "Mombacinha", "state": "", "country": "BR", "coord": {"lon": -36.700001, "lat": -9.88333}}, {"id": 3394649, "name": "Momba\u00e7a", "state": "", "country": "BR", "coord": {"lon": -39.627499, "lat": -5.74306}}, {"id": 3394661, "name": "Moju", "state": "", "country": "BR", "coord": {"lon": -48.76889, "lat": -1.88389}}, {"id": 3394669, "name": "Mogeiro", "state": "", "country": "BR", "coord": {"lon": -35.479439, "lat": -7.29944}}, {"id": 3394682, "name": "Mossor\u00f3", "state": "", "country": "BR", "coord": {"lon": -37.34417, "lat": -5.1875}}, {"id": 3394745, "name": "Mocajuba", "state": "", "country": "BR", "coord": {"lon": -49.507221, "lat": -2.58417}}, {"id": 3394755, "name": "Miss\u00e3o Velha", "state": "", "country": "BR", "coord": {"lon": -39.143059, "lat": -7.24972}}, {"id": 3394792, "name": "Mirandiba", "state": "", "country": "BR", "coord": {"lon": -38.729439, "lat": -8.12028}}, {"id": 3394813, "name": "Mirador", "state": "", "country": "BR", "coord": {"lon": -44.36306, "lat": -6.37083}}, {"id": 3394816, "name": "Miracica", "state": "", "country": "BR", "coord": {"lon": -36.619999, "lat": -8.95667}}, {"id": 3394841, "name": "Minador do Negr\u00e3o", "state": "", "country": "BR", "coord": {"lon": -36.864719, "lat": -9.30528}}, {"id": 3394860, "name": "Mimoso", "state": "", "country": "BR", "coord": {"lon": -36.916672, "lat": -8.41667}}, {"id": 3394884, "name": "Milagres", "state": "", "country": "BR", "coord": {"lon": -38.94556, "lat": -7.31333}}, {"id": 3394892, "name": "Miguel Alves", "state": "", "country": "BR", "coord": {"lon": -42.895279, "lat": -4.16556}}, {"id": 3394908, "name": "Messias", "state": "", "country": "BR", "coord": {"lon": -35.841671, "lat": -9.38333}}, {"id": 3394910, "name": "Mesota", "state": "", "country": "BR", "coord": {"lon": -37.51667, "lat": -7.83333}}, {"id": 3395042, "name": "Mazag\u00e3o", "state": "", "country": "BR", "coord": {"lon": -51.28944, "lat": -0.115}}, {"id": 3395058, "name": "Mauriti", "state": "", "country": "BR", "coord": {"lon": -38.774441, "lat": -7.38917}}, {"id": 3395062, "name": "Mau\u00e9s", "state": "", "country": "BR", "coord": {"lon": -57.718609, "lat": -3.38361}}, {"id": 3395077, "name": "Matriz de Camaragibe", "state": "", "country": "BR", "coord": {"lon": -35.533329, "lat": -9.15167}}, {"id": 3395122, "name": "Matinha", "state": "", "country": "BR", "coord": {"lon": -45.033611, "lat": -3.10056}}, {"id": 3395125, "name": "Matias Ol\u00edmpio", "state": "", "country": "BR", "coord": {"lon": -42.555561, "lat": -3.71583}}, {"id": 3395162, "name": "Mata Grande", "state": "", "country": "BR", "coord": {"lon": -37.73222, "lat": -9.1175}}, {"id": 3395188, "name": "Mata da Serra", "state": "", "country": "BR", "coord": {"lon": -36.616669, "lat": -8.75}}, {"id": 3395215, "name": "Massaranduba", "state": "", "country": "BR", "coord": {"lon": -35.789169, "lat": -7.20028}}, {"id": 3395239, "name": "Massap\u00ea", "state": "", "country": "BR", "coord": {"lon": -40.342781, "lat": -3.52278}}, {"id": 3395264, "name": "Martin\u00f3pole", "state": "", "country": "BR", "coord": {"lon": -40.696671, "lat": -3.22556}}, {"id": 3395312, "name": "Mariz\u00f3polis", "state": "", "country": "BR", "coord": {"lon": -38.347221, "lat": -6.84167}}, {"id": 3395336, "name": "Maribondo", "state": "", "country": "BR", "coord": {"lon": -36.305279, "lat": -9.57722}}, {"id": 3395380, "name": "Mari", "state": "", "country": "BR", "coord": {"lon": -35.319439, "lat": -7.06}}, {"id": 3395395, "name": "Marechal Deodoro", "state": "", "country": "BR", "coord": {"lon": -35.895, "lat": -9.71028}}, {"id": 3395404, "name": "Marco", "state": "", "country": "BR", "coord": {"lon": -40.146671, "lat": -3.12389}}, {"id": 3395409, "name": "Marcelino Vieira", "state": "", "country": "BR", "coord": {"lon": -38.167221, "lat": -6.29417}}, {"id": 3395440, "name": "Marapanim", "state": "", "country": "BR", "coord": {"lon": -47.699718, "lat": -0.7175}}, {"id": 3395443, "name": "Maranh\u00e3o", "state": "", "country": "BR", "coord": {"lon": -45.0, "lat": -5.0}}, {"id": 3395456, "name": "Maraial", "state": "", "country": "BR", "coord": {"lon": -35.808891, "lat": -8.7825}}, {"id": 3395458, "name": "Maragogi", "state": "", "country": "BR", "coord": {"lon": -35.2225, "lat": -9.01222}}, {"id": 3395473, "name": "Maracana\u00fa", "state": "", "country": "BR", "coord": {"lon": -38.625561, "lat": -3.87667}}, {"id": 3395483, "name": "Maracan\u00e3", "state": "", "country": "BR", "coord": {"lon": -47.450001, "lat": -0.76667}}, {"id": 3395497, "name": "Maraca\u00e7um\u00e9", "state": "", "country": "BR", "coord": {"lon": -45.959171, "lat": -2.04278}}, {"id": 3395501, "name": "Marac\u00e1", "state": "", "country": "BR", "coord": {"lon": -50.5, "lat": 2.13333}}, {"id": 3395503, "name": "Marab\u00e1", "state": "", "country": "BR", "coord": {"lon": -49.117779, "lat": -5.36861}}, {"id": 3395687, "name": "Manari", "state": "", "country": "BR", "coord": {"lon": -37.583328, "lat": -8.81667}}, {"id": 3395689, "name": "Mana\u00edra", "state": "", "country": "BR", "coord": {"lon": -38.154442, "lat": -7.70611}}, {"id": 3395717, "name": "Mamanguape", "state": "", "country": "BR", "coord": {"lon": -35.12611, "lat": -6.83861}}, {"id": 3395844, "name": "Malhada Cortada", "state": "", "country": "BR", "coord": {"lon": -38.299999, "lat": -7.98333}}, {"id": 3395876, "name": "Major Sales", "state": "", "country": "BR", "coord": {"lon": -38.323891, "lat": -6.40611}}, {"id": 3395880, "name": "Major Isidoro", "state": "", "country": "BR", "coord": {"lon": -36.985001, "lat": -9.53222}}, {"id": 3395981, "name": "Macei\u00f3", "state": "", "country": "BR", "coord": {"lon": -35.735279, "lat": -9.66583}}, {"id": 3395998, "name": "Macau", "state": "", "country": "BR", "coord": {"lon": -36.634441, "lat": -5.115}}, {"id": 3396009, "name": "Macaparana", "state": "", "country": "BR", "coord": {"lon": -35.45306, "lat": -7.55472}}, {"id": 3396016, "name": "Macap\u00e1", "state": "", "country": "BR", "coord": {"lon": -51.066391, "lat": 0.03889}}, {"id": 3396048, "name": "Maca\u00edba", "state": "", "country": "BR", "coord": {"lon": -35.353889, "lat": -5.85833}}, {"id": 3396049, "name": "Maca\u00edba", "state": "", "country": "BR", "coord": {"lon": -35.549999, "lat": -5.71667}}, {"id": 3396101, "name": "Luzil\u00e2ndia", "state": "", "country": "BR", "coord": {"lon": -42.370281, "lat": -3.45778}}, {"id": 3396116, "name": "Lu\u00eds Gomes", "state": "", "country": "BR", "coord": {"lon": -38.388611, "lat": -6.41389}}, {"id": 3396121, "name": "Lu\u00eds Correia", "state": "", "country": "BR", "coord": {"lon": -41.666939, "lat": -2.87917}}, {"id": 3396129, "name": "Lucr\u00e9cia", "state": "", "country": "BR", "coord": {"lon": -37.815559, "lat": -6.12}}, {"id": 3396139, "name": "Lucena", "state": "", "country": "BR", "coord": {"lon": -34.868889, "lat": -6.90028}}, {"id": 3396266, "name": "Limoeiro do Norte", "state": "", "country": "BR", "coord": {"lon": -38.098061, "lat": -5.14556}}, {"id": 3396268, "name": "Limoeiro do Ajuru", "state": "", "country": "BR", "coord": {"lon": -49.380562, "lat": -1.89528}}, {"id": 3396270, "name": "Limoeiro de Anadia", "state": "", "country": "BR", "coord": {"lon": -36.502781, "lat": -9.74056}}, {"id": 3396277, "name": "Limoeiro", "state": "", "country": "BR", "coord": {"lon": -35.450279, "lat": -7.87472}}, {"id": 3396364, "name": "Lavras da Mangabeira", "state": "", "country": "BR", "coord": {"lon": -38.964439, "lat": -6.75333}}, {"id": 3396391, "name": "Laranjeira", "state": "", "country": "BR", "coord": {"lon": -38.866669, "lat": -5.28333}}, {"id": 3396470, "name": "Lajes", "state": "", "country": "BR", "coord": {"lon": -37.289719, "lat": -5.28389}}, {"id": 3396496, "name": "Lajedo", "state": "", "country": "BR", "coord": {"lon": -36.32, "lat": -8.66361}}, {"id": 3396497, "name": "Lajedo", "state": "", "country": "BR", "coord": {"lon": -36.549999, "lat": -8.38333}}, {"id": 3396601, "name": "Lago da Pedra", "state": "", "country": "BR", "coord": {"lon": -45.166672, "lat": -4.33333}}, {"id": 3396620, "name": "Lagoa Seca", "state": "", "country": "BR", "coord": {"lon": -35.853611, "lat": -7.17083}}, {"id": 3396635, "name": "Lagoa Salgada", "state": "", "country": "BR", "coord": {"lon": -35.477219, "lat": -6.12083}}, {"id": 3396662, "name": "Lagoa Nova", "state": "", "country": "BR", "coord": {"lon": -36.48333, "lat": -6.1}}, {"id": 3396675, "name": "Lagoa Grande", "state": "", "country": "BR", "coord": {"lon": -40.271938, "lat": -8.99694}}, {"id": 3396716, "name": "Lagoa dos Gatos", "state": "", "country": "BR", "coord": {"lon": -35.900002, "lat": -8.65833}}, {"id": 3396769, "name": "Lagoa do Itaenga", "state": "", "country": "BR", "coord": {"lon": -35.290279, "lat": -7.93611}}, {"id": 3396786, "name": "Lagoa do Carro", "state": "", "country": "BR", "coord": {"lon": -35.319721, "lat": -7.84472}}, {"id": 3396792, "name": "Lagoa do Canto", "state": "", "country": "BR", "coord": {"lon": -35.73333, "lat": -5.91667}}, {"id": 3396877, "name": "Lagoa da Canoa", "state": "", "country": "BR", "coord": {"lon": -36.737782, "lat": -9.82972}}, {"id": 3396979, "name": "Juruti", "state": "", "country": "BR", "coord": {"lon": -56.09222, "lat": -2.15222}}, {"id": 3397003, "name": "Juru", "state": "", "country": "BR", "coord": {"lon": -37.818611, "lat": -7.53694}}, {"id": 3397008, "name": "Juripiranga", "state": "", "country": "BR", "coord": {"lon": -35.23806, "lat": -7.37333}}, {"id": 3397063, "name": "Junqueiro", "state": "", "country": "BR", "coord": {"lon": -36.47583, "lat": -9.92528}}, {"id": 3397068, "name": "Jundi\u00e1", "state": "", "country": "BR", "coord": {"lon": -35.573608, "lat": -8.93472}}, {"id": 3397074, "name": "Junco do Serid\u00f3", "state": "", "country": "BR", "coord": {"lon": -36.713058, "lat": -6.99667}}, {"id": 3397108, "name": "Jucurutu", "state": "", "country": "BR", "coord": {"lon": -37.020279, "lat": -6.03389}}, {"id": 3397119, "name": "Juc\u00e1s", "state": "", "country": "BR", "coord": {"lon": -39.5275, "lat": -6.52528}}, {"id": 3397147, "name": "Juazeiro do Norte", "state": "", "country": "BR", "coord": {"lon": -39.315281, "lat": -7.21306}}, {"id": 3397154, "name": "Juazeiro", "state": "", "country": "BR", "coord": {"lon": -40.498611, "lat": -9.41167}}, {"id": 3397175, "name": "Ju\u00e0zeirinho", "state": "", "country": "BR", "coord": {"lon": -38.049999, "lat": -6.81667}}, {"id": 3397179, "name": "Ju\u00e0zeirinho", "state": "", "country": "BR", "coord": {"lon": -37.368328, "lat": -5.19222}}, {"id": 3397230, "name": "Jos\u00e9 de Freitas", "state": "", "country": "BR", "coord": {"lon": -42.575562, "lat": -4.75639}}, {"id": 3397233, "name": "Jos\u00e9 da Penha", "state": "", "country": "BR", "coord": {"lon": -38.281391, "lat": -6.31667}}, {"id": 3397262, "name": "Joaquim Nabuco", "state": "", "country": "BR", "coord": {"lon": -35.533329, "lat": -8.62444}}, {"id": 3397277, "name": "Jo\u00e3o Pessoa", "state": "", "country": "BR", "coord": {"lon": -34.86306, "lat": -7.115}}, {"id": 3397315, "name": "Jo\u00e3o C\u00e2mara", "state": "", "country": "BR", "coord": {"lon": -35.819721, "lat": -5.5375}}, {"id": 3397319, "name": "Jo\u00e3o Alfredo", "state": "", "country": "BR", "coord": {"lon": -35.588329, "lat": -7.85583}}, {"id": 3397337, "name": "Girau do Ponciano", "state": "", "country": "BR", "coord": {"lon": -36.828892, "lat": -9.88417}}, {"id": 3397355, "name": "Jipuba", "state": "", "country": "BR", "coord": {"lon": -44.666672, "lat": -2.06667}}, {"id": 3397386, "name": "Jeric\u00f3", "state": "", "country": "BR", "coord": {"lon": -37.808609, "lat": -6.55361}}, {"id": 3397546, "name": "Jata\u00faba", "state": "", "country": "BR", "coord": {"lon": -36.496391, "lat": -7.99}}, {"id": 3397560, "name": "Jardim do Serid\u00f3", "state": "", "country": "BR", "coord": {"lon": -36.774441, "lat": -6.58444}}, {"id": 3397562, "name": "Jardim de Piranhas", "state": "", "country": "BR", "coord": {"lon": -37.35194, "lat": -6.37861}}, {"id": 3397590, "name": "Jardim", "state": "", "country": "BR", "coord": {"lon": -39.056671, "lat": -3.46444}}, {"id": 3397643, "name": "Jandu\u00eds", "state": "", "country": "BR", "coord": {"lon": -37.40889, "lat": -6.01556}}, {"id": 3397660, "name": "Jaic\u00f3s", "state": "", "country": "BR", "coord": {"lon": -41.137779, "lat": -7.35917}}, {"id": 3397665, "name": "Jaguaruana", "state": "", "country": "BR", "coord": {"lon": -37.781109, "lat": -4.83389}}, {"id": 3397675, "name": "Jaguaribe", "state": "", "country": "BR", "coord": {"lon": -38.621941, "lat": -5.89056}}, {"id": 3397678, "name": "Jaguaribara", "state": "", "country": "BR", "coord": {"lon": -38.619999, "lat": -5.65806}}, {"id": 3397680, "name": "Jaguaretama", "state": "", "country": "BR", "coord": {"lon": -38.766941, "lat": -5.61278}}, {"id": 3397758, "name": "Jacar\u00e9 Mirim", "state": "", "country": "BR", "coord": {"lon": -35.349998, "lat": -5.78333}}, {"id": 3397761, "name": "Jacar\u00e9 dos Homens", "state": "", "country": "BR", "coord": {"lon": -37.20472, "lat": -9.63556}}, {"id": 3397763, "name": "Jacareacanga", "state": "", "country": "BR", "coord": {"lon": -57.752781, "lat": -6.22222}}, {"id": 3397800, "name": "Jacara\u00fa", "state": "", "country": "BR", "coord": {"lon": -35.292782, "lat": -6.61222}}, {"id": 3397838, "name": "Jaboat\u00e3o", "state": "", "country": "BR", "coord": {"lon": -35.001389, "lat": -8.18028}}, {"id": 3397843, "name": "Rio Iva\u00ed", "state": "", "country": "BR", "coord": {"lon": -52.166672, "lat": -1.36667}}, {"id": 3397851, "name": "Itupiranga", "state": "", "country": "BR", "coord": {"lon": -49.326672, "lat": -5.13472}}, {"id": 3397865, "name": "Itaueira", "state": "", "country": "BR", "coord": {"lon": -43.025558, "lat": -7.60333}}, {"id": 3397873, "name": "Ita\u00fa", "state": "", "country": "BR", "coord": {"lon": -37.992779, "lat": -5.83972}}, {"id": 3397875, "name": "Itatuba", "state": "", "country": "BR", "coord": {"lon": -35.62833, "lat": -7.375}}, {"id": 3397886, "name": "Itaquitinga", "state": "", "country": "BR", "coord": {"lon": -35.101669, "lat": -7.66778}}, {"id": 3397893, "name": "Itacoatiara", "state": "", "country": "BR", "coord": {"lon": -58.444172, "lat": -3.14306}}, {"id": 3397897, "name": "Itapororoca", "state": "", "country": "BR", "coord": {"lon": -35.247219, "lat": -6.82972}}, {"id": 3397898, "name": "Itaporanga", "state": "", "country": "BR", "coord": {"lon": -38.15028, "lat": -7.30444}}, {"id": 3397900, "name": "Itapor\u00e3 do Tocantins", "state": "", "country": "BR", "coord": {"lon": -48.689171, "lat": -8.57139}}, {"id": 3397903, "name": "Itapi\u00fana", "state": "", "country": "BR", "coord": {"lon": -38.922218, "lat": -4.56444}}, {"id": 3397904, "name": "Itapissuma", "state": "", "country": "BR", "coord": {"lon": -34.89222, "lat": -7.77639}}, {"id": 3397909, "name": "Itapipoca", "state": "", "country": "BR", "coord": {"lon": -39.578609, "lat": -3.49444}}, {"id": 3397931, "name": "Itapetim", "state": "", "country": "BR", "coord": {"lon": -37.190281, "lat": -7.37833}}, {"id": 3397936, "name": "Itapecuru Mirim", "state": "", "country": "BR", "coord": {"lon": -44.358608, "lat": -3.3925}}, {"id": 3397940, "name": "Itaparica", "state": "", "country": "BR", "coord": {"lon": -38.316669, "lat": -9.06667}}, {"id": 3397941, "name": "Itapag\u00e9", "state": "", "country": "BR", "coord": {"lon": -39.586109, "lat": -3.68667}}, {"id": 3397963, "name": "Itamarac\u00e1", "state": "", "country": "BR", "coord": {"lon": -34.825562, "lat": -7.74778}}, {"id": 3397967, "name": "Itaituba", "state": "", "country": "BR", "coord": {"lon": -55.983608, "lat": -4.27611}}, {"id": 3397969, "name": "Itaitinga", "state": "", "country": "BR", "coord": {"lon": -38.528061, "lat": -3.96944}}, {"id": 3397976, "name": "Itain\u00f3polis", "state": "", "country": "BR", "coord": {"lon": -41.478329, "lat": -7.44694}}, {"id": 3397982, "name": "Itai\u00e7aba", "state": "", "country": "BR", "coord": {"lon": -37.822498, "lat": -4.67444}}, {"id": 3397983, "name": "Ita\u00edba", "state": "", "country": "BR", "coord": {"lon": -37.422779, "lat": -8.9475}}, {"id": 3398003, "name": "Itabaiana", "state": "", "country": "BR", "coord": {"lon": -35.3325, "lat": -7.32861}}, {"id": 3398007, "name": "Isa\u00edas Coelho", "state": "", "country": "BR", "coord": {"lon": -41.676109, "lat": -7.73778}}, {"id": 3398014, "name": "Irituia", "state": "", "country": "BR", "coord": {"lon": -47.438061, "lat": -1.77111}}, {"id": 3398028, "name": "Irau\u00e7uba", "state": "", "country": "BR", "coord": {"lon": -39.783329, "lat": -3.74611}}, {"id": 3398076, "name": "Ipueiras", "state": "", "country": "BR", "coord": {"lon": -40.450001, "lat": -7.03333}}, {"id": 3398105, "name": "Ipubi", "state": "", "country": "BR", "coord": {"lon": -40.148891, "lat": -7.65194}}, {"id": 3398112, "name": "Ipu", "state": "", "country": "BR", "coord": {"lon": -40.710831, "lat": -4.32222}}, {"id": 3398115, "name": "Ipojuca", "state": "", "country": "BR", "coord": {"lon": -35.063889, "lat": -8.39889}}, {"id": 3398143, "name": "Ipaumirim", "state": "", "country": "BR", "coord": {"lon": -38.71917, "lat": -6.78972}}, {"id": 3398145, "name": "Ipangua\u00e7u", "state": "", "country": "BR", "coord": {"lon": -36.855, "lat": -5.49833}}, {"id": 3398178, "name": "Inhuma", "state": "", "country": "BR", "coord": {"lon": -41.707779, "lat": -6.66833}}, {"id": 3398192, "name": "Inhapi", "state": "", "country": "BR", "coord": {"lon": -37.748611, "lat": -9.22139}}, {"id": 3398207, "name": "Ingazeira", "state": "", "country": "BR", "coord": {"lon": -37.459721, "lat": -7.67611}}, {"id": 3398224, "name": "Ing\u00e1", "state": "", "country": "BR", "coord": {"lon": -35.604439, "lat": -7.28083}}, {"id": 3398255, "name": "Independ\u00eancia", "state": "", "country": "BR", "coord": {"lon": -40.308609, "lat": -5.39639}}, {"id": 3398269, "name": "Imperatriz", "state": "", "country": "BR", "coord": {"lon": -47.491669, "lat": -5.52639}}, {"id": 3398299, "name": "Imaculada", "state": "", "country": "BR", "coord": {"lon": -37.509171, "lat": -7.38972}}, {"id": 3398312, "name": "Ilha Redonda", "state": "", "country": "BR", "coord": {"lon": -39.549999, "lat": -8.63333}}, {"id": 3398331, "name": "Iguatu", "state": "", "country": "BR", "coord": {"lon": -39.298611, "lat": -6.35944}}, {"id": 3398343, "name": "Igarap\u00e9 Miri", "state": "", "country": "BR", "coord": {"lon": -48.959721, "lat": -1.975}}, {"id": 3398350, "name": "Igarap\u00e9 A\u00e7u", "state": "", "country": "BR", "coord": {"lon": -47.619999, "lat": -1.12889}}, {"id": 3398352, "name": "Igarassu", "state": "", "country": "BR", "coord": {"lon": -34.906391, "lat": -7.83417}}, {"id": 3398355, "name": "Igaci", "state": "", "country": "BR", "coord": {"lon": -36.63361, "lat": -9.53694}}, {"id": 3398379, "name": "Ic\u00f3", "state": "", "country": "BR", "coord": {"lon": -38.862221, "lat": -6.40111}}, {"id": 3398381, "name": "Icatu", "state": "", "country": "BR", "coord": {"lon": -44.06583, "lat": -2.77583}}, {"id": 3398384, "name": "Icapu\u00ed", "state": "", "country": "BR", "coord": {"lon": -37.355282, "lat": -4.71306}}, {"id": 3398399, "name": "Ibirajuba", "state": "", "country": "BR", "coord": {"lon": -36.17944, "lat": -8.58056}}, {"id": 3398401, "name": "Ibimirim", "state": "", "country": "BR", "coord": {"lon": -37.690281, "lat": -8.54056}}, {"id": 3398402, "name": "Ibicuitinga", "state": "", "country": "BR", "coord": {"lon": -38.638889, "lat": -4.97389}}, {"id": 3398408, "name": "Ibiapina", "state": "", "country": "BR", "coord": {"lon": -40.889439, "lat": -3.92333}}, {"id": 3398412, "name": "Ibateguara", "state": "", "country": "BR", "coord": {"lon": -35.939442, "lat": -8.9725}}, {"id": 3398428, "name": "Humberto de Campos", "state": "", "country": "BR", "coord": {"lon": -43.461109, "lat": -2.59833}}, {"id": 3398450, "name": "Horizonte", "state": "", "country": "BR", "coord": {"lon": -38.48333, "lat": -4.1}}, {"id": 3398456, "name": "Himalaia", "state": "", "country": "BR", "coord": {"lon": -36.216671, "lat": -9.56667}}, {"id": 3398457, "name": "Hidrol\u00e2ndia", "state": "", "country": "BR", "coord": {"lon": -40.437778, "lat": -4.40806}}, {"id": 3398480, "name": "Gurup\u00e1", "state": "", "country": "BR", "coord": {"lon": -51.639999, "lat": -1.405}}, {"id": 3398485, "name": "Gurinh\u00e9m", "state": "", "country": "BR", "coord": {"lon": -35.424438, "lat": -7.12389}}, {"id": 3398569, "name": "Guaraciaba do Norte", "state": "", "country": "BR", "coord": {"lon": -40.747501, "lat": -4.16694}}, {"id": 3398570, "name": "Guarabira", "state": "", "country": "BR", "coord": {"lon": -35.490002, "lat": -6.85472}}, {"id": 3398584, "name": "Guamar\u00e9", "state": "", "country": "BR", "coord": {"lon": -36.320278, "lat": -5.1075}}, {"id": 3398612, "name": "Guajar\u00e1", "state": "", "country": "BR", "coord": {"lon": -57.666672, "lat": -2.96667}}, {"id": 3398614, "name": "Guai\u00faba", "state": "", "country": "BR", "coord": {"lon": -38.637218, "lat": -4.03972}}, {"id": 3398622, "name": "Guabiraba", "state": "", "country": "BR", "coord": {"lon": -35.666672, "lat": -8.41667}}, {"id": 3398647, "name": "Grossos", "state": "", "country": "BR", "coord": {"lon": -37.15472, "lat": -4.97972}}, {"id": 3398688, "name": "Gravat\u00e1", "state": "", "country": "BR", "coord": {"lon": -36.366669, "lat": -8.55}}, {"id": 3398691, "name": "Gravat\u00e1", "state": "", "country": "BR", "coord": {"lon": -35.56472, "lat": -8.20111}}, {"id": 3398706, "name": "Granja", "state": "", "country": "BR", "coord": {"lon": -40.826111, "lat": -3.12028}}, {"id": 3398856, "name": "Graja\u00fa", "state": "", "country": "BR", "coord": {"lon": -46.138611, "lat": -5.81944}}, {"id": 3398871, "name": "Governador Dix Sept Rosado", "state": "", "country": "BR", "coord": {"lon": -37.520828, "lat": -5.45889}}, {"id": 3398902, "name": "Goianinha", "state": "", "country": "BR", "coord": {"lon": -35.212502, "lat": -6.26472}}, {"id": 3398904, "name": "Goiana", "state": "", "country": "BR", "coord": {"lon": -35.002499, "lat": -7.56056}}, {"id": 3398920, "name": "Gl\u00f3ria do Goit\u00e1", "state": "", "country": "BR", "coord": {"lon": -35.292782, "lat": -8.00167}}, {"id": 3398931, "name": "Gilbu\u00e9s", "state": "", "country": "BR", "coord": {"lon": -45.343891, "lat": -9.83167}}, {"id": 3399040, "name": "Garcia", "state": "", "country": "BR", "coord": {"lon": -37.083328, "lat": -9.38333}}, {"id": 3399051, "name": "Gararu", "state": "", "country": "BR", "coord": {"lon": -37.083328, "lat": -9.9675}}, {"id": 3399058, "name": "Garanhuns", "state": "", "country": "BR", "coord": {"lon": -36.492779, "lat": -8.89028}}, {"id": 3399132, "name": "Gameleira", "state": "", "country": "BR", "coord": {"lon": -35.386669, "lat": -8.58444}}, {"id": 3399179, "name": "Galinhos", "state": "", "country": "BR", "coord": {"lon": -36.27528, "lat": -5.09056}}, {"id": 3399245, "name": "Furnas", "state": "", "country": "BR", "coord": {"lon": -35.783329, "lat": -5.76667}}, {"id": 3399295, "name": "Fronteiras", "state": "", "country": "BR", "coord": {"lon": -40.61639, "lat": -7.08806}}, {"id": 3399313, "name": "Frecheirinha", "state": "", "country": "BR", "coord": {"lon": -40.816391, "lat": -3.76}}, {"id": 3399336, "name": "Francisco Santos", "state": "", "country": "BR", "coord": {"lon": -41.137779, "lat": -6.99278}}, {"id": 3399377, "name": "Fortuna", "state": "", "country": "BR", "coord": {"lon": -44.158329, "lat": -5.73333}}, {"id": 3399380, "name": "Fortim", "state": "", "country": "BR", "coord": {"lon": -37.797218, "lat": -4.45194}}, {"id": 3399388, "name": "Fortaleza dos Nogueiras", "state": "", "country": "BR", "coord": {"lon": -46.177219, "lat": -6.96389}}, {"id": 3399415, "name": "Fortaleza", "state": "", "country": "BR", "coord": {"lon": -38.54306, "lat": -3.71722}}, {"id": 3399445, "name": "Forquilha", "state": "", "country": "BR", "coord": {"lon": -40.260559, "lat": -3.79833}}, {"id": 3399446, "name": "Forquilha", "state": "", "country": "BR", "coord": {"lon": -40.533329, "lat": -2.9}}, {"id": 3399506, "name": "Floriano", "state": "", "country": "BR", "coord": {"lon": -43.022499, "lat": -6.76694}}, {"id": 3399518, "name": "Floresta", "state": "", "country": "BR", "coord": {"lon": -38.568611, "lat": -8.60111}}, {"id": 3399539, "name": "Flores", "state": "", "country": "BR", "coord": {"lon": -37.97472, "lat": -7.86806}}, {"id": 3399571, "name": "Flexeiras", "state": "", "country": "BR", "coord": {"lon": -35.78083, "lat": -9.1975}}, {"id": 3399653, "name": "Felipe Guerra", "state": "", "country": "BR", "coord": {"lon": -37.68861, "lat": -5.6025}}, {"id": 3399679, "name": "Feira Nova", "state": "", "country": "BR", "coord": {"lon": -35.389172, "lat": -7.95083}}, {"id": 3400055, "name": "Fazenda Monte Lima", "state": "", "country": "BR", "coord": {"lon": -39.150002, "lat": -4.8}}, {"id": 3400118, "name": "Fazenda Lajes", "state": "", "country": "BR", "coord": {"lon": -39.383331, "lat": -3.93333}}, {"id": 3400210, "name": "Fazenda Fechado", "state": "", "country": "BR", "coord": {"lon": -39.549999, "lat": -4.01667}}, {"id": 3400256, "name": "Fazenda Coit\u00e9", "state": "", "country": "BR", "coord": {"lon": -38.666672, "lat": -3.9}}, {"id": 3400311, "name": "Fazenda Campina", "state": "", "country": "BR", "coord": {"lon": -40.183331, "lat": -4.56667}}, {"id": 3400497, "name": "Farias Brito", "state": "", "country": "BR", "coord": {"lon": -39.565559, "lat": -6.93056}}, {"id": 3400515, "name": "Fagundes", "state": "", "country": "BR", "coord": {"lon": -35.775002, "lat": -7.355}}, {"id": 3400541, "name": "Exu", "state": "", "country": "BR", "coord": {"lon": -39.724171, "lat": -7.51194}}, {"id": 3400558, "name": "Eus\u00e9bio", "state": "", "country": "BR", "coord": {"lon": -38.450562, "lat": -3.89}}, {"id": 3400567, "name": "Extremoz", "state": "", "country": "BR", "coord": {"lon": -35.30722, "lat": -5.70556}}, {"id": 3400568, "name": "Estremo", "state": "", "country": "BR", "coord": {"lon": -38.283329, "lat": -7.8}}, {"id": 3400617, "name": "Estreito", "state": "", "country": "BR", "coord": {"lon": -43.25, "lat": -5.78333}}, {"id": 3400739, "name": "Esperantin\u00f3polis", "state": "", "country": "BR", "coord": {"lon": -44.708328, "lat": -4.86667}}, {"id": 3400740, "name": "Esperantina", "state": "", "country": "BR", "coord": {"lon": -42.233608, "lat": -3.90167}}, {"id": 3400752, "name": "Esperan\u00e7a", "state": "", "country": "BR", "coord": {"lon": -35.85722, "lat": -7.03306}}, {"id": 3400804, "name": "Escada", "state": "", "country": "BR", "coord": {"lon": -35.22361, "lat": -8.35917}}, {"id": 3400920, "name": "Elesb\u00e3o Veloso", "state": "", "country": "BR", "coord": {"lon": -42.140282, "lat": -6.20194}}, {"id": 3400935, "name": "Duas Estradas", "state": "", "country": "BR", "coord": {"lon": -35.418331, "lat": -6.685}}, {"id": 3400963, "name": "Dona In\u00eas", "state": "", "country": "BR", "coord": {"lon": -35.633331, "lat": -6.61667}}, {"id": 3400969, "name": "Dom Pedro", "state": "", "country": "BR", "coord": {"lon": -44.450001, "lat": -4.48333}}, {"id": 3400989, "name": "Dois Riachos", "state": "", "country": "BR", "coord": {"lon": -37.100559, "lat": -9.3925}}, {"id": 3401060, "name": "Desterro", "state": "", "country": "BR", "coord": {"lon": -37.093891, "lat": -7.29056}}, {"id": 3401106, "name": "Demerval Lob\u00e3o", "state": "", "country": "BR", "coord": {"lon": -42.676392, "lat": -5.35833}}, {"id": 3401109, "name": "Delmiro Gouveia", "state": "", "country": "BR", "coord": {"lon": -37.999168, "lat": -9.38861}}, {"id": 3401138, "name": "Cust\u00f3dia", "state": "", "country": "BR", "coord": {"lon": -37.643059, "lat": -8.0875}}, {"id": 3401148, "name": "Cururupu", "state": "", "country": "BR", "coord": {"lon": -44.868328, "lat": -1.82833}}, {"id": 3401188, "name": "Curu\u00e7\u00e1", "state": "", "country": "BR", "coord": {"lon": -47.848061, "lat": -0.72889}}, {"id": 3401193, "name": "Curuai", "state": "", "country": "BR", "coord": {"lon": -55.47583, "lat": -2.27194}}, {"id": 3401225, "name": "Curral Velho", "state": "", "country": "BR", "coord": {"lon": -56.24361, "lat": -1.85083}}, {"id": 3401283, "name": "Currais Novos", "state": "", "country": "BR", "coord": {"lon": -36.51778, "lat": -6.26083}}, {"id": 3401331, "name": "Cura\u00e7\u00e1", "state": "", "country": "BR", "coord": {"lon": -39.909439, "lat": -8.99028}}, {"id": 3401340, "name": "Cupira", "state": "", "country": "BR", "coord": {"lon": -35.950001, "lat": -8.61667}}, {"id": 3401404, "name": "Cumaru", "state": "", "country": "BR", "coord": {"lon": -35.69722, "lat": -8.00611}}, {"id": 3401416, "name": "Cuitegi", "state": "", "country": "BR", "coord": {"lon": -35.523331, "lat": -6.89333}}, {"id": 3401419, "name": "Cuit\u00e9", "state": "", "country": "BR", "coord": {"lon": -36.15361, "lat": -6.48361}}, {"id": 3401443, "name": "Cruzeta", "state": "", "country": "BR", "coord": {"lon": -36.789719, "lat": -6.41167}}, {"id": 3401446, "name": "Cruzes", "state": "", "country": "BR", "coord": {"lon": -36.48333, "lat": -9.65}}, {"id": 3401457, "name": "Cruz do Esp\u00edrito Santo", "state": "", "country": "BR", "coord": {"lon": -35.086391, "lat": -7.14}}, {"id": 3401487, "name": "Cruz", "state": "", "country": "BR", "coord": {"lon": -40.171669, "lat": -2.91778}}, {"id": 3401545, "name": "Crato", "state": "", "country": "BR", "coord": {"lon": -39.409439, "lat": -7.23417}}, {"id": 3401548, "name": "Crate\u00fas", "state": "", "country": "BR", "coord": {"lon": -40.677502, "lat": -5.17833}}, {"id": 3401703, "name": "Coroat\u00e1", "state": "", "country": "BR", "coord": {"lon": -44.124168, "lat": -4.13}}, {"id": 3401725, "name": "Coremas", "state": "", "country": "BR", "coord": {"lon": -37.945831, "lat": -7.01444}}, {"id": 3401729, "name": "Corea\u00fa", "state": "", "country": "BR", "coord": {"lon": -40.65667, "lat": -3.53333}}, {"id": 3401751, "name": "Coqueiro Seco", "state": "", "country": "BR", "coord": {"lon": -35.803059, "lat": -9.63833}}, {"id": 3401830, "name": "Condado", "state": "", "country": "BR", "coord": {"lon": -35.105831, "lat": -7.58583}}, {"id": 3401845, "name": "Concei\u00e7\u00e3o do Araguaia", "state": "", "country": "BR", "coord": {"lon": -49.264721, "lat": -8.25778}}, {"id": 3401944, "name": "Col\u00f4nia Leopoldina", "state": "", "country": "BR", "coord": {"lon": -35.724998, "lat": -8.90889}}, {"id": 3401963, "name": "Colinas", "state": "", "country": "BR", "coord": {"lon": -44.249168, "lat": -6.02583}}, {"id": 3401980, "name": "Coit\u00e9 do N\u00f3ia", "state": "", "country": "BR", "coord": {"lon": -36.578609, "lat": -9.63222}}, {"id": 3401992, "name": "Coelho Neto", "state": "", "country": "BR", "coord": {"lon": -43.012779, "lat": -4.25667}}, {"id": 3402000, "name": "Cod\u00f3", "state": "", "country": "BR", "coord": {"lon": -43.885559, "lat": -4.45528}}, {"id": 3402050, "name": "Cocal", "state": "", "country": "BR", "coord": {"lon": -41.557499, "lat": -3.47194}}, {"id": 3402164, "name": "Chorozinho", "state": "", "country": "BR", "coord": {"lon": -38.49778, "lat": -4.30028}}, {"id": 3402206, "name": "Charqueada", "state": "", "country": "BR", "coord": {"lon": -48.44083, "lat": -8.87917}}, {"id": 3402211, "name": "Ch\u00e3 Preta", "state": "", "country": "BR", "coord": {"lon": -36.296108, "lat": -9.25528}}, {"id": 3402229, "name": "Chapadinha", "state": "", "country": "BR", "coord": {"lon": -43.360279, "lat": -3.74167}}, {"id": 3402271, "name": "Ch\u00e3 Grande", "state": "", "country": "BR", "coord": {"lon": -35.46167, "lat": -8.23833}}, {"id": 3402278, "name": "Ch\u00e3 de Alegria", "state": "", "country": "BR", "coord": {"lon": -35.21278, "lat": -8.00111}}, {"id": 3402284, "name": "Cerro Cor\u00e1", "state": "", "country": "BR", "coord": {"lon": -36.345829, "lat": -6.04556}}, {"id": 3402340, "name": "Cedro", "state": "", "country": "BR", "coord": {"lon": -39.062222, "lat": -6.60667}}, {"id": 3402360, "name": "Cear\u00e1 Mirim", "state": "", "country": "BR", "coord": {"lon": -35.42556, "lat": -5.63444}}, {"id": 3402362, "name": "Cear\u00e1", "state": "", "country": "BR", "coord": {"lon": -40.0, "lat": -5.0}}, {"id": 3402390, "name": "Caveira", "state": "", "country": "BR", "coord": {"lon": -35.216671, "lat": -7.58333}}, {"id": 3402429, "name": "Caucaia", "state": "", "country": "BR", "coord": {"lon": -38.653061, "lat": -3.73611}}, {"id": 3402465, "name": "Catol\u00e9 do Rocha", "state": "", "country": "BR", "coord": {"lon": -37.74667, "lat": -6.34389}}, {"id": 3402528, "name": "Catende", "state": "", "country": "BR", "coord": {"lon": -35.716671, "lat": -8.66667}}, {"id": 3402548, "name": "Castelo do Piau\u00ed", "state": "", "country": "BR", "coord": {"lon": -41.552502, "lat": -5.32222}}, {"id": 3402591, "name": "Castanhal", "state": "", "country": "BR", "coord": {"lon": -47.926392, "lat": -1.29389}}, {"id": 3402613, "name": "Cascavel", "state": "", "country": "BR", "coord": {"lon": -38.24194, "lat": -4.13306}}, {"id": 3402621, "name": "Casa Nova", "state": "", "country": "BR", "coord": {"lon": -41.133331, "lat": -9.41667}}, {"id": 3402648, "name": "Carutapera", "state": "", "country": "BR", "coord": {"lon": -46.02, "lat": -1.195}}, {"id": 3402655, "name": "Caruaru", "state": "", "country": "BR", "coord": {"lon": -35.976109, "lat": -8.28333}}, {"id": 3402721, "name": "Carpina", "state": "", "country": "BR", "coord": {"lon": -35.254719, "lat": -7.85083}}, {"id": 3402724, "name": "Carolina", "state": "", "country": "BR", "coord": {"lon": -47.46944, "lat": -7.33278}}, {"id": 3402738, "name": "Boqueir\u00e3o", "state": "", "country": "BR", "coord": {"lon": -36.134998, "lat": -7.48167}}, {"id": 3402787, "name": "Carnaubal", "state": "", "country": "BR", "coord": {"lon": -40.94278, "lat": -4.16667}}, {"id": 3402791, "name": "Carnaubais", "state": "", "country": "BR", "coord": {"lon": -36.834438, "lat": -5.34833}}, {"id": 3402795, "name": "Carna\u00faba dos Dantas", "state": "", "country": "BR", "coord": {"lon": -36.595001, "lat": -6.55556}}, {"id": 3402848, "name": "Carna\u00edba", "state": "", "country": "BR", "coord": {"lon": -37.666672, "lat": -8.7}}, {"id": 3402882, "name": "Cariria\u00e7u", "state": "", "country": "BR", "coord": {"lon": -39.283611, "lat": -7.04222}}, {"id": 3402893, "name": "Carir\u00e9", "state": "", "country": "BR", "coord": {"lon": -40.473331, "lat": -3.95056}}, {"id": 3402916, "name": "Caresalzinho", "state": "", "country": "BR", "coord": {"lon": -57.633331, "lat": -6.23333}}, {"id": 3402920, "name": "Careiro da V\u00e1rzea", "state": "", "country": "BR", "coord": {"lon": -59.811939, "lat": -3.20028}}, {"id": 3402944, "name": "Cara\u00fabas", "state": "", "country": "BR", "coord": {"lon": -37.556671, "lat": -5.7925}}, {"id": 3402945, "name": "Cara\u00fabas", "state": "", "country": "BR", "coord": {"lon": -37.303059, "lat": -5.53}}, {"id": 3403082, "name": "Capoeiras", "state": "", "country": "BR", "coord": {"lon": -36.626671, "lat": -8.73472}}, {"id": 3403127, "name": "Capit\u00e3o Po\u00e7o", "state": "", "country": "BR", "coord": {"lon": -47.059441, "lat": -1.74639}}, {"id": 3403146, "name": "Capistrano", "state": "", "country": "BR", "coord": {"lon": -38.90139, "lat": -4.47}}, {"id": 3403186, "name": "Capim", "state": "", "country": "BR", "coord": {"lon": -35.171669, "lat": -6.91611}}, {"id": 3403200, "name": "Capela", "state": "", "country": "BR", "coord": {"lon": -36.073608, "lat": -9.4075}}, {"id": 3403208, "name": "Capanema", "state": "", "country": "BR", "coord": {"lon": -47.180828, "lat": -1.19583}}, {"id": 3403209, "name": "Capa de Cima", "state": "", "country": "BR", "coord": {"lon": -38.166672, "lat": -6.1}}, {"id": 3403241, "name": "Porto do Mangue", "state": "", "country": "BR", "coord": {"lon": -36.78167, "lat": -5.06778}}, {"id": 3403251, "name": "Canto do Buriti", "state": "", "country": "BR", "coord": {"lon": -42.944439, "lat": -8.11}}, {"id": 3403309, "name": "Cantanhede", "state": "", "country": "BR", "coord": {"lon": -44.376671, "lat": -3.63333}}, {"id": 3403338, "name": "Canivete", "state": "", "country": "BR", "coord": {"lon": -37.26667, "lat": -9.31667}}, {"id": 3403344, "name": "Canind\u00e9 de S\u00e3o Francisco", "state": "", "country": "BR", "coord": {"lon": -37.78944, "lat": -9.66}}, {"id": 3403353, "name": "Canind\u00e9", "state": "", "country": "BR", "coord": {"lon": -39.311668, "lat": -4.35889}}, {"id": 3403360, "name": "Canhotinho", "state": "", "country": "BR", "coord": {"lon": -36.191109, "lat": -8.88222}}, {"id": 3403362, "name": "Canguaretama", "state": "", "country": "BR", "coord": {"lon": -35.128891, "lat": -6.38}}, {"id": 3403395, "name": "C\u00e2ndido Mendes", "state": "", "country": "BR", "coord": {"lon": -45.716671, "lat": -1.44667}}, {"id": 3403420, "name": "Canastra", "state": "", "country": "BR", "coord": {"lon": -35.849998, "lat": -8.93333}}, {"id": 3403516, "name": "Camutanga", "state": "", "country": "BR", "coord": {"lon": -35.274441, "lat": -7.40694}}, {"id": 3403534, "name": "Campos Sales", "state": "", "country": "BR", "coord": {"lon": -40.37611, "lat": -7.07444}}, {"id": 3403559, "name": "Campo Redondo", "state": "", "country": "BR", "coord": {"lon": -36.182499, "lat": -6.24139}}, {"id": 3403566, "name": "Campo Maior", "state": "", "country": "BR", "coord": {"lon": -42.16861, "lat": -4.82778}}, {"id": 3403611, "name": "Campo Alegre", "state": "", "country": "BR", "coord": {"lon": -36.35083, "lat": -9.78194}}, {"id": 3403642, "name": "Campina Grande", "state": "", "country": "BR", "coord": {"lon": -35.881111, "lat": -7.23056}}, {"id": 3403660, "name": "Campestre", "state": "", "country": "BR", "coord": {"lon": -35.568062, "lat": -8.84583}}, {"id": 3403685, "name": "Camocim de S\u00e3o F\u00e9lix", "state": "", "country": "BR", "coord": {"lon": -35.76194, "lat": -8.35861}}, {"id": 3403687, "name": "Camocim", "state": "", "country": "BR", "coord": {"lon": -40.84111, "lat": -2.90222}}, {"id": 3403697, "name": "Camet\u00e1", "state": "", "country": "BR", "coord": {"lon": -49.495831, "lat": -2.24444}}, {"id": 3403741, "name": "Camaragibe", "state": "", "country": "BR", "coord": {"lon": -34.98111, "lat": -8.02167}}, {"id": 3403941, "name": "Cajueiro", "state": "", "country": "BR", "coord": {"lon": -36.450001, "lat": -9.71667}}, {"id": 3404020, "name": "Cajazeiras", "state": "", "country": "BR", "coord": {"lon": -38.555279, "lat": -6.89028}}, {"id": 3404117, "name": "Caic\u00f3", "state": "", "country": "BR", "coord": {"lon": -37.097778, "lat": -6.45833}}, {"id": 3404231, "name": "Caet\u00e9s", "state": "", "country": "BR", "coord": {"lon": -36.622501, "lat": -8.77306}}, {"id": 3404257, "name": "Cacimbinhas", "state": "", "country": "BR", "coord": {"lon": -36.99028, "lat": -9.40028}}, {"id": 3404306, "name": "Cacimba de Dentro", "state": "", "country": "BR", "coord": {"lon": -35.790001, "lat": -6.64167}}, {"id": 3404355, "name": "Cachoeirinha", "state": "", "country": "BR", "coord": {"lon": -36.233059, "lat": -8.48639}}, {"id": 3404390, "name": "Cachoeira dos \u00c1ndios", "state": "", "country": "BR", "coord": {"lon": -38.674171, "lat": -6.92694}}, {"id": 3404394, "name": "Cachoeira do Arari", "state": "", "country": "BR", "coord": {"lon": -48.963329, "lat": -1.01139}}, {"id": 3404478, "name": "Cachimbo", "state": "", "country": "BR", "coord": {"lon": -54.900002, "lat": -8.95}}, {"id": 3404513, "name": "Cabrob\u00f3", "state": "", "country": "BR", "coord": {"lon": -39.310001, "lat": -8.51417}}, {"id": 3404545, "name": "Cabo", "state": "", "country": "BR", "coord": {"lon": -35.033329, "lat": -8.28333}}, {"id": 3404558, "name": "Cabedelo", "state": "", "country": "BR", "coord": {"lon": -34.833889, "lat": -6.98111}}, {"id": 3404656, "name": "Caapor\u00e3", "state": "", "country": "BR", "coord": {"lon": -34.908329, "lat": -7.51556}}, {"id": 3404713, "name": "Buriti dos Lopes", "state": "", "country": "BR", "coord": {"lon": -41.86694, "lat": -3.175}}, {"id": 3404722, "name": "Buriti Bravo", "state": "", "country": "BR", "coord": {"lon": -43.833611, "lat": -5.83722}}, {"id": 3404760, "name": "Bujaru", "state": "", "country": "BR", "coord": {"lon": -48.04472, "lat": -1.515}}, {"id": 3404766, "name": "Bu\u00edque", "state": "", "country": "BR", "coord": {"lon": -37.15583, "lat": -8.62306}}, {"id": 3404817, "name": "Breves", "state": "", "country": "BR", "coord": {"lon": -50.480282, "lat": -1.68222}}, {"id": 3404833, "name": "Brejo Santo", "state": "", "country": "BR", "coord": {"lon": -38.987221, "lat": -7.49333}}, {"id": 3404862, "name": "Brejo da Madre de Deus", "state": "", "country": "BR", "coord": {"lon": -36.371109, "lat": -8.14583}}, {"id": 3404889, "name": "Brejo", "state": "", "country": "BR", "coord": {"lon": -42.750278, "lat": -3.68444}}, {"id": 3404921, "name": "Brejinho", "state": "", "country": "BR", "coord": {"lon": -48.049999, "lat": -7.11667}}, {"id": 3404924, "name": "Brejinho", "state": "", "country": "BR", "coord": {"lon": -35.35667, "lat": -6.19083}}, {"id": 3404950, "name": "Breja", "state": "", "country": "BR", "coord": {"lon": -38.933331, "lat": -4.25}}, {"id": 3405006, "name": "Bragan\u00e7a", "state": "", "country": "BR", "coord": {"lon": -46.76556, "lat": -1.05361}}, {"id": 3405051, "name": "Borba", "state": "", "country": "BR", "coord": {"lon": -59.593891, "lat": -4.38778}}, {"id": 3405061, "name": "Boqueir\u00e3o", "state": "", "country": "BR", "coord": {"lon": -36.133331, "lat": -7.5}}, {"id": 3405162, "name": "Bonito de Santa F\u00e9", "state": "", "country": "BR", "coord": {"lon": -38.514999, "lat": -7.31333}}, {"id": 3405172, "name": "Bonito", "state": "", "country": "BR", "coord": {"lon": -35.728611, "lat": -8.47028}}, {"id": 3405215, "name": "Bonfim", "state": "", "country": "BR", "coord": {"lon": -59.950001, "lat": 3.08333}}, {"id": 3405304, "name": "Bom Jesus", "state": "", "country": "BR", "coord": {"lon": -44.358608, "lat": -9.07444}}, {"id": 3405318, "name": "Bom Jesus", "state": "", "country": "BR", "coord": {"lon": -47.933331, "lat": -5.65}}, {"id": 3405339, "name": "Bom Jardim", "state": "", "country": "BR", "coord": {"lon": -35.587219, "lat": -7.79583}}, {"id": 3405341, "name": "Bom Jardim", "state": "", "country": "BR", "coord": {"lon": -46.48333, "lat": -7.01667}}, {"id": 3405380, "name": "Bom Conselho", "state": "", "country": "BR", "coord": {"lon": -36.679722, "lat": -9.16972}}, {"id": 3405547, "name": "Boa Vista", "state": "", "country": "BR", "coord": {"lon": -48.26667, "lat": -7.68333}}, {"id": 3405616, "name": "Boa Viagem", "state": "", "country": "BR", "coord": {"lon": -39.73222, "lat": -5.1275}}, {"id": 3405707, "name": "Boa \u00c1gua dos Leandros", "state": "", "country": "BR", "coord": {"lon": -37.883331, "lat": -6.18333}}, {"id": 3405738, "name": "Bezerros", "state": "", "country": "BR", "coord": {"lon": -35.79694, "lat": -8.23333}}, {"id": 3405764, "name": "Berra Bode", "state": "", "country": "BR", "coord": {"lon": -38.383331, "lat": -3.9}}, {"id": 3405778, "name": "Bequim\u00e3o", "state": "", "country": "BR", "coord": {"lon": -44.782501, "lat": -2.44889}}, {"id": 3405792, "name": "Benevides", "state": "", "country": "BR", "coord": {"lon": -48.24472, "lat": -1.36139}}, {"id": 3405796, "name": "Beneditinos", "state": "", "country": "BR", "coord": {"lon": -42.366669, "lat": -5.45}}, {"id": 3405806, "name": "Belterra", "state": "", "country": "BR", "coord": {"lon": -54.937222, "lat": -2.63639}}, {"id": 3405812, "name": "Belo Jardim", "state": "", "country": "BR", "coord": {"lon": -36.424171, "lat": -8.33556}}, {"id": 3405814, "name": "Belo Horizonte", "state": "", "country": "BR", "coord": {"lon": -36.333328, "lat": -9.8}}, {"id": 3405825, "name": "Belo Horizonte", "state": "", "country": "BR", "coord": {"lon": -52.866669, "lat": -5.3}}, {"id": 3405851, "name": "Bel\u00e9m do Brejo do Cruz", "state": "", "country": "BR", "coord": {"lon": -37.535831, "lat": -6.18861}}, {"id": 3405852, "name": "Bel\u00e9m de S\u00e3o Francisco", "state": "", "country": "BR", "coord": {"lon": -38.965832, "lat": -8.75389}}, {"id": 3405853, "name": "Bel\u00e9m de Maria", "state": "", "country": "BR", "coord": {"lon": -35.830002, "lat": -8.62556}},