[{"id": 3468014, "name": "Camaqu\u00e3", "state": "", "country": "BR", "coord": {"lon": -51.812222, "lat": -30.85111}}, {"id": 3468020, "name": "Camapu\u00e3", "state": "", "country": "BR", "coord": {"lon": -54.043892, "lat": -19.531389}}, {"id": 3468023, "name": "Camanducaia", "state": "", "country": "BR", "coord": {"lon": -46.144718, "lat": -22.75528}}, {"id": 3468025, "name": "Camamu", "state": "", "country": "BR", "coord": {"lon": -39.103889, "lat": -13.94472}}, {"id": 3468031, "name": "Cama\u00e7ari", "state": "", "country": "BR", "coord": {"lon": -38.324169, "lat": -12.6975}}, {"id": 3468033, "name": "Cama\u00e7ari", "state": "", "country": "BR", "coord": {"lon": -38.216671, "lat": -12.48333}}, {"id": 3468072, "name": "Caldeir\u00e3o Grande", "state": "", "country": "BR", "coord": {"lon": -40.30278, "lat": -11.02}}, {"id": 3468100, "name": "Caldas Novas", "state": "", "country": "BR", "coord": {"lon": -48.625, "lat": -17.741671}}, {"id": 3468121, "name": "Cajuru", "state": "", "country": "BR", "coord": {"lon": -47.304169, "lat": -21.27528}}, {"id": 3468123, "name": "Cajuri", "state": "", "country": "BR", "coord": {"lon": -42.796669, "lat": -20.79056}}, {"id": 3468147, "name": "Cajobi", "state": "", "country": "BR", "coord": {"lon": -48.809441, "lat": -20.879721}}, {"id": 3468157, "name": "Cajati", "state": "", "country": "BR", "coord": {"lon": -48.12278, "lat": -24.736111}}, {"id": 3468158, "name": "Cajamar", "state": "", "country": "BR", "coord": {"lon": -46.876942, "lat": -23.35611}}, {"id": 3468186, "name": "Caiu\u00e1", "state": "", "country": "BR", "coord": {"lon": -51.998329, "lat": -21.831671}}, {"id": 3468215, "name": "Caieiras", "state": "", "country": "BR", "coord": {"lon": -46.740559, "lat": -23.36417}}, {"id": 3468232, "name": "Caibat\u00e9", "state": "", "country": "BR", "coord": {"lon": -54.638329, "lat": -28.287781}}, {"id": 3468234, "name": "Caiap\u00f4nia", "state": "", "country": "BR", "coord": {"lon": -51.81028, "lat": -16.956671}}, {"id": 3468250, "name": "Caiabu", "state": "", "country": "BR", "coord": {"lon": -51.235561, "lat": -22.01222}}, {"id": 3468296, "name": "Cafel\u00e2ndia", "state": "", "country": "BR", "coord": {"lon": -49.610001, "lat": -21.8025}}, {"id": 3468299, "name": "Cafeara", "state": "", "country": "BR", "coord": {"lon": -51.71611, "lat": -22.7925}}, {"id": 3468314, "name": "Cafarnaum", "state": "", "country": "BR", "coord": {"lon": -41.46833, "lat": -11.69361}}, {"id": 3468317, "name": "Caetit\u00e9", "state": "", "country": "BR", "coord": {"lon": -42.474998, "lat": -14.06944}}, {"id": 3468327, "name": "Caet\u00e9", "state": "", "country": "BR", "coord": {"lon": -43.66972, "lat": -19.879999}}, {"id": 3468329, "name": "Caetan\u00f3polis", "state": "", "country": "BR", "coord": {"lon": -44.41861, "lat": -19.29528}}, {"id": 3468349, "name": "Cacul\u00e9", "state": "", "country": "BR", "coord": {"lon": -42.222221, "lat": -14.50333}}, {"id": 3468352, "name": "Ca\u00e7u", "state": "", "country": "BR", "coord": {"lon": -51.130829, "lat": -18.556669}}, {"id": 3468353, "name": "Caconde", "state": "", "country": "BR", "coord": {"lon": -46.64389, "lat": -21.52944}}, {"id": 3468376, "name": "Cachoeiro de Itapemirim", "state": "", "country": "BR", "coord": {"lon": -41.112782, "lat": -20.84889}}, {"id": 3468403, "name": "Cachoeirinha", "state": "", "country": "BR", "coord": {"lon": -51.093891, "lat": -29.951111}}, {"id": 3468422, "name": "Cachoeirinha", "state": "", "country": "BR", "coord": {"lon": -38.966671, "lat": -12.65}}, {"id": 3468425, "name": "Cachoeiras de Macacu", "state": "", "country": "BR", "coord": {"lon": -42.653061, "lat": -22.4625}}, {"id": 3468428, "name": "Cachoeira Paulista", "state": "", "country": "BR", "coord": {"lon": -45.009441, "lat": -22.665001}}, {"id": 3468435, "name": "Cachoeira Dourada", "state": "", "country": "BR", "coord": {"lon": -49.501389, "lat": -18.514999}}, {"id": 3468436, "name": "Cachoeira do Sul", "state": "", "country": "BR", "coord": {"lon": -52.89389, "lat": -30.039169}}, {"id": 3468445, "name": "Cachoeira de Minas", "state": "", "country": "BR", "coord": {"lon": -45.778889, "lat": -22.355}}, {"id": 3468453, "name": "Cachoeira Alta", "state": "", "country": "BR", "coord": {"lon": -50.941669, "lat": -18.76333}}, {"id": 3468504, "name": "Cachoeira", "state": "", "country": "BR", "coord": {"lon": -49.26667, "lat": -25.33333}}, {"id": 3468529, "name": "Cachoeira", "state": "", "country": "BR", "coord": {"lon": -39.5, "lat": -13.75}}, {"id": 3468535, "name": "Cachoeira", "state": "", "country": "BR", "coord": {"lon": -38.95583, "lat": -12.61833}}, {"id": 3468551, "name": "C\u00e1ceres", "state": "", "country": "BR", "coord": {"lon": -57.67889, "lat": -16.07056}}, {"id": 3468553, "name": "Cacequi", "state": "", "country": "BR", "coord": {"lon": -54.825001, "lat": -29.88361}}, {"id": 3468560, "name": "Ca\u00e7apava do Sul", "state": "", "country": "BR", "coord": {"lon": -53.49139, "lat": -30.51222}}, {"id": 3468562, "name": "Ca\u00e7apava", "state": "", "country": "BR", "coord": {"lon": -45.70694, "lat": -23.10083}}, {"id": 3468570, "name": "Ca\u00e7ador", "state": "", "country": "BR", "coord": {"lon": -51.014999, "lat": -26.77528}}, {"id": 3468592, "name": "Cabre\u00fava", "state": "", "country": "BR", "coord": {"lon": -47.132778, "lat": -23.307501}}, {"id": 3468600, "name": "Cabr\u00e1lia Paulista", "state": "", "country": "BR", "coord": {"lon": -49.337502, "lat": -22.455561}}, {"id": 3468615, "name": "Cabo Frio", "state": "", "country": "BR", "coord": {"lon": -42.018608, "lat": -22.87944}}, {"id": 3468641, "name": "Cabeceiras", "state": "", "country": "BR", "coord": {"lon": -46.92667, "lat": -15.80056}}, {"id": 3468689, "name": "Caatiba", "state": "", "country": "BR", "coord": {"lon": -40.407501, "lat": -14.97667}}, {"id": 3468704, "name": "Buti\u00e1", "state": "", "country": "BR", "coord": {"lon": -51.962219, "lat": -30.11972}}, {"id": 3468720, "name": "Buritizeiro", "state": "", "country": "BR", "coord": {"lon": -44.962219, "lat": -17.35111}}, {"id": 3468732, "name": "Buritis", "state": "", "country": "BR", "coord": {"lon": -46.423328, "lat": -15.61778}}, {"id": 3468734, "name": "Buritirama", "state": "", "country": "BR", "coord": {"lon": -43.630562, "lat": -10.70778}}, {"id": 3468745, "name": "Buriti Alegre", "state": "", "country": "BR", "coord": {"lon": -49.040279, "lat": -18.139999}}, {"id": 3468789, "name": "Buritama", "state": "", "country": "BR", "coord": {"lon": -50.147221, "lat": -21.066111}}, {"id": 3468802, "name": "Buri", "state": "", "country": "BR", "coord": {"lon": -48.592781, "lat": -23.797501}}, {"id": 3468803, "name": "Buri", "state": "", "country": "BR", "coord": {"lon": -38.26667, "lat": -12.51667}}, {"id": 3468823, "name": "Boquim", "state": "", "country": "BR", "coord": {"lon": -37.62056, "lat": -11.14694}}, {"id": 3468858, "name": "Buerarema", "state": "", "country": "BR", "coord": {"lon": -39.299721, "lat": -14.95944}}, {"id": 3468865, "name": "Buenol\u00e2ndia", "state": "", "country": "BR", "coord": {"lon": -50.308609, "lat": -15.805}}, {"id": 3468869, "name": "Bueno Brand\u00e3o", "state": "", "country": "BR", "coord": {"lon": -46.35083, "lat": -22.44083}}, {"id": 3468879, "name": "Brusque", "state": "", "country": "BR", "coord": {"lon": -48.9175, "lat": -27.098061}}, {"id": 3468893, "name": "Brumado", "state": "", "country": "BR", "coord": {"lon": -41.665279, "lat": -14.20361}}, {"id": 3468894, "name": "Brumadinho", "state": "", "country": "BR", "coord": {"lon": -44.199718, "lat": -20.14333}}, {"id": 3468899, "name": "Brotas", "state": "", "country": "BR", "coord": {"lon": -48.126671, "lat": -22.28417}}, {"id": 3468902, "name": "Brod\u00f3squi", "state": "", "country": "BR", "coord": {"lon": -47.658611, "lat": -20.99139}}, {"id": 3468904, "name": "Brochier", "state": "", "country": "BR", "coord": {"lon": -51.586109, "lat": -29.54528}}, {"id": 3468908, "name": "Brit\u00e2nia", "state": "", "country": "BR", "coord": {"lon": -51.160561, "lat": -15.24111}}, {"id": 3468928, "name": "Brejo S\u00eaco", "state": "", "country": "BR", "coord": {"lon": -48.299999, "lat": -10.16667}}, {"id": 3468966, "name": "Brejo Alegre", "state": "", "country": "BR", "coord": {"lon": -50.18528, "lat": -21.166389}}, {"id": 3468991, "name": "Brejetuba", "state": "", "country": "BR", "coord": {"lon": -41.290279, "lat": -20.146111}}, {"id": 3469033, "name": "Bras\u00f3polis", "state": "", "country": "BR", "coord": {"lon": -45.607498, "lat": -22.47361}}, {"id": 3469034, "name": "Federative Republic of Brazil", "state": "", "country": "BR", "coord": {"lon": -55.0, "lat": -10.0}}, {"id": 3469057, "name": "Bras\u00edlia de Minas", "state": "", "country": "BR", "coord": {"lon": -44.433331, "lat": -16.20639}}, {"id": 3469058, "name": "Bras\u00edlia", "state": "", "country": "BR", "coord": {"lon": -47.929722, "lat": -15.77972}}, {"id": 3469065, "name": "Brazabrantes", "state": "", "country": "BR", "coord": {"lon": -49.389172, "lat": -16.430559}}, {"id": 3469092, "name": "Bragan\u00e7a Paulista", "state": "", "country": "BR", "coord": {"lon": -46.541939, "lat": -22.951941}}, {"id": 3469115, "name": "Bra\u00e7o do Norte", "state": "", "country": "BR", "coord": {"lon": -49.165562, "lat": -28.275}}, {"id": 3469128, "name": "Botuver\u00e1", "state": "", "country": "BR", "coord": {"lon": -49.074718, "lat": -27.19944}}, {"id": 3469132, "name": "Botumirim", "state": "", "country": "BR", "coord": {"lon": -43.01083, "lat": -16.872219}}, {"id": 3469136, "name": "Botucatu", "state": "", "country": "BR", "coord": {"lon": -48.445, "lat": -22.88583}}, {"id": 3469140, "name": "Botelhos", "state": "", "country": "BR", "coord": {"lon": -46.395, "lat": -21.633329}}, {"id": 3469149, "name": "Bossoroca", "state": "", "country": "BR", "coord": {"lon": -54.90028, "lat": -28.73}}, {"id": 3469154, "name": "Borraz\u00f3polis", "state": "", "country": "BR", "coord": {"lon": -51.587502, "lat": -23.941111}}, {"id": 3469166, "name": "Borebi", "state": "", "country": "BR", "coord": {"lon": -48.971111, "lat": -22.569441}}, {"id": 3469169, "name": "Borda da Mata", "state": "", "country": "BR", "coord": {"lon": -46.165279, "lat": -22.27417}}, {"id": 3469173, "name": "Borborema", "state": "", "country": "BR", "coord": {"lon": -49.073608, "lat": -21.61972}}, {"id": 3469181, "name": "Borac\u00e9ia", "state": "", "country": "BR", "coord": {"lon": -48.778889, "lat": -22.19306}}, {"id": 3469189, "name": "Bor\u00e1", "state": "", "country": "BR", "coord": {"lon": -50.534439, "lat": -22.26972}}, {"id": 3469190, "name": "Boquira", "state": "", "country": "BR", "coord": {"lon": -42.73056, "lat": -12.82306}}, {"id": 3469194, "name": "Boqueir\u00e3o do Le\u00e3o", "state": "", "country": "BR", "coord": {"lon": -52.42944, "lat": -29.30389}}, {"id": 3469294, "name": "Bonito", "state": "", "country": "BR", "coord": {"lon": -56.481941, "lat": -21.121111}}, {"id": 3469311, "name": "Bonfin\u00f3polis", "state": "", "country": "BR", "coord": {"lon": -48.963329, "lat": -16.617781}}, {"id": 3469367, "name": "Bom Sucesso", "state": "", "country": "BR", "coord": {"lon": -51.764439, "lat": -23.709721}}, {"id": 3469374, "name": "Bom Sucesso", "state": "", "country": "BR", "coord": {"lon": -44.75806, "lat": -21.03306}}, {"id": 3469385, "name": "Bom Sucesso", "state": "", "country": "BR", "coord": {"lon": -47.633331, "lat": -15.51667}}, {"id": 3469391, "name": "Bom Retiro do Sul", "state": "", "country": "BR", "coord": {"lon": -51.943062, "lat": -29.608891}}, {"id": 3469414, "name": "Bom Repouso", "state": "", "country": "BR", "coord": {"lon": -46.145, "lat": -22.471109}}, {"id": 3469421, "name": "Bom Jesus dos Perd\u00f5es", "state": "", "country": "BR", "coord": {"lon": -46.465279, "lat": -23.135}}, {"id": 3469422, "name": "Bom Jesus do Norte", "state": "", "country": "BR", "coord": {"lon": -41.67667, "lat": -21.132219}}, {"id": 3469425, "name": "Bom Jesus do Itabapoana", "state": "", "country": "BR", "coord": {"lon": -41.679722, "lat": -21.13389}}, {"id": 3469426, "name": "Bom Jesus do Galho", "state": "", "country": "BR", "coord": {"lon": -42.316109, "lat": -19.82889}}, {"id": 3469430, "name": "Bom Jesus do Amparo", "state": "", "country": "BR", "coord": {"lon": -43.47361, "lat": -19.703609}}, {"id": 3469435, "name": "Bom Jesus da Penha", "state": "", "country": "BR", "coord": {"lon": -46.522499, "lat": -21.016939}}, {"id": 3469437, "name": "Bom Jesus da Lapa", "state": "", "country": "BR", "coord": {"lon": -43.41806, "lat": -13.255}}, {"id": 3469455, "name": "Bom Jardim de Minas", "state": "", "country": "BR", "coord": {"lon": -44.191109, "lat": -21.94722}}, {"id": 3469459, "name": "Bom Jardim da Serra", "state": "", "country": "BR", "coord": {"lon": -49.624722, "lat": -28.336941}}, {"id": 3469481, "name": "Bom Jardim", "state": "", "country": "BR", "coord": {"lon": -42.419441, "lat": -22.151939}}, {"id": 3469516, "name": "Bom Despacho", "state": "", "country": "BR", "coord": {"lon": -45.25222, "lat": -19.736389}}, {"id": 3469522, "name": "Bombas", "state": "", "country": "BR", "coord": {"lon": -48.509441, "lat": -27.14222}}, {"id": 3469540, "name": "Boituva", "state": "", "country": "BR", "coord": {"lon": -47.672218, "lat": -23.283331}}, {"id": 3469587, "name": "Bofete", "state": "", "country": "BR", "coord": {"lon": -48.257778, "lat": -23.102221}}, {"id": 3469598, "name": "Bocai\u00fava do Sul", "state": "", "country": "BR", "coord": {"lon": -49.115002, "lat": -25.20611}}, {"id": 3469601, "name": "Bocai\u00fava", "state": "", "country": "BR", "coord": {"lon": -43.814999, "lat": -17.10778}}, {"id": 3469745, "name": "Boa Vista", "state": "", "country": "BR", "coord": {"lon": -41.099998, "lat": -22.033331}}, {"id": 3469860, "name": "Boa Vargem Grande", "state": "", "country": "BR", "coord": {"lon": -47.066669, "lat": -23.35}}, {"id": 3469910, "name": "Boa Esperan\u00e7a do Sul", "state": "", "country": "BR", "coord": {"lon": -48.390831, "lat": -21.9925}}, {"id": 3469932, "name": "Boa Esperan\u00e7a", "state": "", "country": "BR", "coord": {"lon": -45.56583, "lat": -21.09}}, {"id": 3469942, "name": "Boa Esperan\u00e7a", "state": "", "country": "BR", "coord": {"lon": -40.29583, "lat": -18.540001}}, {"id": 3469968, "name": "Blumenau", "state": "", "country": "BR", "coord": {"lon": -49.066109, "lat": -26.919439}}, {"id": 3469974, "name": "Bituruna", "state": "", "country": "BR", "coord": {"lon": -51.552502, "lat": -26.16139}}, {"id": 3469983, "name": "Biritinga", "state": "", "country": "BR", "coord": {"lon": -38.799999, "lat": -11.61667}}, {"id": 3469984, "name": "Biritiba Mirim", "state": "", "country": "BR", "coord": {"lon": -46.038609, "lat": -23.5725}}, {"id": 3469989, "name": "Birigui", "state": "", "country": "BR", "coord": {"lon": -50.34, "lat": -21.28861}}, {"id": 3469994, "name": "Biquinhas", "state": "", "country": "BR", "coord": {"lon": -45.50222, "lat": -18.78278}}, {"id": 3469998, "name": "Bilac", "state": "", "country": "BR", "coord": {"lon": -50.470558, "lat": -21.40333}}, {"id": 3470003, "name": "Bigua\u00e7u", "state": "", "country": "BR", "coord": {"lon": -48.65556, "lat": -27.494169}}, {"id": 3470012, "name": "Bicu\u00edba", "state": "", "country": "BR", "coord": {"lon": -42.35556, "lat": -20.086109}}, {"id": 3470025, "name": "Bicas", "state": "", "country": "BR", "coord": {"lon": -43.059441, "lat": -21.725281}}, {"id": 3470034, "name": "Bias Fortes", "state": "", "country": "BR", "coord": {"lon": -43.756939, "lat": -21.60611}}, {"id": 3470044, "name": "Betim", "state": "", "country": "BR", "coord": {"lon": -44.19833, "lat": -19.967779}}, {"id": 3470052, "name": "Bertioga", "state": "", "country": "BR", "coord": {"lon": -46.138611, "lat": -23.854441}}, {"id": 3470059, "name": "Bernardino de Campos", "state": "", "country": "BR", "coord": {"lon": -49.474171, "lat": -23.01306}}, {"id": 3470065, "name": "Berilo", "state": "", "country": "BR", "coord": {"lon": -42.465561, "lat": -16.95167}}, {"id": 3470073, "name": "Bento Gon\u00e7alves", "state": "", "country": "BR", "coord": {"lon": -51.519169, "lat": -29.171391}}, {"id": 3470075, "name": "Bento de Abreu", "state": "", "country": "BR", "coord": {"lon": -50.811939, "lat": -21.270559}}, {"id": 3470099, "name": "Benedito Novo", "state": "", "country": "BR", "coord": {"lon": -49.364441, "lat": -26.78278}}, {"id": 3470116, "name": "Belo Vale", "state": "", "country": "BR", "coord": {"lon": -44.024441, "lat": -20.40778}}, {"id": 3470117, "name": "Belo Oriente", "state": "", "country": "BR", "coord": {"lon": -42.483608, "lat": -19.219999}}, {"id": 3470127, "name": "Belo Horizonte", "state": "", "country": "BR", "coord": {"lon": -43.937778, "lat": -19.92083}}, {"id": 3470137, "name": "Belmonte", "state": "", "country": "BR", "coord": {"lon": -38.882778, "lat": -15.86306}}, {"id": 3470142, "name": "Belford Roxo", "state": "", "country": "BR", "coord": {"lon": -43.399441, "lat": -22.76417}}, {"id": 3470154, "name": "Bel\u00e9m", "state": "", "country": "BR", "coord": {"lon": -51.73333, "lat": -23.433331}}, {"id": 3470160, "name": "Bela Vista do Toldo", "state": "", "country": "BR", "coord": {"lon": -50.464439, "lat": -26.273331}}, {"id": 3470162, "name": "Bela Vista do Para\u00edso", "state": "", "country": "BR", "coord": {"lon": -51.190559, "lat": -22.99667}}, {"id": 3470164, "name": "Bela Vista de Goi\u00e1s", "state": "", "country": "BR", "coord": {"lon": -48.953331, "lat": -16.97278}}, {"id": 3470177, "name": "Bela Vista", "state": "", "country": "BR", "coord": {"lon": -56.521111, "lat": -22.108891}}, {"id": 3470264, "name": "Bebedouro", "state": "", "country": "BR", "coord": {"lon": -48.479172, "lat": -20.94944}}, {"id": 3470279, "name": "Bauru", "state": "", "country": "BR", "coord": {"lon": -49.060558, "lat": -22.31472}}, {"id": 3470324, "name": "Batatais", "state": "", "country": "BR", "coord": {"lon": -47.584999, "lat": -20.891109}}, {"id": 3470338, "name": "Bataipor\u00e3", "state": "", "country": "BR", "coord": {"lon": -53.271111, "lat": -22.29528}}, {"id": 3470341, "name": "Bastos", "state": "", "country": "BR", "coord": {"lon": -50.733891, "lat": -21.92194}}, {"id": 3470353, "name": "Barueri", "state": "", "country": "BR", "coord": {"lon": -46.87611, "lat": -23.510559}}, {"id": 3470369, "name": "Barroso", "state": "", "country": "BR", "coord": {"lon": -43.97583, "lat": -21.186939}}, {"id": 3470380, "name": "Barro Pr\u00eato", "state": "", "country": "BR", "coord": {"lon": -49.166672, "lat": -25.549999}}, {"id": 3470390, "name": "Barrocas", "state": "", "country": "BR", "coord": {"lon": -39.076389, "lat": -11.52833}}, {"id": 3470409, "name": "Barro Alto", "state": "", "country": "BR", "coord": {"lon": -48.915829, "lat": -14.97083}}, {"id": 3470410, "name": "Barro Alto", "state": "", "country": "BR", "coord": {"lon": -41.911671, "lat": -11.76083}}, {"id": 3470428, "name": "Barrinha", "state": "", "country": "BR", "coord": {"lon": -48.163891, "lat": -21.193609}}, {"id": 3470450, "name": "Barriero", "state": "", "country": "BR", "coord": {"lon": -47.183331, "lat": -21.58333}}, {"id": 3470451, "name": "Barretos", "state": "", "country": "BR", "coord": {"lon": -48.56778, "lat": -20.55722}}, {"id": 3470470, "name": "Barreiro do Ja\u00edba", "state": "", "country": "BR", "coord": {"lon": -43.599998, "lat": -15.61667}}, {"id": 3470583, "name": "Barreiras", "state": "", "country": "BR", "coord": {"lon": -44.990002, "lat": -12.15278}}, {"id": 3470597, "name": "Barra Velha", "state": "", "country": "BR", "coord": {"lon": -48.684719, "lat": -26.632219}}, {"id": 3470636, "name": "Barra Mansa", "state": "", "country": "BR", "coord": {"lon": -44.171391, "lat": -22.54417}}, {"id": 3470639, "name": "Barra Longa", "state": "", "country": "BR", "coord": {"lon": -43.041111, "lat": -20.28278}}, {"id": 3470668, "name": "Barra Dourada", "state": "", "country": "BR", "coord": {"lon": -49.61639, "lat": -20.809441}}, {"id": 3470670, "name": "Barra do Trombudo", "state": "", "country": "BR", "coord": {"lon": -49.700001, "lat": -27.25}}, {"id": 3470674, "name": "Barra dos Coqueiros", "state": "", "country": "BR", "coord": {"lon": -37.038609, "lat": -10.90889}}, {"id": 3470684, "name": "Barra do Ribeiro", "state": "", "country": "BR", "coord": {"lon": -51.301109, "lat": -30.291109}}, {"id": 3470687, "name": "Barra do Quara\u00ed", "state": "", "country": "BR", "coord": {"lon": -57.554722, "lat": -30.20722}}, {"id": 3470691, "name": "Barra do Pira\u00ed", "state": "", "country": "BR", "coord": {"lon": -43.825562, "lat": -22.469999}}, {"id": 3470703, "name": "Barra do Jacar\u00e9", "state": "", "country": "BR", "coord": {"lon": -50.181389, "lat": -23.115}}, {"id": 3470709, "name": "Barra do Gar\u00e7as", "state": "", "country": "BR", "coord": {"lon": -52.256672, "lat": -15.89}}, {"id": 3470715, "name": "Barra do Chap\u00e9u", "state": "", "country": "BR", "coord": {"lon": -49.024441, "lat": -24.473061}}, {"id": 3470718, "name": "Barra do Bugres", "state": "", "country": "BR", "coord": {"lon": -57.18111, "lat": -15.0725}}, {"id": 3470730, "name": "Barra de S\u00e3o Francisco", "state": "", "country": "BR", "coord": {"lon": -40.890831, "lat": -18.754999}}, {"id": 3470744, "name": "Barra da Estiva", "state": "", "country": "BR", "coord": {"lon": -41.326939, "lat": -13.62611}}, {"id": 3470776, "name": "Barra Bonita", "state": "", "country": "BR", "coord": {"lon": -48.55806, "lat": -22.49472}}, {"id": 3470800, "name": "Barra", "state": "", "country": "BR", "coord": {"lon": -41.76667, "lat": -22.35}}, {"id": 3470819, "name": "Barra", "state": "", "country": "BR", "coord": {"lon": -37.166672, "lat": -11.15}}, {"id": 3470821, "name": "Barra", "state": "", "country": "BR", "coord": {"lon": -43.14167, "lat": -11.08944}}, {"id": 3470825, "name": "Bariri", "state": "", "country": "BR", "coord": {"lon": -48.74028, "lat": -22.07444}}, {"id": 3470837, "name": "Barbosa Ferraz", "state": "", "country": "BR", "coord": {"lon": -52.011669, "lat": -24.030001}}, {"id": 3470858, "name": "Barbacena", "state": "", "country": "BR", "coord": {"lon": -43.773609, "lat": -21.22583}}, {"id": 3470868, "name": "Bar\u00e3o do Triunfo", "state": "", "country": "BR", "coord": {"lon": -51.733608, "lat": -30.38833}}, {"id": 3470871, "name": "Bar\u00e3o de Melga\u00e7o", "state": "", "country": "BR", "coord": {"lon": -55.967499, "lat": -16.194441}}, {"id": 3470877, "name": "Bar\u00e3o de Cotegipe", "state": "", "country": "BR", "coord": {"lon": -52.379719, "lat": -27.620831}}, {"id": 3470878, "name": "Bar\u00e3o de Cocais", "state": "", "country": "BR", "coord": {"lon": -43.487221, "lat": -19.945829}}, {"id": 3470912, "name": "Bandeirantes", "state": "", "country": "BR", "coord": {"lon": -50.3675, "lat": -23.110001}}, {"id": 3470921, "name": "Bandeira do Colnia", "state": "", "country": "BR", "coord": {"lon": -40.073891, "lat": -15.12333}}, {"id": 3470937, "name": "Bandeira", "state": "", "country": "BR", "coord": {"lon": -40.559441, "lat": -15.88472}}, {"id": 3470992, "name": "Bananal", "state": "", "country": "BR", "coord": {"lon": -44.32333, "lat": -22.683611}}, {"id": 3470999, "name": "Bananal", "state": "", "country": "BR", "coord": {"lon": -42.25, "lat": -18.450001}}, {"id": 3471005, "name": "Bambu\u00ed", "state": "", "country": "BR", "coord": {"lon": -45.97694, "lat": -20.00639}}, {"id": 3471012, "name": "Balsa Nova", "state": "", "country": "BR", "coord": {"lon": -49.635559, "lat": -25.583891}}, {"id": 3471039, "name": "Balne\u00e1rio Cambori\u00fa", "state": "", "country": "BR", "coord": {"lon": -48.63472, "lat": -26.990561}}, {"id": 3471049, "name": "Balbinos", "state": "", "country": "BR", "coord": {"lon": -49.35667, "lat": -21.899719}}, {"id": 3471061, "name": "Baixo Guandu", "state": "", "country": "BR", "coord": {"lon": -41.015831, "lat": -19.51889}}, {"id": 3471094, "name": "Baixa Grande", "state": "", "country": "BR", "coord": {"lon": -40.16806, "lat": -11.95972}}, {"id": 3471168, "name": "Bahia", "state": "", "country": "BR", "coord": {"lon": -42.0, "lat": -12.0}}, {"id": 3471196, "name": "Bag\u00e9", "state": "", "country": "BR", "coord": {"lon": -54.106941, "lat": -31.33139}}, {"id": 3471208, "name": "Baependi", "state": "", "country": "BR", "coord": {"lon": -44.889999, "lat": -21.958891}}, {"id": 3471210, "name": "Bady Bassitt", "state": "", "country": "BR", "coord": {"lon": -49.445278, "lat": -20.91806}}, {"id": 3471286, "name": "Avelin\u00f3polis", "state": "", "country": "BR", "coord": {"lon": -49.757778, "lat": -16.46583}}, {"id": 3471291, "name": "Avar\u00e9", "state": "", "country": "BR", "coord": {"lon": -48.925831, "lat": -23.09861}}, {"id": 3471296, "name": "Avanhandava", "state": "", "country": "BR", "coord": {"lon": -49.949718, "lat": -21.460831}}, {"id": 3471299, "name": "Ava\u00ed", "state": "", "country": "BR", "coord": {"lon": -49.333061, "lat": -22.146669}}, {"id": 3471308, "name": "Auril\u00e2ndia", "state": "", "country": "BR", "coord": {"lon": -50.464722, "lat": -16.681669}}, {"id": 3471309, "name": "Auriflama", "state": "", "country": "BR", "coord": {"lon": -50.554722, "lat": -20.68556}}, {"id": 3471312, "name": "\u00e1urea", "state": "", "country": "BR", "coord": {"lon": -52.049438, "lat": -27.69722}}, {"id": 3471324, "name": "Atuba", "state": "", "country": "BR", "coord": {"lon": -49.23333, "lat": -25.433331}}, {"id": 3471335, "name": "Atibaia", "state": "", "country": "BR", "coord": {"lon": -46.550282, "lat": -23.11694}}, {"id": 3471354, "name": "Atal\u00e9ia", "state": "", "country": "BR", "coord": {"lon": -41.110001, "lat": -18.04361}}, {"id": 3471355, "name": "Atalaia Velha", "state": "", "country": "BR", "coord": {"lon": -37.066669, "lat": -10.96667}}, {"id": 3471368, "name": "Astorga", "state": "", "country": "BR", "coord": {"lon": -51.665562, "lat": -23.2325}}, {"id": 3471369, "name": "Astolfo Dutra", "state": "", "country": "BR", "coord": {"lon": -42.862221, "lat": -21.315281}}, {"id": 3471374, "name": "Assis", "state": "", "country": "BR", "coord": {"lon": -50.41222, "lat": -22.661671}}, {"id": 3471377, "name": "Assa\u00ed", "state": "", "country": "BR", "coord": {"lon": -50.841389, "lat": -23.373329}}, {"id": 3471381, "name": "Ascurra", "state": "", "country": "BR", "coord": {"lon": -49.375561, "lat": -26.95528}}, {"id": 3471383, "name": "Arvorezinha", "state": "", "country": "BR", "coord": {"lon": -52.175282, "lat": -28.872219}}, {"id": 3471393, "name": "Aruj\u00e1", "state": "", "country": "BR", "coord": {"lon": -46.320831, "lat": -23.396111}}, {"id": 3471394, "name": "Aruan\u00e3", "state": "", "country": "BR", "coord": {"lon": -51.083061, "lat": -14.92028}}, {"id": 3471395, "name": "Artur Nogueira", "state": "", "country": "BR", "coord": {"lon": -47.172501, "lat": -22.573059}}, {"id": 3471419, "name": "Arroio Miranda", "state": "", "country": "BR", "coord": {"lon": -52.366669, "lat": -28.200001}}, {"id": 3471422, "name": "Arroio Grande", "state": "", "country": "BR", "coord": {"lon": -53.086941, "lat": -32.237499}}, {"id": 3471424, "name": "Arroio do Tigre", "state": "", "country": "BR", "coord": {"lon": -53.09333, "lat": -29.332781}}, {"id": 3471425, "name": "Arroio dos Ratos", "state": "", "country": "BR", "coord": {"lon": -51.729172, "lat": -30.077221}}, {"id": 3471428, "name": "Arroio do Meio", "state": "", "country": "BR", "coord": {"lon": -51.945, "lat": -29.40111}}, {"id": 3471451, "name": "Arraial do Cabo", "state": "", "country": "BR", "coord": {"lon": -42.027779, "lat": -22.96611}}, {"id": 3471485, "name": "Armaz\u00e9m", "state": "", "country": "BR", "coord": {"lon": -49.017502, "lat": -28.26194}}, {"id": 3471487, "name": "Arma\u00e7\u00e3o de B\u00fazios", "state": "", "country": "BR", "coord": {"lon": -41.881672, "lat": -22.746941}}, {"id": 3471490, "name": "Arma\u00e7\u00e3o", "state": "", "country": "BR", "coord": {"lon": -48.50713, "lat": -27.74963}}, {"id": 3471520, "name": "Ariranha", "state": "", "country": "BR", "coord": {"lon": -48.786942, "lat": -21.18778}}, {"id": 3471522, "name": "Arinos", "state": "", "country": "BR", "coord": {"lon": -46.10556, "lat": -15.91694}}, {"id": 3471529, "name": "Aricanduva", "state": "", "country": "BR", "coord": {"lon": -42.556938, "lat": -17.86722}}, {"id": 3471544, "name": "Argirita", "state": "", "country": "BR", "coord": {"lon": -42.836109, "lat": -21.610001}}, {"id": 3471551, "name": "Aren\u00e1polis", "state": "", "country": "BR", "coord": {"lon": -56.846111, "lat": -14.45028}}, {"id": 3471553, "name": "Arei\u00f3polis", "state": "", "country": "BR", "coord": {"lon": -48.665001, "lat": -22.66806}}, {"id": 3471609, "name": "Areia Branca", "state": "", "country": "BR", "coord": {"lon": -37.315281, "lat": -10.75778}}, {"id": 3471653, "name": "Aredo", "state": "", "country": "BR", "coord": {"lon": -41.466671, "lat": -16.26667}}, {"id": 3471659, "name": "Arealva", "state": "", "country": "BR", "coord": {"lon": -48.91111, "lat": -22.02861}}, {"id": 3471665, "name": "Areal", "state": "", "country": "BR", "coord": {"lon": -43.10556, "lat": -22.23056}}, {"id": 3471674, "name": "Areado", "state": "", "country": "BR", "coord": {"lon": -46.145561, "lat": -21.35861}}, {"id": 3471683, "name": "Arcos", "state": "", "country": "BR", "coord": {"lon": -45.53944, "lat": -20.28194}}, {"id": 3471684, "name": "Arco \u00cdris", "state": "", "country": "BR", "coord": {"lon": -50.465, "lat": -21.772499}}, {"id": 3471685, "name": "Arceburgo", "state": "", "country": "BR", "coord": {"lon": -46.939999, "lat": -21.36417}}, {"id": 3471691, "name": "Arax\u00e1", "state": "", "country": "BR", "coord": {"lon": -46.940559, "lat": -19.59333}}, {"id": 3471697, "name": "Arauc\u00e1ria", "state": "", "country": "BR", "coord": {"lon": -49.410278, "lat": -25.59306}}, {"id": 3471699, "name": "Arau\u00e1", "state": "", "country": "BR", "coord": {"lon": -37.61972, "lat": -11.26222}}, {"id": 3471701, "name": "Aratu\u00edpe", "state": "", "country": "BR", "coord": {"lon": -39.001671, "lat": -13.07889}}, {"id": 3471710, "name": "Aratiba", "state": "", "country": "BR", "coord": {"lon": -52.300282, "lat": -27.394171}}, {"id": 3471711, "name": "Arataca", "state": "", "country": "BR", "coord": {"lon": -39.41444, "lat": -15.26333}}, {"id": 3471712, "name": "Arasselva", "state": "", "country": "BR", "coord": {"lon": -54.816669, "lat": -22.0}}, {"id": 3471715, "name": "Araruama", "state": "", "country": "BR", "coord": {"lon": -42.34306, "lat": -22.87278}}, {"id": 3471718, "name": "Araric\u00e1", "state": "", "country": "BR", "coord": {"lon": -50.924999, "lat": -29.613609}}, {"id": 3471758, "name": "Araras", "state": "", "country": "BR", "coord": {"lon": -47.384171, "lat": -22.356939}}, {"id": 3471766, "name": "Araraquara", "state": "", "country": "BR", "coord": {"lon": -48.17556, "lat": -21.794439}}, {"id": 3471772, "name": "Ararangu\u00e1", "state": "", "country": "BR", "coord": {"lon": -49.485828, "lat": -28.934719}}, {"id": 3471794, "name": "Arapu\u00e1", "state": "", "country": "BR", "coord": {"lon": -46.15556, "lat": -19.03389}}, {"id": 3471796, "name": "Arapor\u00e3", "state": "", "country": "BR", "coord": {"lon": -49.185001, "lat": -18.43611}}, {"id": 3471798, "name": "Arapongas", "state": "", "country": "BR", "coord": {"lon": -51.424438, "lat": -23.419439}}, {"id": 3471801, "name": "Araponga", "state": "", "country": "BR", "coord": {"lon": -42.520828, "lat": -20.66667}}, {"id": 3471816, "name": "Arandu", "state": "", "country": "BR", "coord": {"lon": -49.05389, "lat": -23.134439}}, {"id": 3471819, "name": "Aramina", "state": "", "country": "BR", "coord": {"lon": -47.785831, "lat": -20.090281}}, {"id": 3471826, "name": "Aramari", "state": "", "country": "BR", "coord": {"lon": -38.499168, "lat": -12.08167}}, {"id": 3471830, "name": "Araguari", "state": "", "country": "BR", "coord": {"lon": -48.187222, "lat": -18.647221}}, {"id": 3471834, "name": "Araguaiana", "state": "", "country": "BR", "coord": {"lon": -51.83139, "lat": -15.73389}}, {"id": 3471837, "name": "Aragua\u00e7u", "state": "", "country": "BR", "coord": {"lon": -49.826389, "lat": -12.93056}}, {"id": 3471839, "name": "Aragoi\u00e2nia", "state": "", "country": "BR", "coord": {"lon": -49.451389, "lat": -16.91194}}, {"id": 3471840, "name": "Aragar\u00e7as", "state": "", "country": "BR", "coord": {"lon": -52.250832, "lat": -15.8975}}, {"id": 3471846, "name": "Ara\u00e7ua\u00ed", "state": "", "country": "BR", "coord": {"lon": -42.070278, "lat": -16.84972}}, {"id": 3471848, "name": "Aracruz", "state": "", "country": "BR", "coord": {"lon": -40.273331, "lat": -19.82028}}, {"id": 3471849, "name": "Ara\u00e7oiaba da Serra", "state": "", "country": "BR", "coord": {"lon": -47.61417, "lat": -23.50528}}, {"id": 3471854, "name": "Araci", "state": "", "country": "BR", "coord": {"lon": -38.966671, "lat": -11.33333}}, {"id": 3471859, "name": "Ara\u00e7atuba", "state": "", "country": "BR", "coord": {"lon": -50.432781, "lat": -21.208891}}, {"id": 3471868, "name": "Ara\u00e7ariguama", "state": "", "country": "BR", "coord": {"lon": -47.06139, "lat": -23.43861}}, {"id": 3471872, "name": "Aracaju", "state": "", "country": "BR", "coord": {"lon": -37.071671, "lat": -10.91111}}, {"id": 3471896, "name": "Aquidauana", "state": "", "country": "BR", "coord": {"lon": -55.78722, "lat": -20.471109}}, {"id": 3471902, "name": "Aquidab\u00e3", "state": "", "country": "BR", "coord": {"lon": -37.018608, "lat": -10.28139}}, {"id": 3471910, "name": "Apucarana", "state": "", "country": "BR", "coord": {"lon": -51.460831, "lat": -23.550831}}, {"id": 3471919, "name": "Api\u00fana", "state": "", "country": "BR", "coord": {"lon": -49.389721, "lat": -27.035561}}, {"id": 3471927, "name": "Apia\u00ed", "state": "", "country": "BR", "coord": {"lon": -48.842499, "lat": -24.509439}}, {"id": 3471936, "name": "Aperib\u00e9", "state": "", "country": "BR", "coord": {"lon": -42.102779, "lat": -21.620831}}, {"id": 3471940, "name": "Aparecida do Taboado", "state": "", "country": "BR", "coord": {"lon": -51.093609, "lat": -20.08667}}, {"id": 3471942, "name": "Aparecida d'Oeste", "state": "", "country": "BR", "coord": {"lon": -50.879719, "lat": -20.44944}}, {"id": 3471949, "name": "Aparecida", "state": "", "country": "BR", "coord": {"lon": -45.229721, "lat": -22.846939}}, {"id": 3471963, "name": "Antunes", "state": "", "country": "BR", "coord": {"lon": -44.698059, "lat": -19.91028}}, {"id": 3471981, "name": "Ant\u00f4nio Prado", "state": "", "country": "BR", "coord": {"lon": -51.28278, "lat": -28.85833}}, {"id": 3472048, "name": "Antonina", "state": "", "country": "BR", "coord": {"lon": -48.711941, "lat": -25.42861}}, {"id": 3472086, "name": "Antas", "state": "", "country": "BR", "coord": {"lon": -38.333328, "lat": -10.4}}, {"id": 3472128, "name": "Anit\u00e1polis", "state": "", "country": "BR", "coord": {"lon": -49.128609, "lat": -27.901939}}, {"id": 3472138, "name": "Anicuns", "state": "", "country": "BR", "coord": {"lon": -49.96167, "lat": -16.461109}}, {"id": 3472162, "name": "Anhembi", "state": "", "country": "BR", "coord": {"lon": -48.12722, "lat": -22.78944}}, {"id": 3472164, "name": "Anhanguera", "state": "", "country": "BR", "coord": {"lon": -48.21917, "lat": -18.337219}}, {"id": 3472172, "name": "\u00c2ngulo", "state": "", "country": "BR", "coord": {"lon": -51.915279, "lat": -23.194719}}, {"id": 3472177, "name": "Angra dos Reis", "state": "", "country": "BR", "coord": {"lon": -44.318062, "lat": -23.00667}}, {"id": 3472218, "name": "Angelina", "state": "", "country": "BR", "coord": {"lon": -48.985279, "lat": -27.568609}}, {"id": 3472234, "name": "Angatuba", "state": "", "country": "BR", "coord": {"lon": -48.412781, "lat": -23.489719}}, {"id": 3472245, "name": "Andrel\u00e2ndia", "state": "", "country": "BR", "coord": {"lon": -44.30917, "lat": -21.739719}}, {"id": 3472246, "name": "Andr\u00e9 Fernandes", "state": "", "country": "BR", "coord": {"lon": -41.5, "lat": -15.95}}, {"id": 3472247, "name": "Andr\u00e9 da Rocha", "state": "", "country": "BR", "coord": {"lon": -51.571671, "lat": -28.63056}}, {"id": 3472248, "name": "Andradina", "state": "", "country": "BR", "coord": {"lon": -51.37944, "lat": -20.896111}}, {"id": 3472254, "name": "Andradas", "state": "", "country": "BR", "coord": {"lon": -46.569172, "lat": -22.06806}}, {"id": 3472263, "name": "Andorinha", "state": "", "country": "BR", "coord": {"lon": -39.83556, "lat": -10.34472}}, {"id": 3472276, "name": "Anchieta", "state": "", "country": "BR", "coord": {"lon": -53.33139, "lat": -26.534439}}, {"id": 3472277, "name": "Anchieta", "state": "", "country": "BR", "coord": {"lon": -40.645561, "lat": -20.80583}}, {"id": 3472284, "name": "Anast\u00e1cio", "state": "", "country": "BR", "coord": {"lon": -55.806938, "lat": -20.48361}}, {"id": 3472287, "name": "An\u00e1polis", "state": "", "country": "BR", "coord": {"lon": -48.952782, "lat": -16.32667}}, {"id": 3472295, "name": "Anal\u00e2ndia", "state": "", "country": "BR", "coord": {"lon": -47.663059, "lat": -22.12639}}, {"id": 3472298, "name": "Anag\u00e9", "state": "", "country": "BR", "coord": {"lon": -41.135559, "lat": -14.61222}}, {"id": 3472304, "name": "Amp\u00e9re", "state": "", "country": "BR", "coord": {"lon": -53.472778, "lat": -25.915001}}, {"id": 3472310, "name": "Amparo", "state": "", "country": "BR", "coord": {"lon": -46.801479, "lat": -22.70845}}, {"id": 3472311, "name": "Amparo", "state": "", "country": "BR", "coord": {"lon": -46.764439, "lat": -22.701111}}, {"id": 3472319, "name": "Amorin\u00f3polis", "state": "", "country": "BR", "coord": {"lon": -51.093609, "lat": -16.619169}}, {"id": 3472337, "name": "Am\u00e9rico de Campos", "state": "", "country": "BR", "coord": {"lon": -49.73167, "lat": -20.29917}}, {"id": 3472338, "name": "Am\u00e9rico Brasiliense", "state": "", "country": "BR", "coord": {"lon": -48.101669, "lat": -21.72444}}, {"id": 3472339, "name": "Americano do Brasil", "state": "", "country": "BR", "coord": {"lon": -49.98278, "lat": -16.254721}}, {"id": 3472343, "name": "Americana", "state": "", "country": "BR", "coord": {"lon": -47.33139, "lat": -22.73917}}, {"id": 3472344, "name": "Am\u00e9rica Dourada", "state": "", "country": "BR", "coord": {"lon": -41.436111, "lat": -11.45528}}, {"id": 3472370, "name": "Amargosa", "state": "", "country": "BR", "coord": {"lon": -39.604721, "lat": -13.03028}}, {"id": 3472378, "name": "Amaralina", "state": "", "country": "BR", "coord": {"lon": -40.083328, "lat": -13.85}}, {"id": 3472380, "name": "Amapor\u00e3", "state": "", "country": "BR", "coord": {"lon": -52.787498, "lat": -23.095831}}, {"id": 3472391, "name": "Amambai", "state": "", "country": "BR", "coord": {"lon": -55.22583, "lat": -23.10417}}, {"id": 3472397, "name": "Alvorada do Sul", "state": "", "country": "BR", "coord": {"lon": -51.23111, "lat": -22.780279}}, {"id": 3472404, "name": "Alvorada", "state": "", "country": "BR", "coord": {"lon": -49.124722, "lat": -12.48}}, {"id": 3472406, "name": "Alvin\u00f3polis", "state": "", "country": "BR", "coord": {"lon": -43.048889, "lat": -20.10667}}, {"id": 3472408, "name": "Alvinl\u00e2ndia", "state": "", "country": "BR", "coord": {"lon": -49.763062, "lat": -22.44417}}, {"id": 3472414, "name": "\u00c1lvaro de Carvalho", "state": "", "country": "BR", "coord": {"lon": -49.718891, "lat": -22.08917}}, {"id": 3472417, "name": "\u00c1lvares Machado", "state": "", "country": "BR", "coord": {"lon": -51.471939, "lat": -22.079439}}, {"id": 3472419, "name": "\u00c1lvares Florence", "state": "", "country": "BR", "coord": {"lon": -49.910561, "lat": -20.320829}}, {"id": 3472432, "name": "Alto Rio Novo", "state": "", "country": "BR", "coord": {"lon": -41.01667, "lat": -19.05611}}, {"id": 3472433, "name": "Alto Rio Doce", "state": "", "country": "BR", "coord": {"lon": -43.411388, "lat": -21.025829}}, {"id": 3472437, "name": "Alto Piquiri", "state": "", "country": "BR", "coord": {"lon": -53.440559, "lat": -24.028061}}, {"id": 3472440, "name": "Alto Paran\u00e1", "state": "", "country": "BR", "coord": {"lon": -52.31889, "lat": -23.128889}}, {"id": 3472442, "name": "Alto Paraguai", "state": "", "country": "BR", "coord": {"lon": -56.482498, "lat": -14.51361}}, {"id": 3472444, "name": "Alt\u00e3nia", "state": "", "country": "BR", "coord": {"lon": -53.901669, "lat": -23.874439}}, {"id": 3472448, "name": "Alto Gar\u00e7as", "state": "", "country": "BR", "coord": {"lon": -53.528061, "lat": -16.94389}}, {"id": 3472473, "name": "Alto Araguaia", "state": "", "country": "BR", "coord": {"lon": -53.215279, "lat": -17.31472}}, {"id": 3472485, "name": "Altin\u00f3polis", "state": "", "country": "BR", "coord": {"lon": -47.37389, "lat": -21.02556}}, {"id": 3472487, "name": "Alterosa", "state": "", "country": "BR", "coord": {"lon": -46.143059, "lat": -21.24917}}, {"id": 3472492, "name": "Altamira", "state": "", "country": "BR", "coord": {"lon": -43.566669, "lat": -19.549999}}, {"id": 3472494, "name": "Altamira", "state": "", "country": "BR", "coord": {"lon": -43.166672, "lat": -14.26667}}, {"id": 3472502, "name": "Altair", "state": "", "country": "BR", "coord": {"lon": -49.058891, "lat": -20.523609}}, {"id": 3472507, "name": "Alpin\u00f3polis", "state": "", "country": "BR", "coord": {"lon": -46.388062, "lat": -20.863609}}, {"id": 3472508, "name": "Alpestre", "state": "", "country": "BR", "coord": {"lon": -53.035, "lat": -27.24889}}, {"id": 3472514, "name": "Alo\u00e2ndia", "state": "", "country": "BR", "coord": {"lon": -49.480282, "lat": -17.727221}}, {"id": 3472518, "name": "Almirante Tamandar\u00e9", "state": "", "country": "BR", "coord": {"lon": -49.310001, "lat": -25.32472}}, {"id": 3472520, "name": "Almenara", "state": "", "country": "BR", "coord": {"lon": -40.694439, "lat": -16.183611}}, {"id": 3472585, "name": "Alfredo Wagner", "state": "", "country": "BR", "coord": {"lon": -49.333611, "lat": -27.700279}}, {"id": 3472590, "name": "Alfredo Marcondes", "state": "", "country": "BR", "coord": {"lon": -51.412781, "lat": -21.95528}}, {"id": 3472596, "name": "Alfredo Chaves", "state": "", "country": "BR", "coord": {"lon": -40.749722, "lat": -20.635}}, {"id": 3472603, "name": "Alfenas", "state": "", "country": "BR", "coord": {"lon": -45.94722, "lat": -21.429171}}, {"id": 3472609, "name": "Al\u00e9m Para\u00edba", "state": "", "country": "BR", "coord": {"lon": -42.704441, "lat": -21.887779}}, {"id": 3472626, "name": "Vila da Alegria", "state": "", "country": "BR", "coord": {"lon": -51.316669, "lat": -30.116671}}, {"id": 3472627, "name": "Alegria", "state": "", "country": "BR", "coord": {"lon": -54.06139, "lat": -27.832781}}, {"id": 3472638, "name": "Alegrete", "state": "", "country": "BR", "coord": {"lon": -55.791939, "lat": -29.78306}}, {"id": 3472666, "name": "Alegre", "state": "", "country": "BR", "coord": {"lon": -41.533058, "lat": -20.763611}}, {"id": 3472728, "name": "Alcoba\u00e7a", "state": "", "country": "BR", "coord": {"lon": -39.19556, "lat": -17.51944}}, {"id": 3472749, "name": "Albertina", "state": "", "country": "BR", "coord": {"lon": -46.615829, "lat": -22.20083}}, {"id": 3472758, "name": "Alambique", "state": "", "country": "BR", "coord": {"lon": -41.133331, "lat": -20.08333}}, {"id": 3472766, "name": "Alagoinhas", "state": "", "country": "BR", "coord": {"lon": -38.41917, "lat": -12.13556}}, {"id": 3472775, "name": "Alagoas", "state": "", "country": "BR", "coord": {"lon": -47.816669, "lat": -13.8}}, {"id": 3472791, "name": "Ajuricaba", "state": "", "country": "BR", "coord": {"lon": -53.770828, "lat": -28.239441}}, {"id": 3472798, "name": "Aiuruoca", "state": "", "country": "BR", "coord": {"lon": -44.603062, "lat": -21.975559}}, {"id": 3472808, "name": "Aimor\u00e9s", "state": "", "country": "BR", "coord": {"lon": -41.063889, "lat": -19.495831}}, {"id": 3472820, "name": "\u00c1guia Branca", "state": "", "country": "BR", "coord": {"lon": -40.74028, "lat": -18.983061}}, {"id": 3472822, "name": "Agudos do Sul", "state": "", "country": "BR", "coord": {"lon": -49.335281, "lat": -25.9925}}, {"id": 3472825, "name": "Agudos", "state": "", "country": "BR", "coord": {"lon": -48.987499, "lat": -22.46917}}, {"id": 3472831, "name": "Agudo", "state": "", "country": "BR", "coord": {"lon": -53.240002, "lat": -29.645281}}, {"id": 3472848, "name": "\u00c1guas Vermelhas", "state": "", "country": "BR", "coord": {"lon": -41.459999, "lat": -15.74722}}, {"id": 3472864, "name": "\u00c1guas Formosas", "state": "", "country": "BR", "coord": {"lon": -40.935829, "lat": -17.08222}}, {"id": 3472868, "name": "\u00c1guas de S\u00e3o Pedro", "state": "", "country": "BR", "coord": {"lon": -47.87611, "lat": -22.59944}}, {"id": 3472869, "name": "\u00c1guas de Lind\u00f3ia", "state": "", "country": "BR", "coord": {"lon": -46.632778, "lat": -22.476391}}, {"id": 3472871, "name": "\u00c1guas de Chapec\u00f3", "state": "", "country": "BR", "coord": {"lon": -52.986671, "lat": -27.07028}}, {"id": 3472873, "name": "\u00c1guas da Prata", "state": "", "country": "BR", "coord": {"lon": -46.716671, "lat": -21.93667}}, {"id": 3472969, "name": "Agua\u00ed", "state": "", "country": "BR", "coord": {"lon": -46.978611, "lat": -22.059441}}, {"id": 3473008, "name": "\u00c1gua Doce", "state": "", "country": "BR", "coord": {"lon": -51.55611, "lat": -26.99778}}, {"id": 3473129, "name": "Afonso Cl\u00e1udio", "state": "", "country": "BR", "coord": {"lon": -41.12389, "lat": -20.074169}}, {"id": 3473140, "name": "Adustina", "state": "", "country": "BR", "coord": {"lon": -38.099998, "lat": -10.53333}}, {"id": 3473144, "name": "Adrian\u00f3polis", "state": "", "country": "BR", "coord": {"lon": -48.991112, "lat": -24.657221}}, {"id": 3473149, "name": "Adolfo", "state": "", "country": "BR", "coord": {"lon": -49.643608, "lat": -21.235001}}, {"id": 3473157, "name": "Adamantina", "state": "", "country": "BR", "coord": {"lon": -51.072498, "lat": -21.68528}}, {"id": 3473183, "name": "A\u00e7ucena", "state": "", "country": "BR", "coord": {"lon": -42.546391, "lat": -19.073059}}, {"id": 3473198, "name": "Acorizal", "state": "", "country": "BR", "coord": {"lon": -56.365829, "lat": -15.20472}}, {"id": 3473204, "name": "Acegu\u00e1", "state": "", "country": "BR", "coord": {"lon": -54.167221, "lat": -31.86528}}, {"id": 3473215, "name": "Acara\u00ed", "state": "", "country": "BR", "coord": {"lon": -39.116669, "lat": -13.95}}, {"id": 3473218, "name": "Acajutiba", "state": "", "country": "BR", "coord": {"lon": -38.01722, "lat": -11.66222}}, {"id": 3473220, "name": "Acaiaca", "state": "", "country": "BR", "coord": {"lon": -43.144718, "lat": -20.362499}}, {"id": 3473235, "name": "Abre Campo", "state": "", "country": "BR", "coord": {"lon": -42.477501, "lat": -20.301109}}, {"id": 3473252, "name": "Abelardo Luz", "state": "", "country": "BR", "coord": {"lon": -52.328331, "lat": -26.56472}}, {"id": 3473255, "name": "Abdon Batista", "state": "", "country": "BR", "coord": {"lon": -51.022499, "lat": -27.611111}}, {"id": 3473258, "name": "Abati\u00e1", "state": "", "country": "BR", "coord": {"lon": -50.3125, "lat": -23.30361}}, {"id": 3473267, "name": "Abaet\u00e9", "state": "", "country": "BR", "coord": {"lon": -45.445831, "lat": -19.16}}, {"id": 3473268, "name": "Abadi\u00e2nia", "state": "", "country": "BR", "coord": {"lon": -48.70694, "lat": -16.20417}}, {"id": 3473269, "name": "Abadia dos Dourados", "state": "", "country": "BR", "coord": {"lon": -47.403061, "lat": -18.485559}}, {"id": 3473487, "name": "Pontal de S\u00e3o Jo\u00e3o da Barra", "state": "", "country": "BR", "coord": {"lon": -39.033329, "lat": -14.8125}}, {"id": 3473640, "name": "S\u00e3o Crist\u00f3v\u00e3o", "state": "", "country": "BR", "coord": {"lon": -43.23333, "lat": -22.9}}, {"id": 3473648, "name": "Icara\u00ed", "state": "", "country": "BR", "coord": {"lon": -43.09972, "lat": -22.9}}, {"id": 3473664, "name": "Copacabana", "state": "", "country": "BR", "coord": {"lon": -43.185631, "lat": -22.968981}}, {"id": 3473817, "name": "Porto Velho", "state": "", "country": "BR", "coord": {"lon": -52.091671, "lat": -32.033329}}, {"id": 3473821, "name": "Lopes", "state": "", "country": "BR", "coord": {"lon": -52.166672, "lat": -32.091671}}, {"id": 3473920, "name": "S\u00e3o Jo\u00e3o", "state": "", "country": "BR", "coord": {"lon": -51.174999, "lat": -30.004169}}, {"id": 3473922, "name": "Auxiliadora", "state": "", "country": "BR", "coord": {"lon": -51.191669, "lat": -30.025}}, {"id": 3473964, "name": "Gua\u00edba", "state": "", "country": "BR", "coord": {"lon": -51.325001, "lat": -30.11389}}, {"id": 3474028, "name": "Convento", "state": "", "country": "BR", "coord": {"lon": -48.312778, "lat": -25.569441}}, {"id": 3474414, "name": "Falkland Islands", "state": "", "country": "FK", "coord": {"lon": -59.166672, "lat": -51.75}}, {"id": 3474415, "name": "South Georgia and the South Sandwich Islands", "state": "", "country": "GS", "coord": {"lon": -33.0, "lat": -56.0}}, {"id": 3474495, "name": "Nova Alvorada", "state": "", "country": "BR", "coord": {"lon": -59.911388, "lat": -13.65}}, {"id": 3474501, "name": "Comodoro", "state": "", "country": "BR", "coord": {"lon": -59.785831, "lat": -13.66306}}, {"id": 3474570, "name": "Asunci\u00f3n", "state": "", "country": "PY", "coord": {"lon": -57.666672, "lat": -25.26667}}, {"id": 3474574, "name": "Palmas", "state": "", "country": "BR", "coord": {"lon": -48.360279, "lat": -10.21278}}, {"id": 3474575, "name": "Tocantins", "state": "", "country": "BR", "coord": {"lon": -48.0, "lat": -10.5}}, {"id": 3475310, "name": "Jardim S\u00e3o Nicolau", "state": "", "country": "BR", "coord": {"lon": -46.548889, "lat": -23.125}}, {"id": 3476871, "name": "Novo Horizonte", "state": "", "country": "BR", "coord": {"lon": -43.383888, "lat": -21.78278}}, {"id": 3478280, "name": "S\u00edtio Vilmar Prismann", "state": "", "country": "BR", "coord": {"lon": -49.520882, "lat": -26.237289}}, {"id": 3478366, "name": "Pranchita", "state": "", "country": "BR", "coord": {"lon": -53.74028, "lat": -26.01972}}, {"id": 3478424, "name": "Pontal do Paran\u00e1", "state": "", "country": "BR", "coord": {"lon": -48.511108, "lat": -25.673611}}, {"id": 3479058, "name": "S\u00edtio Jo\u00e3o M. Claudino", "state": "", "country": "BR", "coord": {"lon": -49.182999, "lat": -25.931499}}, {"id": 3479308, "name": "Paind do Araguaia", "state": "", "country": "BR", "coord": {"lon": -50.314171, "lat": -11.44028}}, {"id": 3479327, "name": "Alian\u00e7a do Tocantins", "state": "", "country": "BR", "coord": {"lon": -48.935829, "lat": -11.30611}}, {"id": 3480602, "name": "Ita\u00fana", "state": "", "country": "BR", "coord": {"lon": -43.03194, "lat": -22.77556}}, {"id": 3480730, "name": "Maquinista Savio", "state": "", "country": "AR", "coord": {"lon": -58.798328, "lat": -34.41111}}, {"id": 3480738, "name": "El Jag\u00fcel", "state": "", "country": "AR", "coord": {"lon": -58.475281, "lat": -34.813332}}, {"id": 3480740, "name": "Guernica", "state": "", "country": "AR", "coord": {"lon": -58.38694, "lat": -34.917221}}, {"id": 3480780, "name": "Horqueta", "state": "", "country": "PY", "coord": {"lon": -57.059719, "lat": -23.342779}}, {"id": 3480812, "name": "Puntas de Valdez", "state": "", "country": "UY", "coord": {"lon": -56.69944, "lat": -34.583889}}, {"id": 3480818, "name": "Cap. Juan A. Artigas", "state": "", "country": "UY", "coord": {"lon": -56.020561, "lat": -34.762501}}, {"id": 3480819, "name": "Villa Garc\u00eda", "state": "", "country": "UY", "coord": {"lon": -56.053329, "lat": -34.781109}}, {"id": 3480820, "name": "Colonia Nicolich", "state": "", "country": "UY", "coord": {"lon": -56.04472, "lat": -34.813061}}, {"id": 3480822, "name": "Barra de Carrasco", "state": "", "country": "UY", "coord": {"lon": -56.02972, "lat": -34.87722}}, {"id": 3480823, "name": "Carrasco", "state": "", "country": "UY", "coord": {"lon": -56.060558, "lat": -34.885281}}, {"id": 3480825, "name": "Pajas Blancas", "state": "", "country": "UY", "coord": {"lon": -56.334171, "lat": -34.80167}}, {"id": 3480908, "name": "La Asuncion", "state": "", "country": "VE", "coord": {"lon": -63.862782, "lat": 11.03333}}, {"id": 3480942, "name": "El Genoves", "state": "", "country": "VE", "coord": {"lon": -63.83601, "lat": 10.97536}}, {"id": 3481078, "name": "Sabana Grande", "state": "", "country": "VE", "coord": {"lon": -66.877808, "lat": 10.49414}}, {"id": 3481258, "name": "La Horquilla", "state": "", "country": "VE", "coord": {"lon": -66.99778, "lat": 10.580556}}, {"id": 3481364, "name": "Caricuao", "state": "", "country": "VE", "coord": {"lon": -66.983131, "lat": 10.43337}}, {"id": 3481456, "name": "Tocuyito", "state": "", "country": "VE", "coord": {"lon": -68.0793, "lat": 10.10861}}, {"id": 3481471, "name": "Santa Cecilia", "state": "", "country": "VE", "coord": {"lon": -68.005959, "lat": 10.18882}}, {"id": 3481589, "name": "La Sorpresa", "state": "", "country": "VE", "coord": {"lon": -68.06144, "lat": 10.47228}}, {"id": 3481991, "name": "San Luis", "state": "", "country": "VE", "coord": {"lon": -70.599998, "lat": 9.33833}}, {"id": 3482204, "name": "Pampanito", "state": "", "country": "VE", "coord": {"lon": -70.26667, "lat": 9.38944}}, {"id": 3482886, "name": "Cuauht\u00e9moc", "state": "", "country": "MX", "coord": {"lon": -98.150002, "lat": 22.533331}}, {"id": 3482929, "name": "Gonz\u00e1lez", "state": "", "country": "MX", "coord": {"lon": -98.433327, "lat": 22.83333}}, {"id": 3483063, "name": "Xicot\u00e9ncatl", "state": "", "country": "MX", "coord": {"lon": -98.883331, "lat": 23.01667}}, {"id": 3483197, "name": "San Fernando", "state": "", "country": "MX", "coord": {"lon": -98.150002, "lat": 24.85}}, {"id": 3483393, "name": "Ciudad Gustavo D\u00edaz Ordaz", "state": "", "country": "MX", "coord": {"lon": -98.583328, "lat": 26.23333}}, {"id": 3483503, "name": "Tenepanco", "state": "", "country": "MX", "coord": {"lon": -98.966667, "lat": 21.33333}}, {"id": 3483989, "name": "Buenavista", "state": "", "country": "MX", "coord": {"lon": -99.599998, "lat": 22.4}}, {"id": 3485791, "name": "El Chaparro", "state": "", "country": "VE", "coord": {"lon": -65.016876, "lat": 9.15177}}, {"id": 3485968, "name": "Campo Claro", "state": "", "country": "VE", "coord": {"lon": -65.083336, "lat": 9.338889}}, {"id": 3486270, "name": "Anaco", "state": "", "country": "VE", "coord": {"lon": -64.472778, "lat": 9.43889}}, {"id": 3486337, "name": "Barrio Aduana", "state": "", "country": "VE", "coord": {"lon": -64.675751, "lat": 10.12092}}, {"id": 3486577, "name": "Santa Cruz de Guacas", "state": "", "country": "VE", "coord": {"lon": -71.301399, "lat": 7.44329}}, {"id": 3486692, "name": "El Real", "state": "", "country": "VE", "coord": {"lon": -69.99633, "lat": 8.43525}}, {"id": 3486718, "name": "Puerto Vivas", "state": "", "country": "VE", "coord": {"lon": -71.84446, "lat": 7.50005}}, {"id": 3486930, "name": "La Mula", "state": "", "country": "VE", "coord": {"lon": -70.375237, "lat": 8.57084}}, {"id": 3487261, "name": "Los Guasimitos", "state": "", "country": "VE", "coord": {"lon": -70.232162, "lat": 8.66435}}, {"id": 3487903, "name": "Alto Barinas", "state": "", "country": "VE", "coord": {"lon": -70.226097, "lat": 8.5931}}, {"id": 3487963, "name": "Yallahs", "state": "", "country": "JM", "coord": {"lon": -76.562447, "lat": 17.8748}}, {"id": 3488020, "name": "Williamsfield", "state": "", "country": "JM", "coord": {"lon": -77.466667, "lat": 18.066669}}, {"id": 3488063, "name": "Whitehall", "state": "", "country": "JM", "coord": {"lon": -78.345421, "lat": 18.274401}}, {"id": 3488081, "name": "Westmoreland", "state": "", "country": "JM", "coord": {"lon": -78.150002, "lat": 18.23333}}, {"id": 3488133, "name": "Wakefield", "state": "", "country": "JM", "coord": {"lon": -77.721832, "lat": 18.412109}}, {"id": 3488164, "name": "Up Park Camp", "state": "", "country": "JM", "coord": {"lon": -76.779602, "lat": 17.99415}}, {"id": 3488180, "name": "Ulster Spring", "state": "", "country": "JM", "coord": {"lon": -77.520668, "lat": 18.314819}}, {"id": 3488217, "name": "Trinity Ville", "state": "", "country": "JM", "coord": {"lon": -76.514267, "lat": 17.96076}}, {"id": 3488222, "name": "Trelawny", "state": "", "country": "JM", "coord": {"lon": -77.633331, "lat": 18.383329}}, {"id": 3488302, "name": "Thatch Pen", "state": "", "country": "JM", "coord": {"lon": -77.316673, "lat": 18.01667}}, {"id": 3488379, "name": "Stony Hill", "state": "", "country": "JM", "coord": {"lon": -76.480453, "lat": 18.18088}}, {"id": 3488380, "name": "Stony Hill", "state": "", "country": "JM", "coord": {"lon": -76.791092, "lat": 18.075371}}, {"id": 3488465, "name": "Spanish Town", "state": "", "country": "JM", "coord": {"lon": -76.95742, "lat": 17.99107}}, {"id": 3488479, "name": "Southfield", "state": "", "country": "JM", "coord": {"lon": -77.66713, "lat": 17.8878}}, {"id": 3488540, "name": "Siloah", "state": "", "country": "JM", "coord": {"lon": -77.703484, "lat": 18.167089}}, {"id": 3488597, "name": "Seaforth", "state": "", "country": "JM", "coord": {"lon": -76.457298, "lat": 17.93578}}, {"id": 3488613, "name": "Savanna-la-Mar", "state": "", "country": "JM", "coord": {"lon": -78.133202, "lat": 18.21895}}, {"id": 3488618, "name": "Santa Maria", "state": "", "country": "JM", "coord": {"lon": -76.877899, "lat": 18.075251}}, {"id": 3488620, "name": "Santa Cruz", "state": "", "country": "JM", "coord": {"lon": -77.698357, "lat": 18.05336}}, {"id": 3488635, "name": "Sandy Bay", "state": "", "country": "JM", "coord": {"lon": -78.073212, "lat": 18.44854}}, {"id": 3488637, "name": "Sandy Bay", "state": "", "country": "JM", "coord": {"lon": -77.183327, "lat": 17.816669}}, {"id": 3488688, "name": "Saint Thomas", "state": "", "country": "JM", "coord": {"lon": -76.433327, "lat": 17.9}}, {"id": 3488693, "name": "Saint Mary", "state": "", "country": "JM", "coord": {"lon": -76.900002, "lat": 18.316669}}, {"id": 3488700, "name": "Saint James", "state": "", "country": "JM", "coord": {"lon": -77.883331, "lat": 18.383329}}, {"id": 3488708, "name": "Saint Elizabeth", "state": "", "country": "JM", "coord": {"lon": -77.783333, "lat": 18.049999}}, {"id": 3488711, "name": "Saint Catherine", "state": "", "country": "JM", "coord": {"lon": -77.01667, "lat": 18.066669}}, {"id": 3488713, "name": "Saint Ann\u2019s Bay", "state": "", "country": "JM", "coord": {"lon": -77.200981, "lat": 18.43581}}, {"id": 3488715, "name": "Parish of Saint Ann", "state": "", "country": "JM", "coord": {"lon": -77.26667, "lat": 18.35}}, {"id": 3488716, "name": "Saint Andrew", "state": "", "country": "JM", "coord": {"lon": -76.75, "lat": 18.066669}}, {"id": 3488726, "name": "Runaway Bay", "state": "", "country": "JM", "coord": {"lon": -77.335701, "lat": 18.45962}}, {"id": 3488777, "name": "Rocky Point", "state": "", "country": "JM", "coord": {"lon": -77.26107, "lat": 17.774}}, {"id": 3488809, "name": "Riversdale", "state": "", "country": "JM", "coord": {"lon": -76.964172, "lat": 18.165859}}, {"id": 3488834, "name": "Richmond", "state": "", "country": "JM", "coord": {"lon": -76.890778, "lat": 18.2439}}, {"id": 3488867, "name": "Rest Pen", "state": "", "country": "JM", "coord": {"lon": -77.116669, "lat": 17.933331}}, {"id": 3488894, "name": "Rectory", "state": "", "country": "JM", "coord": {"lon": -77.883331, "lat": 18.066669}}, {"id": 3488914, "name": "Race Course", "state": "", "country": "JM", "coord": {"lon": -77.282227, "lat": 17.840191}}, {"id": 3488977, "name": "Porus", "state": "", "country": "JM", "coord": {"lon": -77.411659, "lat": 18.035351}}, {"id": 3488980, "name": "Port Royal", "state": "", "country": "JM", "coord": {"lon": -76.840813, "lat": 17.93712}}, {"id": 3488981, "name": "Portmore", "state": "", "country": "JM", "coord": {"lon": -76.867218, "lat": 17.97024}}, {"id": 3488985, "name": "Port Maria", "state": "", "country": "JM", "coord": {"lon": -76.889458, "lat": 18.36849}}, {"id": 3488997, "name": "Portland", "state": "", "country": "JM", "coord": {"lon": -76.533333, "lat": 18.133329}}, {"id": 3489005, "name": "Port Antonio", "state": "", "country": "JM", "coord": {"lon": -76.461212, "lat": 18.179979}}, {"id": 3489011, "name": "Point Hill", "state": "", "country": "JM", "coord": {"lon": -77.10759, "lat": 18.08988}}, {"id": 3489016, "name": "Plum Corner", "state": "", "country": "JM", "coord": {"lon": -77.48333, "lat": 18.41667}}, {"id": 3489054, "name": "Phoenix Park", "state": "", "country": "JM", "coord": {"lon": -78.133331, "lat": 18.216669}}, {"id": 3489062, "name": "Petersfield", "state": "", "country": "JM", "coord": {"lon": -78.071167, "lat": 18.26158}}, {"id": 3489113, "name": "Passage Fort", "state": "", "country": "JM", "coord": {"lon": -76.868668, "lat": 17.976}}, {"id": 3489135, "name": "Papine", "state": "", "country": "JM", "coord": {"lon": -76.737534, "lat": 18.011999}}, {"id": 3489200, "name": "Oracabessa", "state": "", "country": "JM", "coord": {"lon": -76.946411, "lat": 18.403191}}, {"id": 3489218, "name": "Old Lee Gate", "state": "", "country": "JM", "coord": {"lon": -76.466667, "lat": 17.950001}}, {"id": 3489225, "name": "Old Harbour Bay", "state": "", "country": "JM", "coord": {"lon": -77.097183, "lat": 17.90918}}, {"id": 3489227, "name": "Old Harbour", "state": "", "country": "JM", "coord": {"lon": -77.108978, "lat": 17.941441}}, {"id": 3489239, "name": "Ocho Rios", "state": "", "country": "JM", "coord": {"lon": -77.104797, "lat": 18.4025}}, {"id": 3489297, "name": "New Kingston", "state": "", "country": "JM", "coord": {"lon": -76.783188, "lat": 18.007469}}, {"id": 3489331, "name": "Negril", "state": "", "country": "JM", "coord": {"lon": -78.351799, "lat": 18.278179}}, {"id": 3489344, "name": "Nain", "state": "", "country": "JM", "coord": {"lon": -77.598679, "lat": 17.961201}}, {"id": 3489387, "name": "Mount Nebo", "state": "", "country": "JM", "coord": {"lon": -77.349998, "lat": 18.08333}}, {"id": 3489440, "name": "Morant Bay", "state": "", "country": "JM", "coord": {"lon": -76.409271, "lat": 17.881451}}, {"id": 3489445, "name": "Moore Town", "state": "", "country": "JM", "coord": {"lon": -76.425774, "lat": 18.077669}}, {"id": 3489460, "name": "Montego Bay", "state": "", "country": "JM", "coord": {"lon": -77.918831, "lat": 18.471161}}, {"id": 3489464, "name": "Moneague", "state": "", "country": "JM", "coord": {"lon": -77.111771, "lat": 18.27556}}, {"id": 3489467, "name": "Mona Heights", "state": "", "country": "JM", "coord": {"lon": -76.751862, "lat": 18.01375}}, {"id": 3489480, "name": "Minho", "state": "", "country": "JM", "coord": {"lon": -77.333328, "lat": 18.133329}}, {"id": 3489523, "name": "May Pen", "state": "", "country": "JM", "coord": {"lon": -77.245148, "lat": 17.96454}}, {"id": 3489531, "name": "Mavis Bank", "state": "", "country": "JM", "coord": {"lon": -76.666672, "lat": 18.033331}}, {"id": 3489534, "name": "Matildas Corner", "state": "", "country": "JM", "coord": {"lon": -76.76667, "lat": 18.033331}}, {"id": 3489555, "name": "Maroon Town", "state": "", "country": "JM", "coord": {"lon": -77.795441, "lat": 18.344641}}, {"id": 3489572, "name": "Mannings Town", "state": "", "country": "JM", "coord": {"lon": -76.894859, "lat": 18.367929}}, {"id": 3489577, "name": "Mandeville", "state": "", "country": "JM", "coord": {"lon": -77.507141, "lat": 18.041679}}, {"id": 3489582, "name": "Manchioneal", "state": "", "country": "JM", "coord": {"lon": -76.282654, "lat": 18.03969}}, {"id": 3489586, "name": "Manchester", "state": "", "country": "JM", "coord": {"lon": -77.533333, "lat": 18.049999}}, {"id": 3489603, "name": "Malvern", "state": "", "country": "JM", "coord": {"lon": -77.70108, "lat": 17.97291}}, {"id": 3489633, "name": "Maggotty", "state": "", "country": "JM", "coord": {"lon": -77.763489, "lat": 18.16069}}, {"id": 3489657, "name": "Lucea", "state": "", "country": "JM", "coord": {"lon": -78.173561, "lat": 18.450951}}, {"id": 3489714, "name": "Lluidas Vale", "state": "", "country": "JM", "coord": {"lon": -77.147636, "lat": 18.12784}}, {"id": 3489741, "name": "Little London", "state": "", "country": "JM", "coord": {"lon": -78.216408, "lat": 18.248301}}, {"id": 3489758, "name": "Lionel Town", "state": "", "country": "JM", "coord": {"lon": -77.240608, "lat": 17.81007}}, {"id": 3489760, "name": "Linstead", "state": "", "country": "JM", "coord": {"lon": -77.031708, "lat": 18.136829}}, {"id": 3489781, "name": "Liguanea", "state": "", "country": "JM", "coord": {"lon": -76.764351, "lat": 18.017611}}, {"id": 3489782, "name": "Liberty Valley", "state": "", "country": "JM", "coord": {"lon": -77.366669, "lat": 18.4}}, {"id": 3489829, "name": "Lacovia", "state": "", "country": "JM", "coord": {"lon": -77.754784, "lat": 18.075001}}, {"id": 3489854, "name": "Kingston", "state": "", "country": "JM", "coord": {"lon": -76.793579, "lat": 17.997021}}, {"id": 3489882, "name": "Kencot", "state": "", "country": "JM", "coord": {"lon": -76.796982, "lat": 17.999161}}, {"id": 3489888, "name": "Kellits", "state": "", "country": "JM", "coord": {"lon": -77.23333, "lat": 18.15}}, {"id": 3489940, "name": "Jamaica", "state": "", "country": "JM", "coord": {"lon": -77.5, "lat": 18.25}}, {"id": 3489962, "name": "Islington", "state": "", "country": "JM", "coord": {"lon": -76.85482, "lat": 18.309219}}, {"id": 3490020, "name": "Hopewell", "state": "", "country": "JM", "coord": {"lon": -77.778069, "lat": 17.94945}}, {"id": 3490031, "name": "Hope Bay", "state": "", "country": "JM", "coord": {"lon": -76.562881, "lat": 18.20195}}, {"id": 3490106, "name": "Hayes", "state": "", "country": "JM", "coord": {"lon": -77.237106, "lat": 17.87569}}, {"id": 3490136, "name": "Harbour View", "state": "", "country": "JM", "coord": {"lon": -76.717102, "lat": 17.95336}}, {"id": 3490145, "name": "Parish of Hanover", "state": "", "country": "JM", "coord": {"lon": -78.133331, "lat": 18.41667}}, {"id": 3490165, "name": "Half Way Tree", "state": "", "country": "JM", "coord": {"lon": -76.799278, "lat": 18.01248}}, {"id": 3490205, "name": "Gregory Park", "state": "", "country": "JM", "coord": {"lon": -76.88134, "lat": 17.995581}}, {"id": 3490293, "name": "Gordon Town", "state": "", "country": "JM", "coord": {"lon": -76.717819, "lat": 18.03578}}, {"id": 3490318, "name": "Golden Grove", "state": "", "country": "JM", "coord": {"lon": -76.272537, "lat": 17.93362}}, {"id": 3490368, "name": "Gayle", "state": "", "country": "JM", "coord": {"lon": -77.009712, "lat": 18.32642}}, {"id": 3490446, "name": "Four Paths", "state": "", "country": "JM", "coord": {"lon": -77.291687, "lat": 17.96953}}, {"id": 3490520, "name": "Falmouth", "state": "", "country": "JM", "coord": {"lon": -77.655869, "lat": 18.49358}}, {"id": 3490539, "name": "Ewarton", "state": "", "country": "JM", "coord": {"lon": -77.076637, "lat": 18.18084}}, {"id": 3490616, "name": "Easington", "state": "", "country": "JM", "coord": {"lon": -76.588242, "lat": 17.923969}}, {"id": 3490633, "name": "Duncans", "state": "", "country": "JM", "coord": {"lon": -77.536331, "lat": 18.468}}, {"id": 3490639, "name": "Dumblane", "state": "", "country": "JM", "coord": {"lon": -77.73333, "lat": 17.883329}}, {"id": 3490716, "name": "Discovery Bay", "state": "", "country": "JM", "coord": {"lon": -77.392448, "lat": 18.45986}}, {"id": 3490758, "name": "Darliston", "state": "", "country": "JM", "coord": {"lon": -77.976257, "lat": 18.23731}}, {"id": 3490768, "name": "Dalvey", "state": "", "country": "JM", "coord": {"lon": -76.248642, "lat": 17.91184}}, {"id": 3490880, "name": "Constant Spring", "state": "", "country": "JM", "coord": {"lon": -76.793716, "lat": 18.050779}}, {"id": 3490890, "name": "Comfort Village", "state": "", "country": "JM", "coord": {"lon": -77.326317, "lat": 17.947969}}, {"id": 3490899, "name": "Coleyville", "state": "", "country": "JM", "coord": {"lon": -77.507538, "lat": 18.20783}}, {"id": 3490945, "name": "Clarks Town", "state": "", "country": "JM", "coord": {"lon": -77.216667, "lat": 18.4}}, {"id": 3490950, "name": "Clarendon Park", "state": "", "country": "JM", "coord": {"lon": -77.371597, "lat": 17.99354}}, {"id": 3490952, "name": "Clarendon", "state": "", "country": "JM", "coord": {"lon": -77.300003, "lat": 17.98333}}, {"id": 3490994, "name": "Chatham", "state": "", "country": "JM", "coord": {"lon": -77.918968, "lat": 18.49264}}, {"id": 3491007, "name": "Chapelton", "state": "", "country": "JM", "coord": {"lon": -77.26667, "lat": 18.08333}}, {"id": 3491013, "name": "Central Village", "state": "", "country": "JM", "coord": {"lon": -76.920959, "lat": 17.99757}}, {"id": 3491055, "name": "Cascade", "state": "", "country": "JM", "coord": {"lon": -78.103378, "lat": 18.39747}}, {"id": 3491102, "name": "Cambridge", "state": "", "country": "JM", "coord": {"lon": -77.902519, "lat": 18.313259}}, {"id": 3491161, "name": "Bull Savanna", "state": "", "country": "JM", "coord": {"lon": -77.590218, "lat": 17.88678}}, {"id": 3491169, "name": "Bull Bay", "state": "", "country": "JM", "coord": {"lon": -76.666023, "lat": 17.94372}}, {"id": 3491175, "name": "Buff Bay", "state": "", "country": "JM", "coord": {"lon": -76.661179, "lat": 18.23288}}, {"id": 3491187, "name": "Bryans Pen", "state": "", "country": "JM", "coord": {"lon": -77.23333, "lat": 17.966669}}, {"id": 3491293, "name": "Bog Walk", "state": "", "country": "JM", "coord": {"lon": -77.005409, "lat": 18.102051}}, {"id": 3491327, "name": "Bluefields", "state": "", "country": "JM", "coord": {"lon": -78.027023, "lat": 18.166019}}, {"id": 3491355, "name": "Black River", "state": "", "country": "JM", "coord": {"lon": -77.848732, "lat": 18.02636}}, {"id": 3491379, "name": "Bethlehem", "state": "", "country": "JM", "coord": {"lon": -77.699997, "lat": 17.966669}}, {"id": 3491381, "name": "Bethel Town", "state": "", "country": "JM", "coord": {"lon": -77.951118, "lat": 18.29504}}, {"id": 3491443, "name": "Beacon Hill", "state": "", "country": "JM", "coord": {"lon": -76.949997, "lat": 17.98333}}, {"id": 3491448, "name": "Bath", "state": "", "country": "JM", "coord": {"lon": -76.349159, "lat": 17.9482}}, {"id": 3491487, "name": "Bamboo", "state": "", "country": "JM", "coord": {"lon": -77.26429, "lat": 18.39216}}, {"id": 3491501, "name": "Balaclava", "state": "", "country": "JM", "coord": {"lon": -77.643753, "lat": 18.172279}}, {"id": 3491519, "name": "August Town", "state": "", "country": "JM", "coord": {"lon": -76.741562, "lat": 17.99522}}, {"id": 3491556, "name": "Annotto Bay", "state": "", "country": "JM", "coord": {"lon": -76.765228, "lat": 18.2717}}, {"id": 3491570, "name": "Anchovy", "state": "", "country": "JM", "coord": {"lon": -77.931664, "lat": 18.410299}}, {"id": 3491586, "name": "Alligator Pond", "state": "", "country": "JM", "coord": {"lon": -77.566673, "lat": 17.87002}}, {"id": 3491593, "name": "Alexandria", "state": "", "country": "JM", "coord": {"lon": -77.353348, "lat": 18.30768}}, {"id": 3491602, "name": "Albert Town", "state": "", "country": "JM", "coord": {"lon": -77.542389, "lat": 18.29434}}, {"id": 3491603, "name": "Albert Arms", "state": "", "country": "JM", "coord": {"lon": -77.699997, "lat": 18.049999}}, {"id": 3491736, "name": "Yayas de Viajama", "state": "", "country": "DO", "coord": {"lon": -70.927528, "lat": 18.6071}}, {"id": 3491796, "name": "Yamas\u00e1", "state": "", "country": "DO", "coord": {"lon": -70.025078, "lat": 18.77014}}, {"id": 3491805, "name": "Yaguate Arriba", "state": "", "country": "DO", "coord": {"lon": -70.191551, "lat": 18.33732}}, {"id": 3491807, "name": "Yaguate", "state": "", "country": "DO", "coord": {"lon": -70.181129, "lat": 18.3353}}, {"id": 3491905, "name": "Villa V\u00e1squez", "state": "", "country": "DO", "coord": {"lon": -71.446404, "lat": 19.7411}}, {"id": 3491908, "name": "Villa Tapia", "state": "", "country": "DO", "coord": {"lon": -70.421989, "lat": 19.30084}}, {"id": 3491913, "name": "Villas Agr\u00edcolas N\u00famero Dos", "state": "", "country": "DO", "coord": {"lon": -69.949997, "lat": 18.48333}}, {"id": 3491914, "name": "Villarpando", "state": "", "country": "DO", "coord": {"lon": -71.039162, "lat": 18.6586}}, {"id": 3491916, "name": "Villa Riva", "state": "", "country": "DO", "coord": {"lon": -69.913193, "lat": 19.180679}}, {"id": 3491923, "name": "Villa Mar\u00eda", "state": "", "country": "DO", "coord": {"lon": -69.900002, "lat": 18.48333}}, {"id": 3491927, "name": "Villa Jaragua", "state": "", "country": "DO", "coord": {"lon": -71.483772, "lat": 18.49077}}, {"id": 3491929, "name": "Villa Isabela", "state": "", "country": "DO", "coord": {"lon": -71.056412, "lat": 19.82288}}, {"id": 3491937, "name": "Villa Gonz\u00e1lez", "state": "", "country": "DO", "coord": {"lon": -70.788528, "lat": 19.540569}}, {"id": 3491941, "name": "Villa Francisca", "state": "", "country": "DO", "coord": {"lon": -69.900002, "lat": 18.466669}}, {"id": 3491943, "name": "Villa Elisa", "state": "", "country": "DO", "coord": {"lon": -71.270073, "lat": 19.6856}}, {"id": 3491948, "name": "Villa Bison\u00f3", "state": "", "country": "DO", "coord": {"lon": -70.875816, "lat": 19.56378}}, {"id": 3491952, "name": "Villa Altagracia", "state": "", "country": "DO", "coord": {"lon": -70.170952, "lat": 18.67297}}, {"id": 3492030, "name": "Vicente Noble", "state": "", "country": "DO", "coord": {"lon": -71.180099, "lat": 18.38443}}, {"id": 3492073, "name": "Veragua Arriba", "state": "", "country": "DO", "coord": {"lon": -70.333328, "lat": 19.58333}}, {"id": 3492112, "name": "Provincia de Valverde", "state": "", "country": "DO", "coord": {"lon": -71.0, "lat": 19.616671}}, {"id": 3492123, "name": "Vallejuelo", "state": "", "country": "DO", "coord": {"lon": -71.334312, "lat": 18.65354}}, {"id": 3492367, "name": "Tireo Arriba", "state": "", "country": "DO", "coord": {"lon": -70.688499, "lat": 18.935369}}, {"id": 3492477, "name": "Tenares", "state": "", "country": "DO", "coord": {"lon": -70.350868, "lat": 19.37439}}, {"id": 3492517, "name": "Tamboril", "state": "", "country": "DO", "coord": {"lon": -70.611038, "lat": 19.48538}}, {"id": 3492520, "name": "Tamayo", "state": "", "country": "DO", "coord": {"lon": -71.202904, "lat": 18.394699}}, {"id": 3492557, "name": "T\u00e1bara Arriba", "state": "", "country": "DO", "coord": {"lon": -70.879784, "lat": 18.57}}, {"id": 3492627, "name": "El Batey", "state": "", "country": "DO", "coord": {"lon": -70.51667, "lat": 19.76667}}, {"id": 3492628, "name": "Sos\u00faa", "state": "", "country": "DO", "coord": {"lon": -70.516632, "lat": 19.751381}}, {"id": 3492897, "name": "San V\u00edctor Arriba", "state": "", "country": "DO", "coord": {"lon": -70.535851, "lat": 19.477409}}, {"id": 3492908, "name": "Santo Domingo", "state": "", "country": "DO", "coord": {"lon": -69.988571, "lat": 18.50012}}, {"id": 3492912, "name": "Provincia de Santiago Rodr\u00edguez", "state": "", "country": "DO", "coord": {"lon": -71.333328, "lat": 19.41667}}, {"id": 3492914, "name": "Santiago de los Caballeros", "state": "", "country": "DO", "coord": {"lon": -70.699997, "lat": 19.450001}}, {"id": 3492918, "name": "Provincia de Santiago", "state": "", "country": "DO", "coord": {"lon": -70.916672, "lat": 19.41667}}, {"id": 3492984, "name": "Santa Cruz de El Seibo", "state": "", "country": "DO", "coord": {"lon": -69.038857, "lat": 18.765591}}, {"id": 3492985, "name": "Santa Cruz de Barahona", "state": "", "country": "DO", "coord": {"lon": -71.100769, "lat": 18.20854}}, {"id": 3492997, "name": "Saman\u00e1", "state": "", "country": "DO", "coord": {"lon": -69.336853, "lat": 19.20561}}, {"id": 3493000, "name": "Santa Ana Arriba", "state": "", "country": "DO", "coord": {"lon": -70.349998, "lat": 19.299999}}, {"id": 3493022, "name": "San Rafael del Yuma", "state": "", "country": "DO", "coord": {"lon": -68.673897, "lat": 18.42993}}, {"id": 3493031, "name": "Provincia de San Pedro de Macor\u00eds", "state": "", "country": "DO", "coord": {"lon": -69.333328, "lat": 18.5}}, {"id": 3493032, "name": "San Pedro de Macor\u00eds", "state": "", "country": "DO", "coord": {"lon": -69.29718, "lat": 18.461559}}, {"id": 3493081, "name": "San Juan de la Maguana", "state": "", "country": "DO", "coord": {"lon": -71.229912, "lat": 18.80588}}, {"id": 3493091, "name": "Provincia de San Juan", "state": "", "country": "DO", "coord": {"lon": -71.25, "lat": 18.83333}}, {"id": 3493100, "name": "San Jos\u00e9 de Ocoa", "state": "", "country": "DO", "coord": {"lon": -70.5, "lat": 18.549999}}, {"id": 3493103, "name": "San Jos\u00e9 de Las Matas", "state": "", "country": "DO", "coord": {"lon": -70.938187, "lat": 19.339149}}, {"id": 3493143, "name": "San Gregorio de Nigua", "state": "", "country": "DO", "coord": {"lon": -70.083328, "lat": 18.383329}}, {"id": 3493146, "name": "San Francisco de Macor\u00eds", "state": "", "country": "DO", "coord": {"lon": -70.255432, "lat": 19.295179}}, {"id": 3493152, "name": "San Francisco Abajo", "state": "", "country": "DO", "coord": {"lon": -70.558067, "lat": 19.42062}}, {"id": 3493174, "name": "San Fernando de Monte Cristi", "state": "", "country": "DO", "coord": {"lon": -71.650002, "lat": 19.866671}}, {"id": 3493175, "name": "Puerto Plata", "state": "", "country": "DO", "coord": {"lon": -70.6884, "lat": 19.79344}}, {"id": 3493186, "name": "Provincia de San Crist\u00f3bal", "state": "", "country": "DO", "coord": {"lon": -70.199997, "lat": 18.549999}}, {"id": 3493192, "name": "Provincia S\u00e1nchez Ram\u00edrez", "state": "", "country": "DO", "coord": {"lon": -70.166672, "lat": 19.0}}, {"id": 3493198, "name": "S\u00e1nchez", "state": "", "country": "DO", "coord": {"lon": -69.613701, "lat": 19.2281}}, {"id": 3493232, "name": "Saman\u00e1 Province", "state": "", "country": "DO", "coord": {"lon": -69.449997, "lat": 19.25}}, {"id": 3493240, "name": "Salvale\u00f3n de Hig\u00fcey", "state": "", "country": "DO", "coord": {"lon": -68.707977, "lat": 18.615009}}, {"id": 3493271, "name": "Salsipuedes", "state": "", "country": "DO", "coord": {"lon": -70.379852, "lat": 19.405519}}, {"id": 3493282, "name": "Provincia de Hermanas Mirabal", "state": "", "country": "DO", "coord": {"lon": -70.333328, "lat": 19.41667}}, {"id": 3493383, "name": "Sabaneta", "state": "", "country": "DO", "coord": {"lon": -71.341248, "lat": 19.47793}}, {"id": 3493410, "name": "Sabana Yegua", "state": "", "country": "DO", "coord": {"lon": -71.01667, "lat": 18.716669}}, {"id": 3493478, "name": "Sabana Iglesia", "state": "", "country": "DO", "coord": {"lon": -70.759918, "lat": 19.32114}}, {"id": 3493480, "name": "Sabana Grande de Palenque", "state": "", "country": "DO", "coord": {"lon": -70.148216, "lat": 18.26256}}, {"id": 3493482, "name": "Sabana Grande de Boy\u00e1", "state": "", "country": "DO", "coord": {"lon": -69.793312, "lat": 18.944981}}, {"id": 3493494, "name": "Sabana Grande", "state": "", "country": "DO", "coord": {"lon": -70.67289, "lat": 19.766769}}, {"id": 3493537, "name": "Sabana del Puerto", "state": "", "country": "DO", "coord": {"lon": -70.416672, "lat": 19.066669}}, {"id": 3493568, "name": "Sabana de la Mar", "state": "", "country": "DO", "coord": {"lon": -69.388428, "lat": 19.05934}}, {"id": 3493601, "name": "Sabana Buey", "state": "", "country": "DO", "coord": {"lon": -70.533333, "lat": 18.26667}}, {"id": 3493612, "name": "Sabana Angosta", "state": "", "country": "DO", "coord": {"lon": -70.401917, "lat": 19.305401}}, {"id": 3493732, "name": "R\u00edo Verde Arriba", "state": "", "country": "DO", "coord": {"lon": -70.566429, "lat": 19.31583}}, {"id": 3493743, "name": "R\u00edo San Juan", "state": "", "country": "DO", "coord": {"lon": -70.076347, "lat": 19.64385}}, {"id": 3493756, "name": "R\u00edo Limpio", "state": "", "country": "DO", "coord": {"lon": -71.530769, "lat": 19.245131}}, {"id": 3493811, "name": "Rinc\u00f3n Largo", "state": "", "country": "DO", "coord": {"lon": -70.77523, "lat": 19.22303}}, {"id": 3493873, "name": "Rinc\u00f3n", "state": "", "country": "DO", "coord": {"lon": -70.406319, "lat": 19.119381}}, {"id": 3493887, "name": "Restauraci\u00f3n", "state": "", "country": "DO", "coord": {"lon": -71.69239, "lat": 19.315319}}, {"id": 3493949, "name": "Rancho Viejo", "state": "", "country": "DO", "coord": {"lon": -70.431633, "lat": 19.207951}}, {"id": 3493983, "name": "Rancho Espa\u00f1ol", "state": "", "country": "DO", "coord": {"lon": -69.431618, "lat": 19.202591}}, {"id": 3494064, "name": "Ram\u00f3n Santana", "state": "", "country": "DO", "coord": {"lon": -69.179787, "lat": 18.54224}}, {"id": 3494121, "name": "Quisqueya", "state": "", "country": "DO", "coord": {"lon": -69.408142, "lat": 18.55542}}, {"id": 3494242, "name": "Punta Cana", "state": "", "country": "DO", "coord": {"lon": -68.404312, "lat": 18.58182}}, {"id": 3494267, "name": "Provincia de Puerto Plata", "state": "", "country": "DO", "coord": {"lon": -70.75, "lat": 19.75}}, {"id": 3494269, "name": "Puerto Plata", "state": "", "country": "DO", "coord": {"lon": -70.699997, "lat": 18.75}}, {"id": 3494329, "name": "Pueblo Viejo", "state": "", "country": "DO", "coord": {"lon": -70.767647, "lat": 18.4}}, {"id": 3494509, "name": "Postrer R\u00edo", "state": "", "country": "DO", "coord": {"lon": -71.635612, "lat": 18.543739}}, {"id": 3494552, "name": "Pont\u00f3n Abajo", "state": "", "country": "DO", "coord": {"lon": -70.51667, "lat": 19.216669}}, {"id": 3494584, "name": "Polo", "state": "", "country": "DO", "coord": {"lon": -71.287231, "lat": 18.07873}}, {"id": 3494655, "name": "Pizarrete", "state": "", "country": "DO", "coord": {"lon": -70.216667, "lat": 18.299999}}, {"id": 3494768, "name": "Pimentel", "state": "", "country": "DO", "coord": {"lon": -70.108841, "lat": 19.18416}}, {"id": 3494770, "name": "Piloto", "state": "", "country": "DO", "coord": {"lon": -71.204803, "lat": 19.601049}}, {"id": 3494863, "name": "Piedra Blanca", "state": "", "country": "DO", "coord": {"lon": -70.316879, "lat": 18.844311}}, {"id": 3494979, "name": "Pescader\u00eda", "state": "", "country": "DO", "coord": {"lon": -71.166122, "lat": 18.26766}}, {"id": 3495015, "name": "Provincia de Peravia", "state": "", "country": "DO", "coord": {"lon": -70.366669, "lat": 18.33333}}, {"id": 3495020, "name": "Peralta", "state": "", "country": "DO", "coord": {"lon": -70.770287, "lat": 18.58164}}, {"id": 3495024, "name": "Pepillo Salcedo", "state": "", "country": "DO", "coord": {"lon": -71.745132, "lat": 19.69841}}, {"id": 3495098, "name": "Pedro Santana", "state": "", "country": "DO", "coord": {"lon": -71.694977, "lat": 19.10515}}, {"id": 3495102, "name": "Pedro S\u00e1nchez", "state": "", "country": "DO", "coord": {"lon": -69.108681, "lat": 18.86375}}, {"id": 3495111, "name": "Pedro Garc\u00eda", "state": "", "country": "DO", "coord": {"lon": -70.652557, "lat": 19.59202}}, {"id": 3495115, "name": "Pedro Corto", "state": "", "country": "DO", "coord": {"lon": -71.410408, "lat": 18.84856}}, {"id": 3495136, "name": "Provincia de Pedernales", "state": "", "country": "DO", "coord": {"lon": -71.495003, "lat": 18.066389}}, {"id": 3495137, "name": "Pedernales", "state": "", "country": "DO", "coord": {"lon": -71.744034, "lat": 18.03838}}, {"id": 3495159, "name": "Paya", "state": "", "country": "DO", "coord": {"lon": -70.300003, "lat": 18.25}}, {"id": 3495256, "name": "Partido", "state": "", "country": "DO", "coord": {"lon": -71.547302, "lat": 19.48403}}, {"id": 3495272, "name": "Para\u00edso", "state": "", "country": "DO", "coord": {"lon": -71.16526, "lat": 17.99172}}, {"id": 3495304, "name": "Pantoja", "state": "", "country": "DO", "coord": {"lon": -70.0, "lat": 18.51667}}, {"id": 3495313, "name": "Pantanal", "state": "", "country": "DO", "coord": {"lon": -68.365578, "lat": 18.52688}}, {"id": 3495546, "name": "Palmar de Ocoa", "state": "", "country": "DO", "coord": {"lon": -70.586349, "lat": 18.29656}}, {"id": 3495555, "name": "Palmar Arriba", "state": "", "country": "DO", "coord": {"lon": -70.738258, "lat": 19.53957}}, {"id": 3495664, "name": "Padre Las Casas", "state": "", "country": "DO", "coord": {"lon": -70.939163, "lat": 18.73172}}, {"id": 3495684, "name": "Oviedo", "state": "", "country": "DO", "coord": {"lon": -71.401001, "lat": 17.801359}}, {"id": 3495694, "name": "Otra Banda", "state": "", "country": "DO", "coord": {"lon": -68.662811, "lat": 18.65016}}, {"id": 3495811, "name": "Nizao", "state": "", "country": "DO", "coord": {"lon": -70.199997, "lat": 18.25}}, {"id": 3495857, "name": "Neiba", "state": "", "country": "DO", "coord": {"lon": -71.419647, "lat": 18.48138}}, {"id": 3495858, "name": "Neiba", "state": "", "country": "DO", "coord": {"lon": -71.416672, "lat": 18.5}}, {"id": 3495964, "name": "Naranjo", "state": "", "country": "DO", "coord": {"lon": -69.848473, "lat": 18.82176}}, {"id": 3496021, "name": "Nagua", "state": "", "country": "DO", "coord": {"lon": -69.847397, "lat": 19.3832}}, {"id": 3496024, "name": "Distrito Nacional", "state": "", "country": "DO", "coord": {"lon": -69.933327, "lat": 18.48333}}, {"id": 3496132, "name": "Provincia de Monte Plata", "state": "", "country": "DO", "coord": {"lon": -69.833328, "lat": 18.83333}}, {"id": 3496134, "name": "Monte Plata", "state": "", "country": "DO", "coord": {"lon": -69.783989, "lat": 18.806999}}, {"id": 3496200, "name": "Provincia de Monte Cristi", "state": "", "country": "DO", "coord": {"lon": -71.416672, "lat": 19.66667}}, {"id": 3496247, "name": "Monte Adentro", "state": "", "country": "DO", "coord": {"lon": -69.650002, "lat": 18.433331}}, {"id": 3496274, "name": "Provincia de Monse\u00f1or Nouel", "state": "", "country": "DO", "coord": {"lon": -70.416672, "lat": 18.91667}}, {"id": 3496284, "name": "Monci\u00f3n", "state": "", "country": "DO", "coord": {"lon": -71.152573, "lat": 19.410839}}, {"id": 3496331, "name": "Moca", "state": "", "country": "DO", "coord": {"lon": -70.525978, "lat": 19.39352}}, {"id": 3496332, "name": "Moca", "state": "", "country": "DO", "coord": {"lon": -70.5, "lat": 19.5}}, {"id": 3496396, "name": "Miches", "state": "", "country": "DO", "coord": {"lon": -69.0476, "lat": 18.983641}}, {"id": 3496446, "name": "Mella", "state": "", "country": "DO", "coord": {"lon": -71.41716, "lat": 18.358709}}, {"id": 3496460, "name": "Mej\u00eda de Navarrete", "state": "", "country": "DO", "coord": {"lon": -70.883331, "lat": 19.566669}}, {"id": 3496574, "name": "Matayaya", "state": "", "country": "DO", "coord": {"lon": -71.594589, "lat": 18.89036}}, {"id": 3496601, "name": "Matanzas", "state": "", "country": "DO", "coord": {"lon": -70.416672, "lat": 18.23333}}, {"id": 3496751, "name": "Marmolejos", "state": "", "country": "DO", "coord": {"lon": -69.949997, "lat": 18.5}}, {"id": 3496772, "name": "Provincia Mar\u00eda Trinidad S\u00e1nchez", "state": "", "country": "DO", "coord": {"lon": -70.0, "lat": 19.5}}, {"id": 3496831, "name": "Mao", "state": "", "country": "DO", "coord": {"lon": -71.078133, "lat": 19.551861}}, {"id": 3496939, "name": "Mancha Nueva", "state": "", "country": "DO", "coord": {"lon": -69.683327, "lat": 18.433331}}, {"id": 3497042, "name": "Mamey", "state": "", "country": "DO", "coord": {"lon": -69.900002, "lat": 18.566669}}, {"id": 3497176, "name": "Majagual", "state": "", "country": "DO", "coord": {"lon": -69.836159, "lat": 19.04134}}, {"id": 3497204, "name": "Maizal", "state": "", "country": "DO", "coord": {"lon": -71.027344, "lat": 19.636551}}, {"id": 3497350, "name": "Luper\u00f3n", "state": "", "country": "DO", "coord": {"lon": -70.962044, "lat": 19.891319}}, {"id": 3497564, "name": "Los R\u00edos", "state": "", "country": "DO", "coord": {"lon": -71.591057, "lat": 18.521311}}, {"id": 3497585, "name": "Los Rinconcitos", "state": "", "country": "DO", "coord": {"lon": -71.77668, "lat": 18.957319}}, {"id": 3497667, "name": "Los Prados", "state": "", "country": "DO", "coord": {"lon": -69.949997, "lat": 18.466669}}, {"id": 3498029, "name": "Los Montones Abajo", "state": "", "country": "DO", "coord": {"lon": -70.099167, "lat": 18.531731}}, {"id": 3498191, "name": "Los Llanos", "state": "", "country": "DO", "coord": {"lon": -69.495811, "lat": 18.62035}}, {"id": 3498418, "name": "Los Hidalgos", "state": "", "country": "DO", "coord": {"lon": -71.033333, "lat": 19.73333}}, {"id": 3498607, "name": "Los Frailes", "state": "", "country": "DO", "coord": {"lon": -69.89798, "lat": 18.75625}}, {"id": 3499230, "name": "Los Botados", "state": "", "country": "DO", "coord": {"lon": -69.995361, "lat": 18.73226}}, {"id": 3499450, "name": "Los Amaceyes", "state": "", "country": "DO", "coord": {"lon": -71.116669, "lat": 18.216669}}, {"id": 3499559, "name": "Loma La Cruz", "state": "", "country": "DO", "coord": {"lon": -69.457848, "lat": 19.272751}}, {"id": 3499574, "name": "Loma del Yaque", "state": "", "country": "DO", "coord": {"lon": -71.063141, "lat": 18.784719}}, {"id": 3499602, "name": "Loma de Cabrera", "state": "", "country": "DO", "coord": {"lon": -71.599998, "lat": 19.433331}}, {"id": 3499748, "name": "Licey al Medio", "state": "", "country": "DO", "coord": {"lon": -70.599998, "lat": 19.433331}}, {"id": 3499829, "name": "L\u00e1zaro", "state": "", "country": "DO", "coord": {"lon": -71.326149, "lat": 19.455839}}, {"id": 3499976, "name": "La Venta", "state": "", "country": "DO", "coord": {"lon": -69.966667, "lat": 18.48333}}, {"id": 3499977, "name": "Provincia de La Vega", "state": "", "country": "DO", "coord": {"lon": -70.616669, "lat": 19.116671}}, {"id": 3500013, "name": "La Uvilla", "state": "", "country": "DO", "coord": {"lon": -71.210457, "lat": 18.36186}}, {"id": 3500243, "name": "Las Terrenas", "state": "", "country": "DO", "coord": {"lon": -69.542801, "lat": 19.31102}}, {"id": 3500261, "name": "Las Salinas", "state": "", "country": "DO", "coord": {"lon": -71.315964, "lat": 18.274851}}, {"id": 3500367, "name": "Las Matas de Santa Cruz", "state": "", "country": "DO", "coord": {"lon": -71.504707, "lat": 19.67119}}, {"id": 3500370, "name": "Las Matas de Farf\u00e1n", "state": "", "country": "DO", "coord": {"lon": -71.516563, "lat": 18.873091}}, {"id": 3500432, "name": "Las Lagunas", "state": "", "country": "DO", "coord": {"lon": -70.783333, "lat": 19.533331}}, {"id": 3500518, "name": "Las Gu\u00e1ranas", "state": "", "country": "DO", "coord": {"lon": -70.208351, "lat": 19.1931}}, {"id": 3500641, "name": "Las Charcas", "state": "", "country": "DO", "coord": {"lon": -70.617241, "lat": 18.45026}}, {"id": 3500955, "name": "Provincia de La Romana", "state": "", "country": "DO", "coord": {"lon": -68.966667, "lat": 18.5}}, {"id": 3500957, "name": "La Romana", "state": "", "country": "DO", "coord": {"lon": -68.972847, "lat": 18.42734}}, {"id": 3502015, "name": "La Laguneta", "state": "", "country": "DO", "coord": {"lon": -70.184998, "lat": 19.30228}}, {"id": 3502373, "name": "Laguna Salada", "state": "", "country": "DO", "coord": {"lon": -71.09446, "lat": 19.64827}}, {"id": 3502497, "name": "La Guamita", "state": "", "country": "DO", "coord": {"lon": -70.684601, "lat": 18.92034}}, {"id": 3502616, "name": "La Fuentecita", "state": "", "country": "DO", "coord": {"lon": -71.428673, "lat": 18.475349}}, {"id": 3502675, "name": "La Excavaci\u00f3n", "state": "", "country": "DO", "coord": {"lon": -70.092751, "lat": 19.181089}}, {"id": 3502736, "name": "La Ermita", "state": "", "country": "DO", "coord": {"lon": -70.608803, "lat": 19.477039}}, {"id": 3502745, "name": "La Entrada", "state": "", "country": "DO", "coord": {"lon": -69.907623, "lat": 19.553671}}, {"id": 3502786, "name": "La Descubierta", "state": "", "country": "DO", "coord": {"lon": -71.729668, "lat": 18.57053}}, {"id": 3502935, "name": "La Cruz de Mendoza", "state": "", "country": "DO", "coord": {"lon": -69.866669, "lat": 18.48333}}, {"id": 3503011, "name": "La Colorada", "state": "", "country": "DO", "coord": {"lon": -70.017212, "lat": 18.770281}}, {"id": 3503100, "name": "La Ci\u00e9naga", "state": "", "country": "DO", "coord": {"lon": -71.106506, "lat": 18.068581}}, {"id": 3503256, "name": "La Caya", "state": "", "country": "DO", "coord": {"lon": -71.120842, "lat": 19.69981}}, {"id": 3503338, "name": "La Canela", "state": "", "country": "DO", "coord": {"lon": -70.816292, "lat": 19.47341}}, {"id": 3503706, "name": "Provincia de La Altagracia", "state": "", "country": "DO", "coord": {"lon": -68.633331, "lat": 18.58333}}, {"id": 3503782, "name": "Juncalito Abajo", "state": "", "country": "DO", "coord": {"lon": -70.819054, "lat": 19.2199}}, {"id": 3503811, "name": "Juan Santiago", "state": "", "country": "DO", "coord": {"lon": -71.589706, "lat": 18.703421}}, {"id": 3503845, "name": "Juan L\u00f3pez Abajo", "state": "", "country": "DO", "coord": {"lon": -70.5, "lat": 19.433331}}, {"id": 3503900, "name": "Juan de Herrera", "state": "", "country": "DO", "coord": {"lon": -71.238297, "lat": 18.87402}}, {"id": 3503910, "name": "Juancho", "state": "", "country": "DO", "coord": {"lon": -71.293114, "lat": 17.857821}}, {"id": 3503936, "name": "Juan Antonio Alix", "state": "", "country": "DO", "coord": {"lon": -70.599998, "lat": 19.4}}, {"id": 3503950, "name": "Juan Adri\u00e1n", "state": "", "country": "DO", "coord": {"lon": -70.337318, "lat": 18.763651}}, {"id": 3504033, "name": "Joba Arriba", "state": "", "country": "DO", "coord": {"lon": -70.26667, "lat": 19.566669}}, {"id": 3504077, "name": "Jiman\u00ed", "state": "", "country": "DO", "coord": {"lon": -71.85022, "lat": 18.49169}}, {"id": 3504080, "name": "Jima Abajo", "state": "", "country": "DO", "coord": {"lon": -70.376068, "lat": 19.132919}}, {"id": 3504097, "name": "Jicom\u00e9", "state": "", "country": "DO", "coord": {"lon": -70.949272, "lat": 19.649561}}, {"id": 3504158, "name": "Jarabacoa", "state": "", "country": "DO", "coord": {"lon": -70.642181, "lat": 19.12178}}, {"id": 3504160, "name": "Jaquimeyes", "state": "", "country": "DO", "coord": {"lon": -71.161453, "lat": 18.311729}}, {"id": 3504175, "name": "Jamao al Norte", "state": "", "country": "DO", "coord": {"lon": -70.44664, "lat": 19.635521}}, {"id": 3504193, "name": "Jaib\u00f3n", "state": "", "country": "DO", "coord": {"lon": -71.148468, "lat": 19.611691}}, {"id": 3504326, "name": "Provincia de Independencia", "state": "", "country": "DO", "coord": {"lon": -71.5, "lat": 18.25}}, {"id": 3504332, "name": "Imbert", "state": "", "country": "DO", "coord": {"lon": -70.829063, "lat": 19.75371}}, {"id": 3504438, "name": "Hostos", "state": "", "country": "DO", "coord": {"lon": -70.020462, "lat": 19.180429}}, {"id": 3504466, "name": "Hondo Valle", "state": "", "country": "DO", "coord": {"lon": -71.695107, "lat": 18.71599}}, {"id": 3504702, "name": "Herrera", "state": "", "country": "DO", "coord": {"lon": -69.966667, "lat": 18.466669}}, {"id": 3504765, "name": "Hato Mayor del Rey", "state": "", "country": "DO", "coord": {"lon": -69.256813, "lat": 18.762779}}, {"id": 3504766, "name": "Provincia de Hato Mayor", "state": "", "country": "DO", "coord": {"lon": -69.333328, "lat": 18.83333}}, {"id": 3504793, "name": "Hatillo Palma", "state": "", "country": "DO", "coord": {"lon": -71.194061, "lat": 19.66256}}, {"id": 3504815, "name": "Hatico", "state": "", "country": "DO", "coord": {"lon": -71.074661, "lat": 19.567341}}, {"id": 3504837, "name": "Habanero", "state": "", "country": "DO", "coord": {"lon": -71.133331, "lat": 18.25}}, {"id": 3504951, "name": "Guaymate", "state": "", "country": "DO", "coord": {"lon": -68.978668, "lat": 18.587931}}, {"id": 3504983, "name": "Guayabo Dulce", "state": "", "country": "DO", "coord": {"lon": -69.283333, "lat": 18.65}}, {"id": 3505006, "name": "Guayabo", "state": "", "country": "DO", "coord": {"lon": -69.630692, "lat": 18.75215}}, {"id": 3505029, "name": "Guayabal", "state": "", "country": "DO", "coord": {"lon": -71.641838, "lat": 18.598101}}, {"id": 3505034, "name": "Guatapanal", "state": "", "country": "DO", "coord": {"lon": -70.91713, "lat": 19.50704}}, {"id": 3505128, "name": "Guananico", "state": "", "country": "DO", "coord": {"lon": -70.922943, "lat": 19.726931}}, {"id": 3505392, "name": "Gran Calle", "state": "", "country": "DO", "coord": {"lon": -68.922073, "lat": 18.462021}}, {"id": 3505432, "name": "Gonzalo", "state": "", "country": "DO", "coord": {"lon": -69.751137, "lat": 18.951469}}, {"id": 3505488, "name": "Gaspar Hern\u00e1ndez", "state": "", "country": "DO", "coord": {"lon": -70.28112, "lat": 19.628901}}, {"id": 3505517, "name": "Galv\u00e1n", "state": "", "country": "DO", "coord": {"lon": -71.342712, "lat": 18.502279}}, {"id": 3505612, "name": "Fundaci\u00f3n", "state": "", "country": "DO", "coord": {"lon": -71.181473, "lat": 18.28668}}, {"id": 3505778, "name": "Fantino", "state": "", "country": "DO", "coord": {"lon": -70.299721, "lat": 19.121481}}, {"id": 3505819, "name": "Estero Hondo", "state": "", "country": "DO", "coord": {"lon": -71.17411, "lat": 19.82712}}, {"id": 3505825, "name": "Esteban\u00eda", "state": "", "country": "DO", "coord": {"lon": -70.643501, "lat": 18.457701}}, {"id": 3505855, "name": "Esperanza", "state": "", "country": "DO", "coord": {"lon": -70.984894, "lat": 19.5847}}, {"id": 3505861, "name": "Esperalvillo", "state": "", "country": "DO", "coord": {"lon": -70.035568, "lat": 18.81509}}, {"id": 3505867, "name": "Provincia Espaillat", "state": "", "country": "DO", "coord": {"lon": -70.449997, "lat": 19.5}}, {"id": 3505933, "name": "Ensanche Piantini", "state": "", "country": "DO", "coord": {"lon": -69.949997, "lat": 18.466669}}, {"id": 3505943, "name": "Ensanche Bella Vista", "state": "", "country": "DO", "coord": {"lon": -69.599998, "lat": 18.450001}}, {"id": 3505947, "name": "Enriquillo", "state": "", "country": "DO", "coord": {"lon": -71.23333, "lat": 17.9}}, {"id": 3506034, "name": "El Valle", "state": "", "country": "DO", "coord": {"lon": -69.378273, "lat": 18.97567}}, {"id": 3506189, "name": "Provincia de El Seibo", "state": "", "country": "DO", "coord": {"lon": -69.050003, "lat": 18.799999}}, {"id": 3506235, "name": "El Sabroso", "state": "", "country": "DO", "coord": {"lon": -70.244843, "lat": 19.494801}}, {"id": 3506415, "name": "El Puerto", "state": "", "country": "DO", "coord": {"lon": -69.466667, "lat": 18.783331}}, {"id": 3506541, "name": "El Pino", "state": "", "country": "DO", "coord": {"lon": -71.475403, "lat": 19.43536}}, {"id": 3506630, "name": "El Pe\u00f1\u00f3n", "state": "", "country": "DO", "coord": {"lon": -71.184097, "lat": 18.296431}}, {"id": 3506719, "name": "El Palmar", "state": "", "country": "DO", "coord": {"lon": -71.245583, "lat": 18.41139}}, {"id": 3507117, "name": "El Llano", "state": "", "country": "DO", "coord": {"lon": -71.633331, "lat": 18.816669}}, {"id": 3507247, "name": "El Jamo", "state": "", "country": "DO", "coord": {"lon": -69.904984, "lat": 19.6318}}, {"id": 3507269, "name": "Provincia de El\u00edas Pi\u00f1a", "state": "", "country": "DO", "coord": {"lon": -71.583328, "lat": 19.0}}, {"id": 3507304, "name": "El Hoyito", "state": "", "country": "DO", "coord": {"lon": -69.966011, "lat": 19.416969}}, {"id": 3507461, "name": "El Guayabal", "state": "", "country": "DO", "coord": {"lon": -70.836899, "lat": 18.749599}}, {"id": 3507628, "name": "El Factor", "state": "", "country": "DO", "coord": {"lon": -69.888268, "lat": 19.31834}}, {"id": 3507662, "name": "El Ensanchito", "state": "", "country": "DO", "coord": {"lon": -69.900002, "lat": 18.48333}}, {"id": 3507770, "name": "El Cruce", "state": "", "country": "DO", "coord": {"lon": -70.199997, "lat": 18.450001}}, {"id": 3507810, "name": "El Corozal", "state": "", "country": "DO", "coord": {"lon": -70.349998, "lat": 19.366671}}, {"id": 3507852, "name": "El Consuelo", "state": "", "country": "DO", "coord": {"lon": -70.074821, "lat": 18.739161}}, {"id": 3508010, "name": "El Cercado", "state": "", "country": "DO", "coord": {"lon": -70.757782, "lat": 18.915119}}, {"id": 3508083, "name": "El Carril", "state": "", "country": "DO", "coord": {"lon": -70.027847, "lat": 18.449051}}, {"id": 3508170, "name": "El Callej\u00f3n", "state": "", "country": "DO", "coord": {"lon": -69.533333, "lat": 19.316669}}, {"id": 3508234, "name": "El Caim\u00e1n", "state": "", "country": "DO", "coord": {"lon": -70.288239, "lat": 19.61097}}, {"id": 3508266, "name": "El Cach\u00f3n", "state": "", "country": "DO", "coord": {"lon": -69.933327, "lat": 18.5}}, {"id": 3508286, "name": "El Cacao", "state": "", "country": "DO", "coord": {"lon": -70.295853, "lat": 18.527189}}, {"id": 3508503, "name": "El Alto Espino", "state": "", "country": "DO", "coord": {"lon": -70.300003, "lat": 19.116671}}, {"id": 3508569, "name": "El Alto", "state": "", "country": "DO", "coord": {"lon": -70.449997, "lat": 18.616671}}, {"id": 3508639, "name": "El Aguacate", "state": "", "country": "DO", "coord": {"lon": -70.540932, "lat": 19.600719}},