[{"id": 3531221, "name": "Chahuite", "state": "", "country": "MX", "coord": {"lon": -94.183327, "lat": 16.299999}}, {"id": 3531240, "name": "Chachapa", "state": "", "country": "MX", "coord": {"lon": -98.083328, "lat": 19.033331}}, {"id": 3531258, "name": "Chacaltianguis", "state": "", "country": "MX", "coord": {"lon": -95.833328, "lat": 18.33333}}, {"id": 3531263, "name": "Chacalapa de Bravos", "state": "", "country": "MX", "coord": {"lon": -99.533333, "lat": 17.0}}, {"id": 3531321, "name": "Cerro Azul", "state": "", "country": "MX", "coord": {"lon": -97.73333, "lat": 21.200001}}, {"id": 3531362, "name": "Cenotillo", "state": "", "country": "MX", "coord": {"lon": -88.616669, "lat": 20.966669}}, {"id": 3531368, "name": "Celest\u00fan", "state": "", "country": "MX", "coord": {"lon": -90.400002, "lat": 20.866671}}, {"id": 3531391, "name": "Cazones de Herrera", "state": "", "country": "MX", "coord": {"lon": -97.316673, "lat": 20.716669}}, {"id": 3531398, "name": "Caxhuac\u00e1n", "state": "", "country": "MX", "coord": {"lon": -97.599998, "lat": 20.066669}}, {"id": 3531406, "name": "Caucel", "state": "", "country": "MX", "coord": {"lon": -89.716667, "lat": 21.01667}}, {"id": 3531416, "name": "Catemaco", "state": "", "country": "MX", "coord": {"lon": -95.116669, "lat": 18.41667}}, {"id": 3531434, "name": "Castillo de Teayo", "state": "", "country": "MX", "coord": {"lon": -97.616669, "lat": 20.75}}, {"id": 3531556, "name": "Carlos A. Carrillo", "state": "", "country": "MX", "coord": {"lon": -95.75, "lat": 18.366671}}, {"id": 3531570, "name": "Cardonal", "state": "", "country": "MX", "coord": {"lon": -99.116669, "lat": 20.616671}}, {"id": 3531571, "name": "Cardonal", "state": "", "country": "MX", "coord": {"lon": -99.133331, "lat": 20.6}}, {"id": 3531574, "name": "C\u00e1rdenas", "state": "", "country": "MX", "coord": {"lon": -99.666672, "lat": 22.0}}, {"id": 3531576, "name": "C\u00e1rdenas", "state": "", "country": "MX", "coord": {"lon": -93.366669, "lat": 17.98333}}, {"id": 3531598, "name": "Capulhuac de Mirafuentes", "state": "", "country": "MX", "coord": {"lon": -99.466942, "lat": 19.191389}}, {"id": 3531604, "name": "Capula", "state": "", "country": "MX", "coord": {"lon": -99.916672, "lat": 18.866671}}, {"id": 3531628, "name": "Cantamayec", "state": "", "country": "MX", "coord": {"lon": -89.083328, "lat": 20.48333}}, {"id": 3531632, "name": "Cansahcab", "state": "", "country": "MX", "coord": {"lon": -89.099998, "lat": 21.16667}}, {"id": 3531664, "name": "Candelaria", "state": "", "country": "MX", "coord": {"lon": -91.349998, "lat": 18.299999}}, {"id": 3531673, "name": "Canc\u00fan", "state": "", "country": "MX", "coord": {"lon": -86.846558, "lat": 21.17429}}, {"id": 3531674, "name": "Cancuc", "state": "", "country": "MX", "coord": {"lon": -92.48333, "lat": 16.91667}}, {"id": 3531698, "name": "Canaleja", "state": "", "country": "MX", "coord": {"lon": -99.566673, "lat": 19.33333}}, {"id": 3531728, "name": "Campestre Churubusco", "state": "", "country": "MX", "coord": {"lon": -99.133331, "lat": 19.35}}, {"id": 3531730, "name": "Estado de Campeche", "state": "", "country": "MX", "coord": {"lon": -90.5, "lat": 19.0}}, {"id": 3531732, "name": "Campeche", "state": "", "country": "MX", "coord": {"lon": -90.533333, "lat": 19.85}}, {"id": 3531764, "name": "Camargo", "state": "", "country": "MX", "coord": {"lon": -98.833328, "lat": 26.25}}, {"id": 3531782, "name": "San Mart\u00edn Caltenco", "state": "", "country": "MX", "coord": {"lon": -97.800003, "lat": 18.9}}, {"id": 3531784, "name": "Calpulalpan", "state": "", "country": "MX", "coord": {"lon": -98.583328, "lat": 19.58333}}, {"id": 3531789, "name": "Calnali", "state": "", "country": "MX", "coord": {"lon": -98.583328, "lat": 20.91667}}, {"id": 3531790, "name": "Calmeca", "state": "", "country": "MX", "coord": {"lon": -98.633331, "lat": 18.633329}}, {"id": 3531793, "name": "Calkin\u00ed", "state": "", "country": "MX", "coord": {"lon": -90.050003, "lat": 20.366671}}, {"id": 3531794, "name": "Calixtlahuaca", "state": "", "country": "MX", "coord": {"lon": -99.691109, "lat": 19.334169}}, {"id": 3531798, "name": "Calimaya", "state": "", "country": "MX", "coord": {"lon": -99.620827, "lat": 19.16}}, {"id": 3531816, "name": "Calderitas", "state": "", "country": "MX", "coord": {"lon": -88.25, "lat": 18.549999}}, {"id": 3531819, "name": "Calderas", "state": "", "country": "MX", "coord": {"lon": -88.25, "lat": 18.549999}}, {"id": 3531832, "name": "Calacoaya", "state": "", "country": "MX", "coord": {"lon": -99.26667, "lat": 19.533331}}, {"id": 3531863, "name": "Cadereyta", "state": "", "country": "MX", "coord": {"lon": -99.816673, "lat": 20.700001}}, {"id": 3531865, "name": "Cadereyta", "state": "", "country": "MX", "coord": {"lon": -99.98333, "lat": 25.58333}}, {"id": 3531875, "name": "San Lorenzo Cacaotepec", "state": "", "country": "MX", "coord": {"lon": -96.800003, "lat": 17.133329}}, {"id": 3531883, "name": "Santiago Cacaloxtepec", "state": "", "country": "MX", "coord": {"lon": -97.747223, "lat": 17.728609}}, {"id": 3531888, "name": "Cacalox\u00fachitl", "state": "", "country": "MX", "coord": {"lon": -98.48333, "lat": 18.783331}}, {"id": 3531889, "name": "Cacalomacan", "state": "", "country": "MX", "coord": {"lon": -99.707222, "lat": 19.254169}}, {"id": 3531892, "name": "Cacalchen", "state": "", "country": "MX", "coord": {"lon": -89.23333, "lat": 20.98333}}, {"id": 3531904, "name": "Cacahoat\u00e1n", "state": "", "country": "MX", "coord": {"lon": -92.166672, "lat": 14.98333}}, {"id": 3531972, "name": "Buenavista de Cu\u00e9llar", "state": "", "country": "MX", "coord": {"lon": -99.416672, "lat": 18.450001}}, {"id": 3532053, "name": "Buenavista", "state": "", "country": "MX", "coord": {"lon": -92.533333, "lat": 17.91667}}, {"id": 3532089, "name": "Buctzotz", "state": "", "country": "MX", "coord": {"lon": -88.783333, "lat": 21.200001}}, {"id": 3532182, "name": "Bochil", "state": "", "country": "MX", "coord": {"lon": -92.916672, "lat": 16.98333}}, {"id": 3532185, "name": "Boca R\u00edo Hondo", "state": "", "country": "MX", "coord": {"lon": -88.316673, "lat": 18.48333}}, {"id": 3532188, "name": "Miguel Bocanegra", "state": "", "country": "MX", "coord": {"lon": -99.099998, "lat": 19.85}}, {"id": 3532193, "name": "Boca del Rio", "state": "", "country": "MX", "coord": {"lon": -96.099998, "lat": 19.1}}, {"id": 3532197, "name": "Boca del Monte", "state": "", "country": "MX", "coord": {"lon": -96.816673, "lat": 19.15}}, {"id": 3532254, "name": "Berrioz\u00e1bal", "state": "", "country": "MX", "coord": {"lon": -93.26667, "lat": 16.799999}}, {"id": 3532263, "name": "Bernal", "state": "", "country": "MX", "coord": {"lon": -99.941254, "lat": 20.740299}}, {"id": 3532276, "name": "Benito Ju\u00e1rez", "state": "", "country": "MX", "coord": {"lon": -98.199997, "lat": 20.9}}, {"id": 3532278, "name": "Benito Ju\u00e1rez", "state": "", "country": "MX", "coord": {"lon": -97.75, "lat": 19.83333}}, {"id": 3532279, "name": "Benito Ju\u00e1rez", "state": "", "country": "MX", "coord": {"lon": -97.916672, "lat": 19.366671}}, {"id": 3532310, "name": "Bel\u00e9n", "state": "", "country": "MX", "coord": {"lon": -92.616669, "lat": 17.799999}}, {"id": 3532326, "name": "B\u00e9cal", "state": "", "country": "MX", "coord": {"lon": -90.033333, "lat": 20.450001}}, {"id": 3532347, "name": "Barrio Norte", "state": "", "country": "MX", "coord": {"lon": -99.199997, "lat": 19.35}}, {"id": 3532414, "name": "Banderilla", "state": "", "country": "MX", "coord": {"lon": -96.933327, "lat": 19.58333}}, {"id": 3532443, "name": "Balanc\u00e1n", "state": "", "country": "MX", "coord": {"lon": -91.533333, "lat": 17.799999}}, {"id": 3532446, "name": "Bajos del Ejido", "state": "", "country": "MX", "coord": {"lon": -99.966667, "lat": 16.950001}}, {"id": 3532465, "name": "Bacalar", "state": "", "country": "MX", "coord": {"lon": -88.383331, "lat": 18.66667}}, {"id": 3532467, "name": "Baca", "state": "", "country": "MX", "coord": {"lon": -89.416672, "lat": 21.1}}, {"id": 3532490, "name": "Azoy\u00fa", "state": "", "country": "MX", "coord": {"lon": -98.73333, "lat": 16.716669}}, {"id": 3532497, "name": "Azcapotzalco", "state": "", "country": "MX", "coord": {"lon": -99.183609, "lat": 19.48889}}, {"id": 3532499, "name": "Ayutla de los Libres", "state": "", "country": "MX", "coord": {"lon": -99.216667, "lat": 16.9}}, {"id": 3532506, "name": "Ayutla", "state": "", "country": "MX", "coord": {"lon": -98.5, "lat": 18.549999}}, {"id": 3532510, "name": "Ayotzintepec", "state": "", "country": "MX", "coord": {"lon": -96.133331, "lat": 17.66667}}, {"id": 3532513, "name": "Ayotuxco", "state": "", "country": "MX", "coord": {"lon": -99.816673, "lat": 18.75}}, {"id": 3532514, "name": "Ayotoxco de Guerrero", "state": "", "country": "MX", "coord": {"lon": -97.400002, "lat": 20.1}}, {"id": 3532521, "name": "Ayometitla", "state": "", "country": "MX", "coord": {"lon": -98.199997, "lat": 19.200001}}, {"id": 3532526, "name": "Ayapa", "state": "", "country": "MX", "coord": {"lon": -93.166672, "lat": 18.183331}}, {"id": 3532530, "name": "Ciudad Ayala", "state": "", "country": "MX", "coord": {"lon": -98.98333, "lat": 18.75}}, {"id": 3532536, "name": "Ayotla", "state": "", "country": "MX", "coord": {"lon": -98.366669, "lat": 18.66667}}, {"id": 3532545, "name": "Axochiapan", "state": "", "country": "MX", "coord": {"lon": -98.76667, "lat": 18.5}}, {"id": 3532548, "name": "Axapusco", "state": "", "country": "MX", "coord": {"lon": -98.75, "lat": 19.73333}}, {"id": 3532560, "name": "Atzitzintla", "state": "", "country": "MX", "coord": {"lon": -97.316673, "lat": 18.9}}, {"id": 3532561, "name": "Atzalan", "state": "", "country": "MX", "coord": {"lon": -97.216667, "lat": 19.799999}}, {"id": 3532563, "name": "Atzala", "state": "", "country": "MX", "coord": {"lon": -98.550003, "lat": 18.533331}}, {"id": 3532565, "name": "Atzacan", "state": "", "country": "MX", "coord": {"lon": -97.083328, "lat": 18.9}}, {"id": 3532569, "name": "Atoyatempan", "state": "", "country": "MX", "coord": {"lon": -97.916672, "lat": 18.816669}}, {"id": 3532577, "name": "Atotonilco el Grande", "state": "", "country": "MX", "coord": {"lon": -98.666672, "lat": 20.283331}}, {"id": 3532580, "name": "San Antonio Atotonilco", "state": "", "country": "MX", "coord": {"lon": -98.466667, "lat": 19.366671}}, {"id": 3532592, "name": "Atlixco", "state": "", "country": "MX", "coord": {"lon": -98.436127, "lat": 18.90815}}, {"id": 3532597, "name": "Atliaca", "state": "", "country": "MX", "coord": {"lon": -99.366669, "lat": 17.65}}, {"id": 3532601, "name": "Atlautla", "state": "", "country": "MX", "coord": {"lon": -98.783333, "lat": 19.01667}}, {"id": 3532602, "name": "Atlatongo", "state": "", "country": "MX", "coord": {"lon": -98.900002, "lat": 19.66667}}, {"id": 3532603, "name": "Atlatlahucan", "state": "", "country": "MX", "coord": {"lon": -98.900002, "lat": 18.933331}}, {"id": 3532604, "name": "San Bartolom\u00e9 Atlatlahuca", "state": "", "country": "MX", "coord": {"lon": -99.61306, "lat": 19.06694}}, {"id": 3532607, "name": "Atlapexco", "state": "", "country": "MX", "coord": {"lon": -98.349998, "lat": 21.01667}}, {"id": 3532614, "name": "Atlamajalcingo del Monte", "state": "", "country": "MX", "coord": {"lon": -98.683327, "lat": 17.183331}}, {"id": 3532617, "name": "Atlacomulco de Fabela", "state": "", "country": "MX", "coord": {"lon": -99.874443, "lat": 19.798889}}, {"id": 3532624, "name": "Ciudad L\u00f3pez Mateos", "state": "", "country": "MX", "coord": {"lon": -99.261391, "lat": 19.558331}}, {"id": 3532625, "name": "Atizap\u00e1n", "state": "", "country": "MX", "coord": {"lon": -99.550003, "lat": 19.25}}, {"id": 3532627, "name": "Atitalaquia", "state": "", "country": "MX", "coord": {"lon": -99.216667, "lat": 20.066669}}, {"id": 3532634, "name": "Atengo", "state": "", "country": "MX", "coord": {"lon": -99.333328, "lat": 20.16667}}, {"id": 3532636, "name": "Atencingo", "state": "", "country": "MX", "coord": {"lon": -98.599998, "lat": 18.51667}}, {"id": 3532638, "name": "Atenango del R\u00edo", "state": "", "country": "MX", "coord": {"lon": -99.099998, "lat": 18.08333}}, {"id": 3532639, "name": "Atempan", "state": "", "country": "MX", "coord": {"lon": -97.433327, "lat": 19.85}}, {"id": 3532655, "name": "Asunci\u00f3n Ocotl\u00e1n", "state": "", "country": "MX", "coord": {"lon": -96.716667, "lat": 16.76667}}, {"id": 3532656, "name": "Asunci\u00f3n Nochixtl\u00e1n", "state": "", "country": "MX", "coord": {"lon": -97.23333, "lat": 17.466669}}, {"id": 3532658, "name": "Asunci\u00f3n Ixtaltepec", "state": "", "country": "MX", "coord": {"lon": -95.050003, "lat": 16.5}}, {"id": 3532769, "name": "Aramberri", "state": "", "country": "MX", "coord": {"lon": -99.815277, "lat": 24.09944}}, {"id": 3532772, "name": "Aquixtla", "state": "", "country": "MX", "coord": {"lon": -97.933327, "lat": 19.799999}}, {"id": 3532774, "name": "Aquism\u00f3n", "state": "", "country": "MX", "coord": {"lon": -99.033333, "lat": 21.633329}}, {"id": 3532779, "name": "Aquiles Serd\u00e1n", "state": "", "country": "MX", "coord": {"lon": -92.283333, "lat": 17.783331}}, {"id": 3532792, "name": "Apizaco", "state": "", "country": "MX", "coord": {"lon": -98.150002, "lat": 19.41667}}, {"id": 3532795, "name": "Apipilulco", "state": "", "country": "MX", "coord": {"lon": -99.683327, "lat": 18.183331}}, {"id": 3532802, "name": "Apaxtla de Castrej\u00f3n", "state": "", "country": "MX", "coord": {"lon": -99.866669, "lat": 18.15}}, {"id": 3532803, "name": "Apaxco de Ocampo", "state": "", "country": "MX", "coord": {"lon": -99.173889, "lat": 19.97389}}, {"id": 3532808, "name": "San Pedro Apatlaco", "state": "", "country": "MX", "coord": {"lon": -98.949997, "lat": 18.783331}}, {"id": 3532813, "name": "Apango", "state": "", "country": "MX", "coord": {"lon": -99.333328, "lat": 17.73333}}, {"id": 3532815, "name": "Apan", "state": "", "country": "MX", "coord": {"lon": -98.416672, "lat": 19.716669}}, {"id": 3532821, "name": "Ant\u00f3n Lizardo", "state": "", "country": "MX", "coord": {"lon": -95.98333, "lat": 19.049999}}, {"id": 3532824, "name": "Antiguo Morelos", "state": "", "country": "MX", "coord": {"lon": -99.08123, "lat": 22.5495}}, {"id": 3532852, "name": "\u00c1ngel R. Cabada", "state": "", "country": "MX", "coord": {"lon": -95.433327, "lat": 18.58333}}, {"id": 3532856, "name": "Jaltenango de la Paz", "state": "", "country": "MX", "coord": {"lon": -92.716667, "lat": 15.91667}}, {"id": 3532858, "name": "Anenecuilco", "state": "", "country": "MX", "coord": {"lon": -98.98333, "lat": 18.76667}}, {"id": 3532870, "name": "Anahuac", "state": "", "country": "MX", "coord": {"lon": -97.866669, "lat": 22.200001}}, {"id": 3532878, "name": "San Pedro Amuzgos", "state": "", "country": "MX", "coord": {"lon": -98.099998, "lat": 16.65}}, {"id": 3532881, "name": "Amozoc de Mota", "state": "", "country": "MX", "coord": {"lon": -98.050003, "lat": 19.033331}}, {"id": 3532895, "name": "San Miguel Ameyalco", "state": "", "country": "MX", "coord": {"lon": -99.466667, "lat": 19.316669}}, {"id": 3532899, "name": "Amecameca", "state": "", "country": "MX", "coord": {"lon": -98.76667, "lat": 19.116671}}, {"id": 3532903, "name": "Amayuca", "state": "", "country": "MX", "coord": {"lon": -98.76667, "lat": 18.700001}}, {"id": 3532909, "name": "Amatl\u00e1n de los Reyes", "state": "", "country": "MX", "coord": {"lon": -96.916672, "lat": 18.83333}}, {"id": 3532925, "name": "Amatenango del Valle", "state": "", "country": "MX", "coord": {"lon": -92.449997, "lat": 16.51667}}, {"id": 3532930, "name": "Amat\u00e1n", "state": "", "country": "MX", "coord": {"lon": -92.75, "lat": 17.35}}, {"id": 3532951, "name": "Amacuzac", "state": "", "country": "MX", "coord": {"lon": -99.349998, "lat": 18.58333}}, {"id": 3532958, "name": "\u00c1lvaro Obreg\u00f3n", "state": "", "country": "MX", "coord": {"lon": -92.416672, "lat": 14.93333}}, {"id": 3532964, "name": "Alvarado", "state": "", "country": "MX", "coord": {"lon": -95.76667, "lat": 18.76667}}, {"id": 3532969, "name": "Altotonga", "state": "", "country": "MX", "coord": {"lon": -97.23333, "lat": 19.76667}}, {"id": 3532975, "name": "Alto Lucero", "state": "", "country": "MX", "coord": {"lon": -96.716667, "lat": 19.616671}}, {"id": 3532989, "name": "Altepexi", "state": "", "country": "MX", "coord": {"lon": -97.316673, "lat": 18.35}}, {"id": 3532996, "name": "Altamirano", "state": "", "country": "MX", "coord": {"lon": -92.150002, "lat": 16.883329}}, {"id": 3533005, "name": "Altamira", "state": "", "country": "MX", "coord": {"lon": -97.916672, "lat": 22.4}}, {"id": 3533020, "name": "Alpuyeca", "state": "", "country": "MX", "coord": {"lon": -99.26667, "lat": 18.73333}}, {"id": 3533022, "name": "Alpoyeca", "state": "", "country": "MX", "coord": {"lon": -98.51667, "lat": 17.66667}}, {"id": 3533032, "name": "Villa de Almoloya de Ju\u00e1rez", "state": "", "country": "MX", "coord": {"lon": -99.762222, "lat": 19.368891}}, {"id": 3533036, "name": "Almoloya", "state": "", "country": "MX", "coord": {"lon": -98.400002, "lat": 19.700001}}, {"id": 3533037, "name": "Almoloya del R\u00edo", "state": "", "country": "MX", "coord": {"lon": -99.489723, "lat": 19.15806}}, {"id": 3533047, "name": "San Miguel Almaya", "state": "", "country": "MX", "coord": {"lon": -99.416672, "lat": 19.23333}}, {"id": 3533056, "name": "Allende", "state": "", "country": "MX", "coord": {"lon": -94.400002, "lat": 18.15}}, {"id": 3533058, "name": "Aljojuca", "state": "", "country": "MX", "coord": {"lon": -97.51667, "lat": 19.1}}, {"id": 3533067, "name": "Axtla de Terrazas", "state": "", "country": "MX", "coord": {"lon": -98.849998, "lat": 21.466669}}, {"id": 3533079, "name": "Aldama", "state": "", "country": "MX", "coord": {"lon": -98.066673, "lat": 22.91667}}, {"id": 3533107, "name": "\u00c1lamo", "state": "", "country": "MX", "coord": {"lon": -97.683327, "lat": 20.91667}}, {"id": 3533116, "name": "Akumal", "state": "", "country": "MX", "coord": {"lon": -87.314438, "lat": 20.396931}}, {"id": 3533117, "name": "Akil", "state": "", "country": "MX", "coord": {"lon": -89.349998, "lat": 20.25}}, {"id": 3533126, "name": "Ajalpan", "state": "", "country": "MX", "coord": {"lon": -97.25, "lat": 18.366671}}, {"id": 3533143, "name": "Ahuehuetzingo", "state": "", "country": "MX", "coord": {"lon": -99.308342, "lat": 18.680241}}, {"id": 3533150, "name": "Ahuazotepec", "state": "", "country": "MX", "coord": {"lon": -98.150002, "lat": 20.049999}}, {"id": 3533157, "name": "Ahuatepec", "state": "", "country": "MX", "coord": {"lon": -97.900002, "lat": 18.85}}, {"id": 3533268, "name": "Agua Dulce", "state": "", "country": "MX", "coord": {"lon": -97.283333, "lat": 20.366671}}, {"id": 3533269, "name": "Agua Dulce", "state": "", "country": "MX", "coord": {"lon": -94.133331, "lat": 18.133329}}, {"id": 3533346, "name": "Agr\u00edcola Oriental Sur", "state": "", "country": "MX", "coord": {"lon": -99.066673, "lat": 19.4}}, {"id": 3533376, "name": "Acultzingo", "state": "", "country": "MX", "coord": {"lon": -97.316673, "lat": 18.716669}}, {"id": 3533389, "name": "Actopan", "state": "", "country": "MX", "coord": {"lon": -98.933327, "lat": 20.26667}}, {"id": 3533390, "name": "Actopan", "state": "", "country": "MX", "coord": {"lon": -96.616669, "lat": 19.5}}, {"id": 3533393, "name": "Altzayanca", "state": "", "country": "MX", "coord": {"lon": -97.783333, "lat": 19.433331}}, {"id": 3533422, "name": "San Jer\u00f3nimo Acazulco", "state": "", "country": "MX", "coord": {"lon": -99.433327, "lat": 19.26667}}, {"id": 3533426, "name": "Acayucan", "state": "", "country": "MX", "coord": {"lon": -94.916672, "lat": 17.950001}}, {"id": 3533428, "name": "Acayuca", "state": "", "country": "MX", "coord": {"lon": -98.833328, "lat": 20.033331}}, {"id": 3533432, "name": "Acaxochitl\u00e1n", "state": "", "country": "MX", "coord": {"lon": -98.199997, "lat": 20.16667}}, {"id": 3533433, "name": "Acatzingo", "state": "", "country": "MX", "coord": {"lon": -97.783333, "lat": 18.98333}}, {"id": 3533437, "name": "Acatlipa", "state": "", "country": "MX", "coord": {"lon": -99.23333, "lat": 18.816669}}, {"id": 3533439, "name": "Acatl\u00e1n de P\u00e9rez Figueroa", "state": "", "country": "MX", "coord": {"lon": -96.616669, "lat": 18.533331}}, {"id": 3533440, "name": "Acatl\u00e1n de Osorio", "state": "", "country": "MX", "coord": {"lon": -98.050003, "lat": 18.200001}}, {"id": 3533445, "name": "Acatl\u00e1n", "state": "", "country": "MX", "coord": {"lon": -98.449997, "lat": 20.15}}, {"id": 3533462, "name": "Acapulco de Ju\u00e1rez", "state": "", "country": "MX", "coord": {"lon": -99.890099, "lat": 16.863359}}, {"id": 3533466, "name": "Acapetahua", "state": "", "country": "MX", "coord": {"lon": -92.699997, "lat": 15.28333}}, {"id": 3533472, "name": "Acanceh", "state": "", "country": "MX", "coord": {"lon": -89.449997, "lat": 20.816669}}, {"id": 3533473, "name": "Acamixtla", "state": "", "country": "MX", "coord": {"lon": -99.583328, "lat": 18.566669}}, {"id": 3533475, "name": "Acambay", "state": "", "country": "MX", "coord": {"lon": -99.841667, "lat": 19.95583}}, {"id": 3533483, "name": "Acala", "state": "", "country": "MX", "coord": {"lon": -92.800003, "lat": 16.566669}}, {"id": 3533486, "name": "Acajete", "state": "", "country": "MX", "coord": {"lon": -97.949997, "lat": 19.1}}, {"id": 3533490, "name": "San Antonio Acahualco", "state": "", "country": "MX", "coord": {"lon": -99.775558, "lat": 19.276939}}, {"id": 3533491, "name": "Acacoyagua", "state": "", "country": "MX", "coord": {"lon": -92.650002, "lat": 15.35}}, {"id": 3533505, "name": "Abasolo", "state": "", "country": "MX", "coord": {"lon": -98.366669, "lat": 24.066669}}, {"id": 3533556, "name": "Zaza del Medio", "state": "", "country": "CU", "coord": {"lon": -79.366943, "lat": 21.996111}}, {"id": 3533753, "name": "Yara", "state": "", "country": "CU", "coord": {"lon": -76.953331, "lat": 20.27528}}, {"id": 3533826, "name": "Yaguajay", "state": "", "country": "CU", "coord": {"lon": -79.237778, "lat": 22.327221}}, {"id": 3534002, "name": "Vista del R\u00edo", "state": "", "country": "CU", "coord": {"lon": -82.816673, "lat": 21.85}}, {"id": 3534094, "name": "Vi\u00f1ales", "state": "", "country": "CU", "coord": {"lon": -83.707779, "lat": 22.61639}}, {"id": 3534168, "name": "Provincia de Villa Clara", "state": "", "country": "CU", "coord": {"lon": -80.0, "lat": 22.5}}, {"id": 3534363, "name": "Vertientes", "state": "", "country": "CU", "coord": {"lon": -78.146393, "lat": 21.259439}}, {"id": 3534432, "name": "Venezuela", "state": "", "country": "CU", "coord": {"lon": -78.796387, "lat": 21.735279}}, {"id": 3534452, "name": "Venegas", "state": "", "country": "CU", "coord": {"lon": -79.98333, "lat": 21.783331}}, {"id": 3534632, "name": "Varadero", "state": "", "country": "CU", "coord": {"lon": -81.251389, "lat": 23.15361}}, {"id": 3534761, "name": "Uni\u00f3n de Reyes", "state": "", "country": "CU", "coord": {"lon": -81.537498, "lat": 22.79528}}, {"id": 3534915, "name": "Trinidad", "state": "", "country": "CU", "coord": {"lon": -79.984169, "lat": 21.801941}}, {"id": 3535431, "name": "Tejar la Palma", "state": "", "country": "CU", "coord": {"lon": -80.416672, "lat": 22.133329}}, {"id": 3536192, "name": "Siguanea", "state": "", "country": "CU", "coord": {"lon": -82.959717, "lat": 21.63139}}, {"id": 3536259, "name": "Sibanic\u00fa", "state": "", "country": "CU", "coord": {"lon": -77.52639, "lat": 21.235001}}, {"id": 3536640, "name": "Santo Domingo", "state": "", "country": "CU", "coord": {"lon": -80.243607, "lat": 22.58667}}, {"id": 3536724, "name": "Santiago de las Vegas", "state": "", "country": "CU", "coord": {"lon": -82.38694, "lat": 22.969999}}, {"id": 3536725, "name": "Provincia de Santiago de Cuba", "state": "", "country": "CU", "coord": {"lon": -76.0, "lat": 20.25}}, {"id": 3536729, "name": "Santiago de Cuba", "state": "", "country": "CU", "coord": {"lon": -75.821938, "lat": 20.024719}}, {"id": 3537511, "name": "Santa Juana", "state": "", "country": "CU", "coord": {"lon": -83.583328, "lat": 22.4}}, {"id": 3537840, "name": "Santa Cruz del Sur", "state": "", "country": "CU", "coord": {"lon": -77.99556, "lat": 20.71472}}, {"id": 3537845, "name": "Santa Cruz del Norte", "state": "", "country": "CU", "coord": {"lon": -81.923607, "lat": 23.153891}}, {"id": 3537900, "name": "Santa Clara", "state": "", "country": "CU", "coord": {"lon": -79.76667, "lat": 22.16667}}, {"id": 3537906, "name": "Santa Clara", "state": "", "country": "CU", "coord": {"lon": -79.966667, "lat": 22.4}}, {"id": 3538758, "name": "San Nicol\u00e1s de Bari", "state": "", "country": "CU", "coord": {"lon": -81.91333, "lat": 22.784439}}, {"id": 3539092, "name": "San Luis", "state": "", "country": "CU", "coord": {"lon": -83.761108, "lat": 22.27861}}, {"id": 3539093, "name": "San Luis", "state": "", "country": "CU", "coord": {"lon": -75.85083, "lat": 20.1875}}, {"id": 3539201, "name": "San Lino", "state": "", "country": "CU", "coord": {"lon": -80.550003, "lat": 22.4}}, {"id": 3539232, "name": "San Juli\u00e1n", "state": "", "country": "CU", "coord": {"lon": -84.150002, "lat": 22.1}}, {"id": 3539560, "name": "San Jos\u00e9 de las Lajas", "state": "", "country": "CU", "coord": {"lon": -82.151108, "lat": 22.96139}}, {"id": 3539662, "name": "San Jos\u00e9", "state": "", "country": "CU", "coord": {"lon": -78.800003, "lat": 22.01667}}, {"id": 3540618, "name": "San Diego de Los Ba\u00f1os", "state": "", "country": "CU", "coord": {"lon": -83.36972, "lat": 22.646669}}, {"id": 3540665, "name": "Provincia de Sancti Sp\u00edritus", "state": "", "country": "CU", "coord": {"lon": -79.25, "lat": 22.0}}, {"id": 3540667, "name": "Sancti Sp\u00edritus", "state": "", "country": "CU", "coord": {"lon": -79.442497, "lat": 21.92972}}, {"id": 3540680, "name": "San Cristobal", "state": "", "country": "CU", "coord": {"lon": -83.048058, "lat": 22.71417}}, {"id": 3540885, "name": "San Antonio de los Ba\u00f1os", "state": "", "country": "CU", "coord": {"lon": -82.499168, "lat": 22.891109}}, {"id": 3541440, "name": "Sagua la Grande", "state": "", "country": "CU", "coord": {"lon": -80.075562, "lat": 22.806669}}, {"id": 3541446, "name": "Sagua de T\u00e1namo", "state": "", "country": "CU", "coord": {"lon": -75.241386, "lat": 20.58194}}, {"id": 3541999, "name": "Rodas", "state": "", "country": "CU", "coord": {"lon": -80.55722, "lat": 22.34083}}, {"id": 3542137, "name": "R\u00edo Guayabal de Yateras", "state": "", "country": "CU", "coord": {"lon": -75.01667, "lat": 20.366671}}, {"id": 3542167, "name": "R\u00edo Cauto", "state": "", "country": "CU", "coord": {"lon": -76.916107, "lat": 20.56028}}, {"id": 3542351, "name": "Residencial Porta", "state": "", "country": "CU", "coord": {"lon": -82.349998, "lat": 23.01667}}, {"id": 3542455, "name": "Remedios", "state": "", "country": "CU", "coord": {"lon": -79.54583, "lat": 22.49472}}, {"id": 3542744, "name": "Ranchuelo", "state": "", "country": "CU", "coord": {"lon": -80.148888, "lat": 22.37722}}, {"id": 3542753, "name": "Rancho Veloz", "state": "", "country": "CU", "coord": {"lon": -80.39167, "lat": 22.88056}}, {"id": 3542759, "name": "Rancho Pekita", "state": "", "country": "CU", "coord": {"lon": -82.26667, "lat": 23.15}}, {"id": 3542965, "name": "Quivic\u00e1n", "state": "", "country": "CU", "coord": {"lon": -82.355003, "lat": 22.823059}}, {"id": 3543077, "name": "Quemado de G\u00fcines", "state": "", "country": "CU", "coord": {"lon": -80.253609, "lat": 22.78528}}, {"id": 3543299, "name": "Puerto Padre", "state": "", "country": "CU", "coord": {"lon": -76.602783, "lat": 21.195}}, {"id": 3543498, "name": "Primero de Enero", "state": "", "country": "CU", "coord": {"lon": -78.428329, "lat": 21.946939}}, {"id": 3543939, "name": "Platanal", "state": "", "country": "CU", "coord": {"lon": -75.147499, "lat": 20.084999}}, {"id": 3543961, "name": "Placetas", "state": "", "country": "CU", "coord": {"lon": -79.653328, "lat": 22.311939}}, {"id": 3544088, "name": "Provincia de Pinar del R\u00edo", "state": "", "country": "CU", "coord": {"lon": -83.833328, "lat": 22.41667}}, {"id": 3544091, "name": "Pinar del R\u00edo", "state": "", "country": "CU", "coord": {"lon": -83.698059, "lat": 22.4175}}, {"id": 3544393, "name": "Perico", "state": "", "country": "CU", "coord": {"lon": -81.01889, "lat": 22.769171}}, {"id": 3544607, "name": "Pedro Betancourt", "state": "", "country": "CU", "coord": {"lon": -81.290001, "lat": 22.727221}}, {"id": 3545040, "name": "Palmira", "state": "", "country": "CU", "coord": {"lon": -80.390282, "lat": 22.241671}}, {"id": 3545064, "name": "Palma Soriano", "state": "", "country": "CU", "coord": {"lon": -75.998894, "lat": 20.21722}}, {"id": 3545365, "name": "Padr\u00f3n", "state": "", "country": "CU", "coord": {"lon": -76.599998, "lat": 20.4}}, {"id": 3545841, "name": "Nuevitas", "state": "", "country": "CU", "coord": {"lon": -77.264442, "lat": 21.54528}}, {"id": 3545867, "name": "Nueva Gerona", "state": "", "country": "CU", "coord": {"lon": -82.800003, "lat": 21.883329}}, {"id": 3545981, "name": "Niquero", "state": "", "country": "CU", "coord": {"lon": -77.582779, "lat": 20.04306}}, {"id": 3546434, "name": "Mor\u00f3n", "state": "", "country": "CU", "coord": {"lon": -78.627502, "lat": 22.10944}}, {"id": 3546791, "name": "Moa", "state": "", "country": "CU", "coord": {"lon": -74.940277, "lat": 20.65694}}, {"id": 3546894, "name": "Minas", "state": "", "country": "CU", "coord": {"lon": -77.616669, "lat": 21.48333}}, {"id": 3547180, "name": "Municipio de Melena del Sur", "state": "", "country": "CU", "coord": {"lon": -82.151131, "lat": 22.78821}}, {"id": 3547181, "name": "Melena del Sur", "state": "", "country": "CU", "coord": {"lon": -82.151382, "lat": 22.78813}}, {"id": 3547258, "name": "Media Luna", "state": "", "country": "CU", "coord": {"lon": -83.383331, "lat": 22.26667}}, {"id": 3547260, "name": "Media Luna", "state": "", "country": "CU", "coord": {"lon": -77.434998, "lat": 20.141939}}, {"id": 3547394, "name": "Provincia de Matanzas", "state": "", "country": "CU", "coord": {"lon": -81.166672, "lat": 22.66667}}, {"id": 3547398, "name": "Matanzas", "state": "", "country": "CU", "coord": {"lon": -81.577499, "lat": 23.041109}}, {"id": 3547519, "name": "Mart\u00ed", "state": "", "country": "CU", "coord": {"lon": -80.92028, "lat": 22.9475}}, {"id": 3547600, "name": "Mariel", "state": "", "country": "CU", "coord": {"lon": -82.753609, "lat": 22.987499}}, {"id": 3547867, "name": "Manzanillo", "state": "", "country": "CU", "coord": {"lon": -77.116669, "lat": 20.34333}}, {"id": 3547930, "name": "Mantua", "state": "", "country": "CU", "coord": {"lon": -84.284439, "lat": 22.288891}}, {"id": 3547976, "name": "Manicaragua", "state": "", "country": "CU", "coord": {"lon": -79.97361, "lat": 22.149441}}, {"id": 3548000, "name": "Manguito", "state": "", "country": "CU", "coord": {"lon": -80.914436, "lat": 22.58806}}, {"id": 3548099, "name": "Manat\u00ed", "state": "", "country": "CU", "coord": {"lon": -76.937782, "lat": 21.3125}}, {"id": 3548529, "name": "Madruga", "state": "", "country": "CU", "coord": {"lon": -81.85611, "lat": 22.91139}}, {"id": 3548993, "name": "Los Palacios", "state": "", "country": "CU", "coord": {"lon": -83.248611, "lat": 22.587219}}, {"id": 3549463, "name": "Los Arabos", "state": "", "country": "CU", "coord": {"lon": -80.72139, "lat": 22.72806}}, {"id": 3549480, "name": "Los \u00c1ngeles", "state": "", "country": "CU", "coord": {"lon": -76.340828, "lat": 20.78694}}, {"id": 3550595, "name": "Las Tunas", "state": "", "country": "CU", "coord": {"lon": -76.900002, "lat": 21.1}}, {"id": 3550598, "name": "Las Tunas", "state": "", "country": "CU", "coord": {"lon": -76.951111, "lat": 20.96167}}, {"id": 3550852, "name": "Las Minas", "state": "", "country": "CU", "coord": {"lon": -79.925003, "lat": 22.47917}}, {"id": 3551608, "name": "La Salud", "state": "", "country": "CU", "coord": {"lon": -82.423889, "lat": 22.871389}}, {"id": 3552028, "name": "La Playa", "state": "", "country": "CU", "coord": {"lon": -74.504723, "lat": 20.346939}}, {"id": 3552838, "name": "La Luisa", "state": "", "country": "CU", "coord": {"lon": -82.416672, "lat": 22.98333}}, {"id": 3553478, "name": "Havana", "state": "", "country": "CU", "coord": {"lon": -82.383041, "lat": 23.13302}}, {"id": 3555907, "name": "Jovellanos", "state": "", "country": "CU", "coord": {"lon": -81.194443, "lat": 22.80444}}, {"id": 3556077, "name": "Jobabo", "state": "", "country": "CU", "coord": {"lon": -76.299438, "lat": 20.96917}}, {"id": 3556168, "name": "Jiguan\u00ed", "state": "", "country": "CU", "coord": {"lon": -76.427223, "lat": 20.366671}}, {"id": 3556334, "name": "Jatibonico", "state": "", "country": "CU", "coord": {"lon": -79.169998, "lat": 21.94194}}, {"id": 3556351, "name": "Jaruco", "state": "", "country": "CU", "coord": {"lon": -82.010834, "lat": 23.04306}}, {"id": 3556406, "name": "Jamaica", "state": "", "country": "CU", "coord": {"lon": -82.17028, "lat": 22.97917}}, {"id": 3556437, "name": "Jag\u00fcey Grande", "state": "", "country": "CU", "coord": {"lon": -81.128609, "lat": 22.526939}}, {"id": 3556608, "name": "Municipio Especial Isla de la Juventud", "state": "", "country": "CU", "coord": {"lon": -82.481941, "lat": 21.83333}}, {"id": 3556965, "name": "Provincia de Holgu\u00edn", "state": "", "country": "CU", "coord": {"lon": -75.75, "lat": 20.799999}}, {"id": 3556969, "name": "Holgu\u00edn", "state": "", "country": "CU", "coord": {"lon": -76.263062, "lat": 20.88722}}, {"id": 3557332, "name": "Guisa", "state": "", "country": "CU", "coord": {"lon": -76.538612, "lat": 20.254999}}, {"id": 3557347, "name": "G\u00fcira de Melena", "state": "", "country": "CU", "coord": {"lon": -82.50528, "lat": 22.79056}}, {"id": 3557378, "name": "G\u00fcines", "state": "", "country": "CU", "coord": {"lon": -82.028061, "lat": 22.836109}}, {"id": 3557678, "name": "Guara", "state": "", "country": "CU", "coord": {"lon": -82.203056, "lat": 22.809999}}, {"id": 3557685, "name": "Provincia de Guant\u00e1namo", "state": "", "country": "CU", "coord": {"lon": -74.75, "lat": 20.25}}, {"id": 3557689, "name": "Guant\u00e1namo", "state": "", "country": "CU", "coord": {"lon": -75.209167, "lat": 20.14444}}, {"id": 3557758, "name": "Guane", "state": "", "country": "CU", "coord": {"lon": -84.087502, "lat": 22.202499}}, {"id": 3557801, "name": "Guanajay", "state": "", "country": "CU", "coord": {"lon": -82.6875, "lat": 22.92639}}, {"id": 3557923, "name": "Gu\u00e1imaro", "state": "", "country": "CU", "coord": {"lon": -77.349998, "lat": 21.049999}}, {"id": 3558032, "name": "Ma\u00f1alich", "state": "", "country": "CU", "coord": {"lon": -82.147476, "lat": 22.811119}}, {"id": 3558052, "name": "Provincia Granma", "state": "", "country": "CU", "coord": {"lon": -77.0, "lat": 20.25}}, {"id": 3558315, "name": "Gibara", "state": "", "country": "CU", "coord": {"lon": -76.131668, "lat": 21.10972}}, {"id": 3558744, "name": "Fomento", "state": "", "country": "CU", "coord": {"lon": -79.721672, "lat": 22.103889}}, {"id": 3558771, "name": "Florida", "state": "", "country": "CU", "coord": {"lon": -78.22583, "lat": 21.524719}}, {"id": 3559235, "name": "Esperanza", "state": "", "country": "CU", "coord": {"lon": -80.099998, "lat": 22.450001}}, {"id": 3559318, "name": "Esmeralda", "state": "", "country": "CU", "coord": {"lon": -78.116943, "lat": 21.852501}}, {"id": 3559416, "name": "Encrucijada", "state": "", "country": "CU", "coord": {"lon": -79.871109, "lat": 22.61694}}, {"id": 3561408, "name": "El Cobre", "state": "", "country": "CU", "coord": {"lon": -75.946938, "lat": 20.048889}}, {"id": 3561667, "name": "El Caney", "state": "", "country": "CU", "coord": {"lon": -78.48333, "lat": 21.299999}}, {"id": 3562827, "name": "Cumanayagua", "state": "", "country": "CU", "coord": {"lon": -80.202217, "lat": 22.149441}}, {"id": 3562895, "name": "Cueto", "state": "", "country": "CU", "coord": {"lon": -75.935562, "lat": 20.64389}}, {"id": 3562914, "name": "Cuentas Claras", "state": "", "country": "CU", "coord": {"lon": -77.083328, "lat": 20.299999}}, {"id": 3562981, "name": "Republic of Cuba", "state": "", "country": "CU", "coord": {"lon": -79.5, "lat": 22.0}}, {"id": 3563145, "name": "Cruces", "state": "", "country": "CU", "coord": {"lon": -80.26667, "lat": 22.34111}}, {"id": 3563317, "name": "Corralillo", "state": "", "country": "CU", "coord": {"lon": -80.585564, "lat": 22.981939}}, {"id": 3563504, "name": "Contramaestre", "state": "", "country": "CU", "coord": {"lon": -76.241386, "lat": 20.297779}}, {"id": 3563559, "name": "Consolaci\u00f3n del Sur", "state": "", "country": "CU", "coord": {"lon": -83.513611, "lat": 22.504721}}, {"id": 3563609, "name": "Condado", "state": "", "country": "CU", "coord": {"lon": -79.840279, "lat": 21.876671}}, {"id": 3563843, "name": "Col\u00f3n", "state": "", "country": "CU", "coord": {"lon": -80.90583, "lat": 22.71917}}, {"id": 3563856, "name": "Colombia", "state": "", "country": "CU", "coord": {"lon": -77.429718, "lat": 20.98806}}, {"id": 3564073, "name": "La Habana", "state": "", "country": "CU", "coord": {"lon": -82.300003, "lat": 23.08333}}, {"id": 3564114, "name": "Cifuentes", "state": "", "country": "CU", "coord": {"lon": -80.046112, "lat": 22.645}}, {"id": 3564120, "name": "Provincia de Cienfuegos", "state": "", "country": "CU", "coord": {"lon": -80.5, "lat": 22.299999}}, {"id": 3564124, "name": "Cienfuegos", "state": "", "country": "CU", "coord": {"lon": -80.435562, "lat": 22.146111}}, {"id": 3564175, "name": "Provincia de Ciego de \u00c1vila", "state": "", "country": "CU", "coord": {"lon": -78.599998, "lat": 21.9}}, {"id": 3564178, "name": "Ciego de \u00c1vila", "state": "", "country": "CU", "coord": {"lon": -78.76194, "lat": 21.84}}, {"id": 3564394, "name": "Chambas", "state": "", "country": "CU", "coord": {"lon": -78.913612, "lat": 22.19278}}, {"id": 3565432, "name": "C\u00e1rdenas", "state": "", "country": "CU", "coord": {"lon": -81.20472, "lat": 23.0375}}, {"id": 3565768, "name": "Candelaria", "state": "", "country": "CU", "coord": {"lon": -82.961113, "lat": 22.740561}}, {"id": 3565951, "name": "Campechuela", "state": "", "country": "CU", "coord": {"lon": -77.278893, "lat": 20.234171}}, {"id": 3566054, "name": "Camajuan\u00ed", "state": "", "country": "CU", "coord": {"lon": -79.75, "lat": 22.48333}}, {"id": 3566062, "name": "Provincia de Camag\u00fcey", "state": "", "country": "CU", "coord": {"lon": -77.849998, "lat": 21.35}}, {"id": 3566067, "name": "Camag\u00fcey", "state": "", "country": "CU", "coord": {"lon": -77.916939, "lat": 21.380831}}, {"id": 3566134, "name": "Calimete", "state": "", "country": "CU", "coord": {"lon": -80.906113, "lat": 22.533331}}, {"id": 3566235, "name": "Calabazar de Sagua", "state": "", "country": "CU", "coord": {"lon": -79.896111, "lat": 22.64472}}, {"id": 3566356, "name": "Caibari\u00e9n", "state": "", "country": "CU", "coord": {"lon": -79.466942, "lat": 22.520559}}, {"id": 3566573, "name": "Caba\u00f1as", "state": "", "country": "CU", "coord": {"lon": -82.921944, "lat": 22.97583}}, {"id": 3566603, "name": "Cabaigu\u00e1n", "state": "", "country": "CU", "coord": {"lon": -79.499168, "lat": 22.07889}}, {"id": 3566714, "name": "Buenavista", "state": "", "country": "CU", "coord": {"lon": -82.400002, "lat": 22.98333}}, {"id": 3567082, "name": "Bolondr\u00f3n", "state": "", "country": "CU", "coord": {"lon": -81.446938, "lat": 22.76333}}, {"id": 3567546, "name": "Bejucal", "state": "", "country": "CU", "coord": {"lon": -82.388611, "lat": 22.92861}}, {"id": 3567597, "name": "Bayamo", "state": "", "country": "CU", "coord": {"lon": -76.643333, "lat": 20.379169}}, {"id": 3567612, "name": "Bauta", "state": "", "country": "CU", "coord": {"lon": -82.546387, "lat": 22.98278}}, {"id": 3567655, "name": "Bataban\u00f3", "state": "", "country": "CU", "coord": {"lon": -82.288063, "lat": 22.716391}}, {"id": 3567823, "name": "Baragu\u00e1", "state": "", "country": "CU", "coord": {"lon": -78.632782, "lat": 21.696671}}, {"id": 3567834, "name": "Baracoa", "state": "", "country": "CU", "coord": {"lon": -74.495827, "lat": 20.34667}}, {"id": 3567869, "name": "Banes", "state": "", "country": "CU", "coord": {"lon": -75.718613, "lat": 20.9625}}, {"id": 3567995, "name": "Bah\u00eda Honda", "state": "", "country": "CU", "coord": {"lon": -83.159172, "lat": 22.90361}}, {"id": 3568312, "name": "Artemisa", "state": "", "country": "CU", "coord": {"lon": -82.76194, "lat": 22.813061}}, {"id": 3569136, "name": "Alqu\u00edzar", "state": "", "country": "CU", "coord": {"lon": -82.584167, "lat": 22.80583}}, {"id": 3569185, "name": "Almanza", "state": "", "country": "CU", "coord": {"lon": -81.416672, "lat": 23.066669}}, {"id": 3569370, "name": "Alamar", "state": "", "country": "CU", "coord": {"lon": -82.276939, "lat": 23.158331}}, {"id": 3569379, "name": "Alacranes", "state": "", "country": "CU", "coord": {"lon": -81.567497, "lat": 22.7675}}, {"id": 3569546, "name": "Aguada de Pasajeros", "state": "", "country": "CU", "coord": {"lon": -80.85083, "lat": 22.385}}, {"id": 3569741, "name": "Abreus", "state": "", "country": "CU", "coord": {"lon": -80.567497, "lat": 22.2775}}, {"id": 3569886, "name": "Schoelcher", "state": "", "country": "MQ", "coord": {"lon": -61.098999, "lat": 14.61774}}, {"id": 3569906, "name": "Arrondissement de Saint-Pierre", "state": "", "country": "MQ", "coord": {"lon": -61.183331, "lat": 14.75}}, {"id": 3569907, "name": "Saint-Pierre", "state": "", "country": "MQ", "coord": {"lon": -61.175331, "lat": 14.74383}}, {"id": 3569915, "name": "Saint-Joseph", "state": "", "country": "MQ", "coord": {"lon": -61.045582, "lat": 14.66792}}, {"id": 3569926, "name": "Sainte-Marie", "state": "", "country": "MQ", "coord": {"lon": -60.992741, "lat": 14.78392}}, {"id": 3569928, "name": "Sainte-Luce", "state": "", "country": "MQ", "coord": {"lon": -60.927078, "lat": 14.46733}}, {"id": 3569967, "name": "Rivi\u00e8re Sal\u00e9e", "state": "", "country": "MQ", "coord": {"lon": -60.97813, "lat": 14.52724}}, {"id": 3569970, "name": "Rivi\u00e8re-Pilote", "state": "", "country": "MQ", "coord": {"lon": -60.9035, "lat": 14.47746}}, {"id": 3569976, "name": "Rivi\u00e8re", "state": "", "country": "MQ", "coord": {"lon": -60.849998, "lat": 14.46667}}, {"id": 3570058, "name": "La Gillot", "state": "", "country": "MQ", "coord": {"lon": -60.900002, "lat": 14.6}}, {"id": 3570158, "name": "Petit Morne", "state": "", "country": "MQ", "coord": {"lon": -60.969349, "lat": 14.54301}}, {"id": 3570166, "name": "Petite Rivi\u00e8re Sal\u00e9e", "state": "", "country": "MQ", "coord": {"lon": -60.966671, "lat": 14.75}}, {"id": 3570186, "name": "Petit Br\u00e9sil", "state": "", "country": "MQ", "coord": {"lon": -60.966671, "lat": 14.73333}}, {"id": 3570236, "name": "Morne-Vert", "state": "", "country": "MQ", "coord": {"lon": -61.151691, "lat": 14.70518}}, {"id": 3570311, "name": "Martinique", "state": "", "country": "MQ", "coord": {"lon": -61.0, "lat": 14.66667}}, {"id": 3570319, "name": "Arrondissement du Marin", "state": "", "country": "MQ", "coord": {"lon": -60.866669, "lat": 14.46667}}, {"id": 3570363, "name": "Macouba", "state": "", "country": "MQ", "coord": {"lon": -61.156929, "lat": 14.86885}}, {"id": 3570392, "name": "Le Vauclin", "state": "", "country": "MQ", "coord": {"lon": -60.838829, "lat": 14.54524}}, {"id": 3570396, "name": "Les Trois-\u00celets", "state": "", "country": "MQ", "coord": {"lon": -61.036079, "lat": 14.539}}, {"id": 3570401, "name": "Les Flamboyants", "state": "", "country": "MQ", "coord": {"lon": -60.883331, "lat": 14.43333}}, {"id": 3570407, "name": "Les Boucaniers", "state": "", "country": "MQ", "coord": {"lon": -60.883331, "lat": 14.43333}}, {"id": 3570408, "name": "Les Anses-d'Arlet", "state": "", "country": "MQ", "coord": {"lon": -61.083328, "lat": 14.48333}}, {"id": 3570410, "name": "Saint-Esprit", "state": "", "country": "MQ", "coord": {"lon": -60.933331, "lat": 14.55}}, {"id": 3570412, "name": "Le Robert", "state": "", "country": "MQ", "coord": {"lon": -60.94228, "lat": 14.67751}}, {"id": 3570416, "name": "Le Pr\u00eacheur", "state": "", "country": "MQ", "coord": {"lon": -61.224659, "lat": 14.80169}}, {"id": 3570423, "name": "Le Morne-Rouge", "state": "", "country": "MQ", "coord": {"lon": -61.133331, "lat": 14.76667}}, {"id": 3570426, "name": "Le Marin", "state": "", "country": "MQ", "coord": {"lon": -60.869732, "lat": 14.47212}}, {"id": 3570427, "name": "Le Lorrain", "state": "", "country": "MQ", "coord": {"lon": -61.056671, "lat": 14.83292}}, {"id": 3570428, "name": "Le Lamentin", "state": "", "country": "MQ", "coord": {"lon": -61.009331, "lat": 14.608}}, {"id": 3570429, "name": "Le Fran\u00e7ois", "state": "", "country": "MQ", "coord": {"lon": -60.90308, "lat": 14.61557}}, {"id": 3570431, "name": "Le Coin", "state": "", "country": "MQ", "coord": {"lon": -61.183331, "lat": 14.7}}, {"id": 3570440, "name": "La Vierge", "state": "", "country": "MQ", "coord": {"lon": -61.021332, "lat": 14.71499}}, {"id": 3570445, "name": "Arrondissement de La Trinit\u00e9", "state": "", "country": "MQ", "coord": {"lon": -60.966671, "lat": 14.73333}}, {"id": 3570446, "name": "La Trinit\u00e9", "state": "", "country": "MQ", "coord": {"lon": -60.96286, "lat": 14.73758}}, {"id": 3570501, "name": "L'Ajoupa-Bouillon", "state": "", "country": "MQ", "coord": {"lon": -61.116669, "lat": 14.81667}}, {"id": 3570547, "name": "La Berry", "state": "", "country": "MQ", "coord": {"lon": -60.866669, "lat": 14.46667}}, {"id": 3570550, "name": "La Batterie", "state": "", "country": "MQ", "coord": {"lon": -61.133331, "lat": 14.63333}}, {"id": 3570584, "name": "Le Gros-Morne", "state": "", "country": "MQ", "coord": {"lon": -61.0, "lat": 14.7}}, {"id": 3570591, "name": "Grand'Rivi\u00e8re", "state": "", "country": "MQ", "coord": {"lon": -61.179459, "lat": 14.87354}}, {"id": 3570668, "name": "Four \u00e0 Chaux", "state": "", "country": "MQ", "coord": {"lon": -61.0, "lat": 14.6}}, {"id": 3570674, "name": "Arrondissement de Fort-de-France", "state": "", "country": "MQ", "coord": {"lon": -61.083328, "lat": 14.6}}, {"id": 3570675, "name": "Fort-de-France", "state": "", "country": "MQ", "coord": {"lon": -61.073341, "lat": 14.60892}}, {"id": 3570691, "name": "Fond Panier", "state": "", "country": "MQ", "coord": {"lon": -60.986389, "lat": 14.57747}}, {"id": 3570749, "name": "Faubourg Schoelcher", "state": "", "country": "MQ", "coord": {"lon": -60.900002, "lat": 14.48333}}, {"id": 3570780, "name": "Duhamelin", "state": "", "country": "MQ", "coord": {"lon": -61.03677, "lat": 14.81555}}, {"id": 3570785, "name": "Ducos", "state": "", "country": "MQ", "coord": {"lon": -60.974529, "lat": 14.57529}}, {"id": 3570874, "name": "Clairi\u00e8re", "state": "", "country": "MQ", "coord": {"lon": -61.083328, "lat": 14.6}}, {"id": 3571063, "name": "Bellefontaine", "state": "", "country": "MQ", "coord": {"lon": -61.169418, "lat": 14.67079}}, {"id": 3571097, "name": "Basse-Pointe", "state": "", "country": "MQ", "coord": {"lon": -61.11504, "lat": 14.86954}}, {"id": 3571130, "name": "Anse Figuiers", "state": "", "country": "MQ", "coord": {"lon": -60.913589, "lat": 14.46241}}, {"id": 3571224, "name": "West End", "state": "", "country": "BS", "coord": {"lon": -78.966667, "lat": 26.683331}}, {"id": 3571264, "name": "Victoria Hill", "state": "", "country": "BS", "coord": {"lon": -74.51667, "lat": 24.08333}}, {"id": 3571275, "name": "Upper Bogue", "state": "", "country": "BS", "coord": {"lon": -76.666672, "lat": 25.450001}}, {"id": 3571493, "name": "San Salvador District", "state": "", "country": "BS", "coord": {"lon": -74.493057, "lat": 24.036671}}, {"id": 3571500, "name": "Sandy Point", "state": "", "country": "BS", "coord": {"lon": -77.400002, "lat": 26.01667}}, {"id": 3571592, "name": "Rock Sound", "state": "", "country": "BS", "coord": {"lon": -76.199997, "lat": 24.9}}, {"id": 3571650, "name": "Port Nelson", "state": "", "country": "BS", "coord": {"lon": -74.833328, "lat": 23.633329}}, {"id": 3571815, "name": "New Providence District", "state": "", "country": "BS", "coord": {"lon": -77.283333, "lat": 25.033331}}, {"id": 3571824, "name": "Nassau", "state": "", "country": "BS", "coord": {"lon": -77.343063, "lat": 25.058229}}, {"id": 3571865, "name": "Minns", "state": "", "country": "BS", "coord": {"lon": -77.76667, "lat": 24.700001}}, {"id": 3571898, "name": "Matthew Town", "state": "", "country": "BS", "coord": {"lon": -73.666672, "lat": 20.950001}}, {"id": 3571912, "name": "Marsh Harbour District", "state": "", "country": "BS", "coord": {"lon": -77.166672, "lat": 26.4}}, {"id": 3571913, "name": "Marsh Harbour", "state": "", "country": "BS", "coord": {"lon": -77.063599, "lat": 26.541241}}, {"id": 3571964, "name": "Macbride", "state": "", "country": "BS", "coord": {"lon": -77.466667, "lat": 25.066669}}, {"id": 3571971, "name": "Lucaya", "state": "", "country": "BS", "coord": {"lon": -78.666672, "lat": 26.533331}}, {"id": 3572005, "name": "Long Island", "state": "", "country": "BS", "coord": {"lon": -75.111671, "lat": 23.216669}}, {"id": 3572154, "name": "Inagua", "state": "", "country": "BS", "coord": {"lon": -73.311668, "lat": 21.076941}}, {"id": 3572189, "name": "High Rock", "state": "", "country": "BS", "coord": {"lon": -78.283333, "lat": 26.620831}}, {"id": 3572233, "name": "Hard Bargain", "state": "", "country": "BS", "coord": {"lon": -77.566673, "lat": 26.316669}}, {"id": 3572333, "name": "Golden Grove", "state": "", "country": "BS", "coord": {"lon": -78.333328, "lat": 26.6}}, {"id": 3572374, "name": "City of Freeport District", "state": "", "country": "BS", "coord": {"lon": -78.645279, "lat": 26.520281}}, {"id": 3572375, "name": "Freeport", "state": "", "country": "BS", "coord": {"lon": -78.699997, "lat": 26.533331}}, {"id": 3572462, "name": "Dunmore Town", "state": "", "country": "BS", "coord": {"lon": -76.650002, "lat": 25.5}}, {"id": 3572601, "name": "Cooper\u2019s Town", "state": "", "country": "BS", "coord": {"lon": -77.51667, "lat": 26.866671}}, {"id": 3572603, "name": "Congo Town", "state": "", "country": "BS", "coord": {"lon": -77.583328, "lat": 24.16667}}, {"id": 3572620, "name": "Colonel Hill", "state": "", "country": "BS", "coord": {"lon": -74.216667, "lat": 22.76667}}, {"id": 3572627, "name": "Cockburn Town", "state": "", "country": "BS", "coord": {"lon": -74.51667, "lat": 24.033331}}, {"id": 3572640, "name": "Clarence Town", "state": "", "country": "BS", "coord": {"lon": -74.98333, "lat": 23.1}}, {"id": 3572807, "name": "Bimini District", "state": "", "country": "BS", "coord": {"lon": -79.288887, "lat": 25.704439}}, {"id": 3572887, "name": "Commonwealth of The Bahamas", "state": "", "country": "BS", "coord": {"lon": -77.371223, "lat": 25.040819}}, {"id": 3572906, "name": "Andros Town", "state": "", "country": "BS", "coord": {"lon": -77.76667, "lat": 24.700001}}, {"id": 3572924, "name": "Alice Town", "state": "", "country": "BS", "coord": {"lon": -79.300003, "lat": 25.716669}}, {"id": 3573061, "name": "Saint George", "state": "", "country": "BM", "coord": {"lon": -64.678062, "lat": 32.381672}}, {"id": 3573062, "name": "Saint George", "state": "", "country": "BM", "coord": {"lon": -64.676392, "lat": 32.384171}}, {"id": 3573197, "name": "Hamilton", "state": "", "country": "BM", "coord": {"lon": -64.777969, "lat": 32.291489}}, {"id": 3573198, "name": "Hamilton City", "state": "", "country": "BM", "coord": {"lon": -64.783607, "lat": 32.293892}}, {"id": 3573345, "name": "Bermuda", "state": "", "country": "BM", "coord": {"lon": -64.75, "lat": 32.333328}}, {"id": 3573374, "name": "The Valley", "state": "", "country": "AI", "coord": {"lon": -63.057831, "lat": 18.217039}}, {"id": 3573380, "name": "Stoney Ground", "state": "", "country": "AI", "coord": {"lon": -63.033329, "lat": 18.216669}}, {"id": 3573418, "name": "North Side", "state": "", "country": "AI", "coord": {"lon": -63.049999, "lat": 18.216669}}, {"id": 3573420, "name": "North Hill Village", "state": "", "country": "AI", "coord": {"lon": -63.066669, "lat": 18.200001}}, {"id": 3573432, "name": "Lower South Hill", "state": "", "country": "AI", "coord": {"lon": -63.099998, "lat": 18.183331}}, {"id": 3573439, "name": "Long Ground", "state": "", "country": "AI", "coord": {"lon": -63.049999, "lat": 18.200001}}, {"id": 3573511, "name": "Anguilla", "state": "", "country": "AI", "coord": {"lon": -63.049999, "lat": 18.216669}}, {"id": 3573520, "name": "Woodlands", "state": "", "country": "TT", "coord": {"lon": -60.722618, "lat": 11.24973}}, {"id": 3573541, "name": "Waterloo", "state": "", "country": "TT", "coord": {"lon": -61.466671, "lat": 10.46667}}, {"id": 3573576, "name": "Tunapuna", "state": "", "country": "TT", "coord": {"lon": -61.383331, "lat": 10.63333}}, {"id": 3573591, "name": "Republic of Trinidad and Tobago", "state": "", "country": "TT", "coord": {"lon": -61.0, "lat": 11.0}}, {"id": 3573596, "name": "Tortuga", "state": "", "country": "TT", "coord": {"lon": -61.400002, "lat": 10.36667}}, {"id": 3573604, "name": "Toco", "state": "", "country": "TT", "coord": {"lon": -60.950001, "lat": 10.83333}}, {"id": 3573606, "name": "Tobago", "state": "", "country": "TT", "coord": {"lon": -60.666672, "lat": 11.25}}, {"id": 3573638, "name": "Talparo", "state": "", "country": "TT", "coord": {"lon": -61.26667, "lat": 10.5}}, {"id": 3573643, "name": "Paradise", "state": "", "country": "TT", "coord": {"lon": -61.366711, "lat": 10.63471}}, {"id": 3573645, "name": "Tableland", "state": "", "country": "TT", "coord": {"lon": -61.26667, "lat": 10.26667}}, {"id": 3573650, "name": "Tabaquite", "state": "", "country": "TT", "coord": {"lon": -61.299999, "lat": 10.38333}}, {"id": 3573652, "name": "Success", "state": "", "country": "TT", "coord": {"lon": -61.48333, "lat": 10.65}}, {"id": 3573665, "name": "Speyside", "state": "", "country": "TT", "coord": {"lon": -60.537949, "lat": 11.29694}}, {"id": 3573681, "name": "Siparia", "state": "", "country": "TT", "coord": {"lon": -61.5, "lat": 10.13333}}, {"id": 3573703, "name": "Scarborough", "state": "", "country": "TT", "coord": {"lon": -60.73333, "lat": 11.18333}}, {"id": 3573732, "name": "Sangre Grande", "state": "", "country": "TT", "coord": {"lon": -61.116669, "lat": 10.58333}}, {"id": 3573738, "name": "San Fernando", "state": "", "country": "TT", "coord": {"lon": -61.466671, "lat": 10.28333}}, {"id": 3573739, "name": "San Fernando", "state": "", "country": "TT", "coord": {"lon": -61.466671, "lat": 10.28333}}, {"id": 3573764, "name": "Saint Marys", "state": "", "country": "TT", "coord": {"lon": -61.416672, "lat": 10.45}}, {"id": 3573768, "name": "Saint Margaret", "state": "", "country": "TT", "coord": {"lon": -61.450001, "lat": 10.33333}}, {"id": 3573773, "name": "Saint Joseph", "state": "", "country": "TT", "coord": {"lon": -61.416672, "lat": 10.65}}, {"id": 3573781, "name": "Saint Helena", "state": "", "country": "TT", "coord": {"lon": -61.333328, "lat": 10.58333}}, {"id": 3573794, "name": "Saint Clair", "state": "", "country": "TT", "coord": {"lon": -61.521679, "lat": 10.67039}}, {"id": 3573804, "name": "Saint Andrew", "state": "", "country": "TT", "coord": {"lon": -61.466671, "lat": 10.41667}}, {"id": 3573819, "name": "Roxborough", "state": "", "country": "TT", "coord": {"lon": -60.583328, "lat": 11.25}}, {"id": 3573822, "name": "Roussillac", "state": "", "country": "TT", "coord": {"lon": -61.583328, "lat": 10.21667}}, {"id": 3573840, "name": "Rio Claro", "state": "", "country": "TT", "coord": {"lon": -61.183331, "lat": 10.3}}, {"id": 3573850, "name": "Reform", "state": "", "country": "TT", "coord": {"lon": -61.416672, "lat": 10.3}}, {"id": 3573854, "name": "Red Hill", "state": "", "country": "TT", "coord": {"lon": -61.316669, "lat": 10.61667}}, {"id": 3573882, "name": "Princes Town", "state": "", "country": "TT", "coord": {"lon": -61.383331, "lat": 10.26667}}, {"id": 3573885, "name": "Preysal", "state": "", "country": "TT", "coord": {"lon": -61.400002, "lat": 10.41667}}, {"id": 3573890, "name": "Port of Spain", "state": "", "country": "TT", "coord": {"lon": -61.516571, "lat": 10.66617}}, {"id": 3573891, "name": "City of Port of Spain", "state": "", "country": "TT", "coord": {"lon": -61.51667, "lat": 10.65}}, {"id": 3573899, "name": "Point Fortin", "state": "", "country": "TT", "coord": {"lon": -61.683331, "lat": 10.18333}}, {"id": 3573918, "name": "Piparo", "state": "", "country": "TT", "coord": {"lon": -61.333328, "lat": 10.33333}}, {"id": 3573935, "name": "Petit Valley", "state": "", "country": "TT", "coord": {"lon": -61.533329, "lat": 10.7}}, {"id": 3573957, "name": "Petit Bourg", "state": "", "country": "TT", "coord": {"lon": -61.450001, "lat": 10.65}}, {"id": 3573965, "name": "Pe\u00f1al", "state": "", "country": "TT", "coord": {"lon": -61.466671, "lat": 10.16667}}, {"id": 3573972, "name": "Patience Hill", "state": "", "country": "TT", "coord": {"lon": -60.763889, "lat": 11.18822}}, {"id": 3573989, "name": "Paradise", "state": "", "country": "TT", "coord": {"lon": -61.366669, "lat": 10.65}}, {"id": 3573995, "name": "Palo Seco", "state": "", "country": "TT", "coord": {"lon": -61.583328, "lat": 10.08333}}, {"id": 3574038, "name": "New Grant", "state": "", "country": "TT", "coord": {"lon": -61.316669, "lat": 10.28333}}, {"id": 3574069, "name": "Mucurapo", "state": "", "country": "TT", "coord": {"lon": -61.533329, "lat": 10.66667}}, {"id": 3574081, "name": "Morvant", "state": "", "country": "TT", "coord": {"lon": -61.466671, "lat": 10.65}}, {"id": 3574087, "name": "Moruga", "state": "", "country": "TT", "coord": {"lon": -61.283329, "lat": 10.08333}}, {"id": 3574103, "name": "Morichal", "state": "", "country": "TT", "coord": {"lon": -61.35075, "lat": 10.36035}}, {"id": 3574104, "name": "Moriah", "state": "", "country": "TT", "coord": {"lon": -60.71365, "lat": 11.24606}}, {"id": 3574116, "name": "Mon Repos", "state": "", "country": "TT", "coord": {"lon": -61.446049, "lat": 10.283}}, {"id": 3574168, "name": "Matura", "state": "", "country": "TT", "coord": {"lon": -61.066669, "lat": 10.66667}}, {"id": 3574184, "name": "Maraval", "state": "", "country": "TT", "coord": {"lon": -61.51667, "lat": 10.7}}, {"id": 3574194, "name": "Marabella", "state": "", "country": "TT", "coord": {"lon": -61.446709, "lat": 10.30618}}, {"id": 3574211, "name": "Manahambre", "state": "", "country": "TT", "coord": {"lon": -61.383331, "lat": 10.26667}}, {"id": 3574263, "name": "Lopinot", "state": "", "country": "TT", "coord": {"lon": -61.316669, "lat": 10.68333}}, {"id": 3574309, "name": "Laventille", "state": "", "country": "TT", "coord": {"lon": -61.49889, "lat": 10.64917}}, {"id": 3574323, "name": "La Pastora", "state": "", "country": "TT", "coord": {"lon": -61.466671, "lat": 10.71667}}, {"id": 3574345, "name": "La Finette", "state": "", "country": "TT", "coord": {"lon": -61.51667, "lat": 10.73333}}, {"id": 3574466, "name": "Green Hill", "state": "", "country": "TT", "coord": {"lon": -61.566669, "lat": 10.73333}}, {"id": 3574497, "name": "Gran Couva", "state": "", "country": "TT", "coord": {"lon": -61.366669, "lat": 10.4}}, {"id": 3574517, "name": "Glamorgan", "state": "", "country": "TT", "coord": {"lon": -60.60984, "lat": 11.22264}}, {"id": 3574524, "name": "Gasparillo", "state": "", "country": "TT", "coord": {"lon": -61.416672, "lat": 10.31667}}, {"id": 3574536, "name": "Fyzabad", "state": "", "country": "TT", "coord": {"lon": -61.549999, "lat": 10.18333}}, {"id": 3574552, "name": "Four Roads", "state": "", "country": "TT", "coord": {"lon": -61.555, "lat": 10.68639}}, {"id": 3574578, "name": "Exchange", "state": "", "country": "TT", "coord": {"lon": -61.450001, "lat": 10.41667}}, {"id": 3574604, "name": "El Dorado", "state": "", "country": "TT", "coord": {"lon": -61.383331, "lat": 10.63333}}, {"id": 3574632, "name": "Dinsley", "state": "", "country": "TT", "coord": {"lon": -61.349998, "lat": 10.63333}}, {"id": 3574655, "name": "Delaford", "state": "", "country": "TT", "coord": {"lon": -60.559319, "lat": 11.26601}}, {"id": 3574659, "name": "Debe", "state": "", "country": "TT", "coord": {"lon": -61.450001, "lat": 10.2}}, {"id": 3574671, "name": "Curepe", "state": "", "country": "TT", "coord": {"lon": -61.400002, "lat": 10.63333}}, {"id": 3574689, "name": "Cumuto", "state": "", "country": "TT", "coord": {"lon": -61.200001, "lat": 10.58333}}, {"id": 3574724, "name": "Couva", "state": "", "country": "TT", "coord": {"lon": -61.46748, "lat": 10.42248}}, {"id": 3574729, "name": "Coryal", "state": "", "country": "TT", "coord": {"lon": -61.183331, "lat": 10.5}}, {"id": 3574738, "name": "Corbeaux Town", "state": "", "country": "TT", "coord": {"lon": -61.51667, "lat": 10.65}}, {"id": 3574766, "name": "Coco", "state": "", "country": "TT", "coord": {"lon": -61.583328, "lat": 10.68333}}, {"id": 3574773, "name": "Claxton Bay", "state": "", "country": "TT", "coord": {"lon": -61.466671, "lat": 10.35}}, {"id": 3574794, "name": "Chase Village", "state": "", "country": "TT", "coord": {"lon": -61.416672, "lat": 10.46667}}, {"id": 3574806, "name": "Chaguaramas", "state": "", "country": "TT", "coord": {"lon": -61.633331, "lat": 10.68333}}, {"id": 3574810, "name": "Chaguanas", "state": "", "country": "TT", "coord": {"lon": -61.416672, "lat": 10.51667}}, {"id": 3574874, "name": "Cap-de-Ville", "state": "", "country": "TT", "coord": {"lon": -61.700001, "lat": 10.15}}, {"id": 3574877, "name": "Caparo", "state": "", "country": "TT", "coord": {"lon": -61.333328, "lat": 10.45}}, {"id": 3574878, "name": "Cantaro", "state": "", "country": "TT", "coord": {"lon": -61.466671, "lat": 10.7}}, {"id": 3574888, "name": "Canaan", "state": "", "country": "TT", "coord": {"lon": -61.466671, "lat": 10.25}}, {"id": 3574928, "name": "Brickfield", "state": "", "country": "TT", "coord": {"lon": -61.466671, "lat": 10.48333}}, {"id": 3574952, "name": "Bon Accord Village", "state": "", "country": "TT", "coord": {"lon": -60.83075, "lat": 11.1543}}, {"id": 3574957, "name": "Boissiere Village", "state": "", "country": "TT", "coord": {"lon": -61.51667, "lat": 10.66667}}, {"id": 3574986, "name": "Black Rock", "state": "", "country": "TT", "coord": {"lon": -60.781898, "lat": 11.20598}}, {"id": 3575039, "name": "Arouca", "state": "", "country": "TT", "coord": {"lon": -61.333328, "lat": 10.63333}}, {"id": 3575051, "name": "Arima", "state": "", "country": "TT", "coord": {"lon": -61.283329, "lat": 10.63333}}, {"id": 3575052, "name": "Arima", "state": "", "country": "TT", "coord": {"lon": -61.283329, "lat": 10.63333}}, {"id": 3575073, "name": "Adelphi", "state": "", "country": "TT", "coord": {"lon": -60.717731, "lat": 11.20969}}, {"id": 3575116, "name": "Trants", "state": "", "country": "KN", "coord": {"lon": -62.849998, "lat": 17.383329}}, {"id": 3575156, "name": "Sandy Point Town", "state": "", "country": "KN", "coord": {"lon": -62.833328, "lat": 17.35}}, {"id": 3575164, "name": "Saint Thomas Middle Island", "state": "", "country": "KN", "coord": {"lon": -62.799999, "lat": 17.35}}, {"id": 3575165, "name": "Saint Thomas Lowland", "state": "", "country": "KN", "coord": {"lon": -62.599998, "lat": 17.16667}}, {"id": 3575167, "name": "Saint Peter\u2019s", "state": "", "country": "KN", "coord": {"lon": -62.716671, "lat": 17.299999}}, {"id": 3575168, "name": "Saint Peter Basseterre", "state": "", "country": "KN", "coord": {"lon": -62.716671, "lat": 17.316669}}, {"id": 3575174, "name": "Federation of Saint Kitts and Nevis", "state": "", "country": "KN", "coord": {"lon": -62.75, "lat": 17.33333}}, {"id": 3575175, "name": "Saint John Figtree", "state": "", "country": "KN", "coord": {"lon": -62.599998, "lat": 17.116671}}, {"id": 3575177, "name": "Saint James Windward", "state": "", "country": "KN", "coord": {"lon": -62.566669, "lat": 17.16667}}, {"id": 3575180, "name": "Saint George Basseterre", "state": "", "country": "KN", "coord": {"lon": -62.683331, "lat": 17.26667}}, {"id": 3575261, "name": "Newcastle", "state": "", "country": "KN", "coord": {"lon": -62.583328, "lat": 17.200001}}, {"id": 3575284, "name": "Monkey Hill", "state": "", "country": "KN", "coord": {"lon": -62.716671, "lat": 17.316669}}, {"id": 3575316, "name": "Lodge", "state": "", "country": "KN", "coord": {"lon": -62.75, "lat": 17.35}}, {"id": 3575384, "name": "Half Way Tree", "state": "", "country": "KN", "coord": {"lon": -62.816669, "lat": 17.33333}}, {"id": 3575438, "name": "Douglas", "state": "", "country": "KN", "coord": {"lon": -62.716671, "lat": 17.316669}}, {"id": 3575441, "name": "Dieppe Bay Town", "state": "", "country": "KN", "coord": {"lon": -62.815281, "lat": 17.41297}}, {"id": 3575458, "name": "Cotton Ground", "state": "", "country": "KN", "coord": {"lon": -62.616669, "lat": 17.16667}}, {"id": 3575476, "name": "Christ Church Nichola Town", "state": "", "country": "KN", "coord": {"lon": -62.76667, "lat": 17.35}}, {"id": 3575479, "name": "Charlestown", "state": "", "country": "KN", "coord": {"lon": -62.616669, "lat": 17.133329}}, {"id": 3575487, "name": "Cayon", "state": "", "country": "KN", "coord": {"lon": -62.73333, "lat": 17.35}}, {"id": 3575514, "name": "Brumaire", "state": "", "country": "KN", "coord": {"lon": -62.73333, "lat": 17.299999}}, {"id": 3575516, "name": "Brown Hill", "state": "", "country": "KN", "coord": {"lon": -62.599998, "lat": 17.116671}}, {"id": 3575551, "name": "Basseterre", "state": "", "country": "KN", "coord": {"lon": -62.726101, "lat": 17.29484}}, {"id": 3575565, "name": "Woodford Hill", "state": "", "country": "DM", "coord": {"lon": -61.333328, "lat": 15.56667}}, {"id": 3575568, "name": "Wesley", "state": "", "country": "DM", "coord": {"lon": -61.316669, "lat": 15.56667}}, {"id": 3575578, "name": "Trafalgar", "state": "", "country": "DM", "coord": {"lon": -61.349998, "lat": 15.31667}}, {"id": 3575602, "name": "Soufri\u00e8re", "state": "", "country": "DM", "coord": {"lon": -61.366669, "lat": 15.23333}}, {"id": 3575612, "name": "Salisbury", "state": "", "country": "DM", "coord": {"lon": -61.450001, "lat": 15.43333}}, {"id": 3575619, "name": "Saint Paul", "state": "", "country": "DM", "coord": {"lon": -61.383331, "lat": 15.35}}, {"id": 3575620, "name": "Saint Patrick", "state": "", "country": "DM", "coord": {"lon": -61.299999, "lat": 15.28333}}, {"id": 3575621, "name": "Saint Mark", "state": "", "country": "DM", "coord": {"lon": -61.366669, "lat": 15.21667}}, {"id": 3575622, "name": "Saint Luke", "state": "", "country": "DM", "coord": {"lon": -61.383331, "lat": 15.26667}}, {"id": 3575624, "name": "Saint Joseph", "state": "", "country": "DM", "coord": {"lon": -61.433331, "lat": 15.4}}, {"id": 3575625, "name": "Saint Joseph", "state": "", "country": "DM", "coord": {"lon": -61.433331, "lat": 15.43333}}, {"id": 3575626, "name": "Saint John", "state": "", "country": "DM", "coord": {"lon": -61.450001, "lat": 15.58333}}, {"id": 3575628, "name": "Saint George", "state": "", "country": "DM", "coord": {"lon": -61.366669, "lat": 15.3}}, {"id": 3575630, "name": "Saint David", "state": "", "country": "DM", "coord": {"lon": -61.283329, "lat": 15.46667}}, {"id": 3575632, "name": "Saint Andrew", "state": "", "country": "DM", "coord": {"lon": -61.366669, "lat": 15.56667}}, {"id": 3575635, "name": "Roseau", "state": "", "country": "DM", "coord": {"lon": -61.388081, "lat": 15.30174}}, {"id": 3575639, "name": "Rosalie", "state": "", "country": "DM", "coord": {"lon": -61.26667, "lat": 15.36667}}, {"id": 3575641, "name": "Roger", "state": "", "country": "DM", "coord": {"lon": -61.400002, "lat": 15.33333}}, {"id": 3575654, "name": "Portsmouth", "state": "", "country": "DM", "coord": {"lon": -61.466671, "lat": 15.58333}}, {"id": 3575660, "name": "Pointe Michel", "state": "", "country": "DM", "coord": {"lon": -61.383331, "lat": 15.25}}, {"id": 3575721, "name": "Marigot", "state": "", "country": "DM", "coord": {"lon": -61.299999, "lat": 15.53333}}, {"id": 3575733, "name": "Mahaut", "state": "", "country": "DM", "coord": {"lon": -61.400002, "lat": 15.35}}, {"id": 3575737, "name": "Loubiere", "state": "", "country": "DM", "coord": {"lon": -61.383331, "lat": 15.26667}}, {"id": 3575755, "name": "La Plaine", "state": "", "country": "DM", "coord": {"lon": -61.25, "lat": 15.33333}}, {"id": 3575761, "name": "Lagon", "state": "", "country": "DM", "coord": {"lon": -61.466671, "lat": 15.58333}}, {"id": 3575830, "name": "Dominica", "state": "", "country": "DM", "coord": {"lon": -61.333328, "lat": 15.5}}, {"id": 3575863, "name": "Clifton", "state": "", "country": "DM", "coord": {"lon": -61.466671, "lat": 15.58333}}, {"id": 3575870, "name": "Castle Bruce", "state": "", "country": "DM", "coord": {"lon": -61.26667, "lat": 15.43333}}, {"id": 3575882, "name": "Calibishie", "state": "", "country": "DM", "coord": {"lon": -61.349998, "lat": 15.58333}}, {"id": 3575899, "name": "Berekua", "state": "", "country": "DM", "coord": {"lon": -61.316669, "lat": 15.23333}}, {"id": 3575930, "name": "Yorks", "state": "", "country": "AG", "coord": {"lon": -61.866669, "lat": 17.08333}}, {"id": 3575975, "name": "Swetes", "state": "", "country": "AG", "coord": {"lon": -61.799999, "lat": 17.049999}}, {"id": 3576016, "name": "Parish of Saint Peter", "state": "", "country": "AG", "coord": {"lon": -61.76667, "lat": 17.1}}, {"id": 3576017, "name": "Parish of Saint Paul", "state": "", "country": "AG", "coord": {"lon": -61.76667, "lat": 17.033331}}, {"id": 3576018, "name": "Parish of Saint Mary", "state": "", "country": "AG", "coord": {"lon": -61.849998, "lat": 17.049999}}, {"id": 3576022, "name": "Saint John\u2019s", "state": "", "country": "AG", "coord": {"lon": -61.849998, "lat": 17.116671}}, {"id": 3576023, "name": "Parish of Saint John", "state": "", "country": "AG", "coord": {"lon": -61.849998, "lat": 17.1}}, {"id": 3576024, "name": "Parish of Saint George", "state": "", "country": "AG", "coord": {"lon": -61.799999, "lat": 17.116671}}, {"id": 3576050, "name": "Potters Village", "state": "", "country": "AG", "coord": {"lon": -61.816669, "lat": 17.08333}}, {"id": 3576057, "name": "Piggotts", "state": "", "country": "AG", "coord": {"lon": -61.799999, "lat": 17.116671}}, {"id": 3576074, "name": "Parham", "state": "", "country": "AG", "coord": {"lon": -61.770458, "lat": 17.096821}}, {"id": 3576144, "name": "Liberta", "state": "", "country": "AG", "coord": {"lon": -61.783329, "lat": 17.033331}}, {"id": 3576260, "name": "Falmouth", "state": "", "country": "AG", "coord": {"lon": -61.781361, "lat": 17.027411}}, {"id": 3576361, "name": "Bolands", "state": "", "country": "AG", "coord": {"lon": -61.87466, "lat": 17.065651}}, {"id": 3576396, "name": "Antigua and Barbuda", "state": "", "country": "AG", "coord": {"lon": -61.799999, "lat": 17.049999}}, {"id": 3576397, "name": "All Saints", "state": "", "country": "AG", "coord": {"lon": -61.79303, "lat": 17.06671}}, {"id": 3576413, "name": "Vieux-Fort", "state": "", "country": "LC", "coord": {"lon": -60.966671, "lat": 13.78333}}, {"id": 3576414, "name": "Vieux Fort", "state": "", "country": "LC", "coord": {"lon": -60.950001, "lat": 13.71667}}, {"id": 3576442, "name": "Soufri\u00e8re", "state": "", "country": "LC", "coord": {"lon": -61.056599, "lat": 13.85616}}, {"id": 3576468, "name": "Saint Lucia", "state": "", "country": "LC", "coord": {"lon": -60.966671, "lat": 13.88333}}, {"id": 3576569, "name": "Micoud", "state": "", "country": "LC", "coord": {"lon": -60.900002, "lat": 13.81667}}, {"id": 3576588, "name": "Marigot", "state": "", "country": "LC", "coord": {"lon": -61.0, "lat": 13.96667}}, {"id": 3576591, "name": "Marchand", "state": "", "country": "LC", "coord": {"lon": -60.98333, "lat": 14.0}}, {"id": 3576663, "name": "Laborie", "state": "", "country": "LC", "coord": {"lon": -60.98333, "lat": 13.75}}, {"id": 3576685, "name": "Gros-Islet", "state": "", "country": "LC", "coord": {"lon": -60.950001, "lat": 14.05}}, {"id": 3576686, "name": "Gros Islet", "state": "", "country": "LC", "coord": {"lon": -60.950001, "lat": 14.06667}}, {"id": 3576765, "name": "Dennery", "state": "", "country": "LC", "coord": {"lon": -60.887859, "lat": 13.89958}}, {"id": 3576810, "name": "Castries", "state": "", "country": "LC", "coord": {"lon": -60.966671, "lat": 13.98333}}, {"id": 3576812, "name": "Castries", "state": "", "country": "LC", "coord": {"lon": -61.006142, "lat": 13.9957}}, {"id": 3576818, "name": "Cap Estate", "state": "", "country": "LC", "coord": {"lon": -60.950001, "lat": 14.08333}}, {"id": 3576854, "name": "Bisee", "state": "", "country": "LC", "coord": {"lon": -60.966671, "lat": 14.01667}}, {"id": 3576894, "name": "Anse La Raye", "state": "", "country": "LC", "coord": {"lon": -61.033329, "lat": 13.93333}}, {"id": 3576909, "name": "West Road", "state": "", "country": "TC", "coord": {"lon": -71.133331, "lat": 21.466669}}, {"id": 3576916, "name": "Turks and Caicos Islands", "state": "", "country": "TC", "coord": {"lon": -71.583328, "lat": 21.73333}}, {"id": 3576979, "name": "Kew", "state": "", "country": "TC", "coord": {"lon": -72.033333, "lat": 21.9}}, {"id": 3576994, "name": "Cockburn Town", "state": "", "country": "TC", "coord": {"lon": -71.141876, "lat": 21.46122}}, {"id": 3577004, "name": "Five Cays Settlement", "state": "", "country": "TC", "coord": {"lon": -72.25, "lat": 21.75}}, {"id": 3577055, "name": "Back Salina", "state": "", "country": "TC", "coord": {"lon": -71.133331, "lat": 21.450001}}, {"id": 3577089, "name": "San Nicolas", "state": "", "country": "AW", "coord": {"lon": -69.900002, "lat": 12.43333}}, {"id": 3577101, "name": "Santa Helena", "state": "", "country": "AW", "coord": {"lon": -70.033333, "lat": 12.51667}}, {"id": 3577107, "name": "Savaneta", "state": "", "country": "AW", "coord": {"lon": -69.933327, "lat": 12.45}}, {"id": 3577112, "name": "Sabana Berde", "state": "", "country": "AW", "coord": {"lon": -70.01667, "lat": 12.5}}, {"id": 3577149, "name": "Paradijs", "state": "", "country": "AW", "coord": {"lon": -70.033333, "lat": 12.53333}}, {"id": 3577154, "name": "Oranjestad", "state": "", "country": "AW", "coord": {"lon": -70.027031, "lat": 12.52398}}, {"id": 3577159, "name": "Noord", "state": "", "country": "AW", "coord": {"lon": -70.01667, "lat": 12.56667}}, {"id": 3577277, "name": "Babijn", "state": "", "country": "AW", "coord": {"lon": -69.98333, "lat": 12.53333}}, {"id": 3577279, "name": "Aruba", "state": "", "country": "AW", "coord": {"lon": -69.966667, "lat": 12.5}}, {"id": 3577282, "name": "Arashi", "state": "", "country": "AW", "coord": {"lon": -70.066673, "lat": 12.61667}}, {"id": 3577284, "name": "Angochi", "state": "", "country": "AW", "coord": {"lon": -69.949997, "lat": 12.51667}}, {"id": 3577430, "name": "Road Town", "state": "", "country": "VG", "coord": {"lon": -64.616669, "lat": 18.41667}}, {"id": 3577718, "name": "British Virgin Islands", "state": "", "country": "VG", "coord": {"lon": -64.5, "lat": 18.5}}, {"id": 3577815, "name": "Saint Vincent and the Grenadines", "state": "", "country": "VC", "coord": {"lon": -61.200001, "lat": 13.08333}}, {"id": 3577819, "name": "Parish of Saint George", "state": "", "country": "VC", "coord": {"lon": -61.200001, "lat": 13.16667}}, {"id": 3577821, "name": "Parish of Saint David", "state": "", "country": "VC", "coord": {"lon": -61.200001, "lat": 13.3}}, {"id": 3577822, "name": "Parish of Saint Andrew", "state": "", "country": "VC", "coord": {"lon": -61.23333, "lat": 13.2}}, {"id": 3577844, "name": "Port Elizabeth", "state": "", "country": "VC", "coord": {"lon": -61.23333, "lat": 13.01667}}, {"id": 3577857, "name": "Paget Farm", "state": "", "country": "VC", "coord": {"lon": -61.25, "lat": 12.98333}}, {"id": 3577866, "name": "New Sandy Bay Village", "state": "", "country": "VC", "coord": {"lon": -61.133331, "lat": 13.35}}, {"id": 3577879, "name": "Layou", "state": "", "country": "VC", "coord": {"lon": -61.26667, "lat": 13.2}}, {"id": 3577887, "name": "Kingstown", "state": "", "country": "VC", "coord": {"lon": -61.224751, "lat": 13.15872}}, {"id": 3577892, "name": "Grenadines", "state": "", "country": "VC", "coord": {"lon": -61.25, "lat": 12.83333}}, {"id": 3577900, "name": "Georgetown", "state": "", "country": "VC", "coord": {"lon": -61.130199, "lat": 13.2879}}, {"id": 3577911, "name": "Dovers", "state": "", "country": "VC", "coord": {"lon": -61.183331, "lat": 12.88333}}, {"id": 3577925, "name": "Clifton", "state": "", "country": "VC", "coord": {"lon": -61.416672, "lat": 12.58333}}, {"id": 3577933, "name": "Chateaubelair", "state": "", "country": "VC", "coord": {"lon": -61.25, "lat": 13.28333}}, {"id": 3577934, "name": "Parish of Charlotte", "state": "", "country": "VC", "coord": {"lon": -61.150002, "lat": 13.26667}}, {"id": 3577937, "name": "Charlestown", "state": "", "country": "VC", "coord": {"lon": -61.333328, "lat": 12.68333}}, {"id": 3577944, "name": "Byera Village", "state": "", "country": "VC", "coord": {"lon": -61.116669, "lat": 13.25}}, {"id": 3577955, "name": "Biabou", "state": "", "country": "VC", "coord": {"lon": -61.133331, "lat": 13.2}}, {"id": 3577962, "name": "Barrouallie", "state": "", "country": "VC", "coord": {"lon": -61.26667, "lat": 13.23333}}, {"id": 3577969, "name": "Arnos Vale", "state": "", "country": "VC", "coord": {"lon": -61.200001, "lat": 13.13333}}, {"id": 3577989, "name": "Webbs", "state": "", "country": "MS", "coord": {"lon": -62.216671, "lat": 16.700001}}, {"id": 3578028, "name": "Soldier Ghaut", "state": "", "country": "MS", "coord": {"lon": -62.200001, "lat": 16.783331}}, {"id": 3578039, "name": "Parish of Saint Peter", "state": "", "country": "MS", "coord": {"lon": -62.200001, "lat": 16.783331}}, {"id": 3578045, "name": "Parish of Saint Anthony", "state": "", "country": "MS", "coord": {"lon": -62.200001, "lat": 16.700001}}, {"id": 3578069, "name": "Plymouth", "state": "", "country": "MS", "coord": {"lon": -62.212921, "lat": 16.705549}}, {"id": 3578097, "name": "Montserrat", "state": "", "country": "MS", "coord": {"lon": -62.200001, "lat": 16.75}}, {"id": 3578160, "name": "Gerald's", "state": "", "country": "MS", "coord": {"lon": -62.193562, "lat": 16.79575}}, {"id": 3578278, "name": "Vieux-Habitants", "state": "", "country": "GP", "coord": {"lon": -61.765949, "lat": 16.058901}}, {"id": 3578324, "name": "Trois-Rivi\u00e8res", "state": "", "country": "GP", "coord": {"lon": -61.645088, "lat": 15.97567}}, {"id": 3578351, "name": "Petites Anses", "state": "", "country": "GP", "coord": {"lon": -61.644169, "lat": 15.85011}}, {"id": 3578421, "name": "Saint-Martin", "state": "", "country": "MF", "coord": {"lon": -63.066669, "lat": 18.066669}}, {"id": 3578441, "name": "Saint-Fran\u00e7ois", "state": "", "country": "GP", "coord": {"lon": -61.274139, "lat": 16.25264}}, {"id": 3578447, "name": "Sainte-Rose", "state": "", "country": "GP", "coord": {"lon": -61.697929, "lat": 16.33238}}, {"id": 3578466, "name": "Sainte-Anne", "state": "", "country": "GP", "coord": {"lon": -61.379189, "lat": 16.22636}}, {"id": 3578467, "name": "Saint-Claude", "state": "", "country": "GP", "coord": {"lon": -61.702148, "lat": 16.02409}}, {"id": 3578476, "name": "Saint Barth\u00e9lemy", "state": "", "country": "BL", "coord": {"lon": -62.833328, "lat": 17.9}}, {"id": 3578562, "name": "Public", "state": "", "country": "BL", "coord": {"lon": -62.849998, "lat": 17.9}}, {"id": 3578575, "name": "Port-Louis", "state": "", "country": "GP", "coord": {"lon": -61.531311, "lat": 16.41901}}, {"id": 3578577, "name": "Portland", "state": "", "country": "GP", "coord": {"lon": -61.323528, "lat": 16.3242}}, {"id": 3578592, "name": "Poirier", "state": "", "country": "GP", "coord": {"lon": -61.369862, "lat": 16.244329}}, {"id": 3578594, "name": "Pointe-Noire", "state": "", "country": "GP", "coord": {"lon": -61.78783, "lat": 16.23086}}, {"id": 3578598, "name": "Arrondissement de Pointe-\u00e0-Pitre", "state": "", "country": "GP", "coord": {"lon": -61.416672, "lat": 16.33333}}, {"id": 3578599, "name": "Pointe-\u00e0-Pitre", "state": "", "country": "GP", "coord": {"lon": -61.534302, "lat": 16.242201}}, {"id": 3578681, "name": "Petit-Canal", "state": "", "country": "GP", "coord": {"lon": -61.487881, "lat": 16.378361}}, {"id": 3578682, "name": "Petit-Bourg", "state": "", "country": "GP", "coord": {"lon": -61.591591, "lat": 16.191351}}, {"id": 3578818, "name": "Mazeau", "state": "", "country": "GP", "coord": {"lon": -61.788391, "lat": 16.2948}}, {"id": 3578851, "name": "Marigot", "state": "", "country": "MF", "coord": {"lon": -63.083328, "lat": 18.066669}}, {"id": 3578886, "name": "Mahaudi\u00e8re", "state": "", "country": "GP", "coord": {"lon": -61.505211, "lat": 16.46744}}, {"id": 3578914, "name": "Longval", "state": "", "country": "GP", "coord": {"lon": -61.5, "lat": 16.26667}}, {"id": 3578959, "name": "Les Abymes", "state": "", "country": "GP", "coord": {"lon": -61.504509, "lat": 16.27095}}, {"id": 3578967, "name": "Le Moule", "state": "", "country": "GP", "coord": {"lon": -61.347279, "lat": 16.333151}}, {"id": 3578978, "name": "Le Gosier", "state": "", "country": "GP", "coord": {"lon": -61.49329, "lat": 16.20685}}, {"id": 3579023, "name": "Lamentin", "state": "", "country": "GP", "coord": {"lon": -61.631241, "lat": 16.271049}}, {"id": 3579035, "name": "La Grange", "state": "", "country": "GP", "coord": {"lon": -61.566669, "lat": 16.133329}}, {"id": 3579132, "name": "Gustavia", "state": "", "country": "BL", "coord": {"lon": -62.849781, "lat": 17.896179}}, {"id": 3579143, "name": "Guadeloupe", "state": "", "country": "GP", "coord": {"lon": -61.583328, "lat": 16.25}}, {"id": 3579232, "name": "Beaus\u00e9jour", "state": "", "country": "GP", "coord": {"lon": -61.074059, "lat": 16.303511}}, {"id": 3579250, "name": "Grand-Bourg", "state": "", "country": "GP", "coord": {"lon": -61.314838, "lat": 15.88346}}, {"id": 3579259, "name": "Goyave", "state": "", "country": "GP", "coord": {"lon": -61.574009, "lat": 16.13517}}, {"id": 3579267, "name": "Gourbeyre", "state": "", "country": "GP", "coord": {"lon": -61.69138, "lat": 15.99378}}, {"id": 3579543, "name": "Champfleury", "state": "", "country": "GP", "coord": {"lon": -61.680641, "lat": 15.98149}}, {"id": 3579585, "name": "Capesterre-Belle-Eau", "state": "", "country": "GP", "coord": {"lon": -61.56596, "lat": 16.043221}}, {"id": 3579642, "name": "Bouillante", "state": "", "country": "GP", "coord": {"lon": -61.769192, "lat": 16.130409}}, {"id": 3579650, "name": "Borel", "state": "", "country": "GP", "coord": {"lon": -61.616669, "lat": 16.26667}}, {"id": 3579731, "name": "Arrondissement de la Basse-Terre", "state": "", "country": "GP", "coord": {"lon": -61.666672, "lat": 16.16667}}, {"id": 3579732, "name": "Basse-Terre", "state": "", "country": "GP", "coord": {"lon": -61.725479, "lat": 15.99854}}, {"id": 3579759, "name": "Baimbridge", "state": "", "country": "GP", "coord": {"lon": -61.518162, "lat": 16.24494}}, {"id": 3579761, "name": "Baillif", "state": "", "country": "GP", "coord": {"lon": -61.746319, "lat": 16.02018}}, {"id": 3579767, "name": "Baie-Mahault", "state": "", "country": "GP", "coord": {"lon": -61.58543, "lat": 16.26738}}, {"id": 3579789, "name": "Anse-Bertrand", "state": "", "country": "GP", "coord": {"lon": -61.507778, "lat": 16.472059}}, {"id": 3579819, "name": "Willis", "state": "", "country": "GD", "coord": {"lon": -61.716671, "lat": 12.08333}}, {"id": 3579821, "name": "White Gun", "state": "", "country": "GD", "coord": {"lon": -61.73333, "lat": 12.05}}, {"id": 3579833, "name": "Victoria", "state": "", "country": "GD", "coord": {"lon": -61.706772, "lat": 12.19021}}, {"id": 3579891, "name": "Sauteurs", "state": "", "country": "GD", "coord": {"lon": -61.633331, "lat": 12.21667}}, {"id": 3579907, "name": "Saint Patrick", "state": "", "country": "GD", "coord": {"lon": -61.633331, "lat": 12.2}}, {"id": 3579925, "name": "Saint George's", "state": "", "country": "GD", "coord": {"lon": -61.748489, "lat": 12.05644}}, {"id": 3579926, "name": "Saint George", "state": "", "country": "GD", "coord": {"lon": -61.73333, "lat": 12.05}}, {"id": 3579931, "name": "Saint David\u2019s", "state": "", "country": "GD", "coord": {"lon": -61.666672, "lat": 12.03333}}, {"id": 3579932, "name": "Saint David", "state": "", "country": "GD", "coord": {"lon": -61.666672, "lat": 12.05}}, {"id": 3579938, "name": "Saint Andrew", "state": "", "country": "GD", "coord": {"lon": -61.650002, "lat": 12.11667}}, {"id": 3580119, "name": "Marian", "state": "", "country": "GD", "coord": {"lon": -61.716671, "lat": 12.01667}}, {"id": 3580164, "name": "L\u2019\u00c9tage", "state": "", "country": "GD", "coord": {"lon": -61.633331, "lat": 12.18333}}, {"id": 3580236, "name": "Grenville", "state": "", "country": "GD", "coord": {"lon": -61.616669, "lat": 12.11667}}, {"id": 3580239, "name": "Grenada", "state": "", "country": "GD", "coord": {"lon": -61.666672, "lat": 12.11667}}, {"id": 3580279, "name": "Gouyave", "state": "", "country": "GD", "coord": {"lon": -61.729649, "lat": 12.16462}}, {"id": 3580372, "name": "Champs Fleurs", "state": "", "country": "GD", "coord": {"lon": -61.683331, "lat": 12.05}}, {"id": 3580422, "name": "Birch Grove", "state": "", "country": "GD", "coord": {"lon": -61.666672, "lat": 12.1}}, {"id": 3580433, "name": "Belle Isle", "state": "", "country": "GD", "coord": {"lon": -61.650002, "lat": 12.03333}}, {"id": 3580449, "name": "Bamboo", "state": "", "country": "GD", "coord": {"lon": -61.783329, "lat": 12.0}}, {"id": 3580477, "name": "West Bay", "state": "", "country": "KY", "coord": {"lon": -81.416672, "lat": 19.366671}}, {"id": 3580529, "name": "Savannah", "state": "", "country": "KY", "coord": {"lon": -81.300003, "lat": 19.26667}}, {"id": 3580572, "name": "North Sound Estates", "state": "", "country": "KY", "coord": {"lon": -81.300003, "lat": 19.299999}}, {"id": 3580575, "name": "North Side", "state": "", "country": "KY", "coord": {"lon": -81.199997, "lat": 19.35}}, {"id": 3580601, "name": "Lower Valley", "state": "", "country": "KY", "coord": {"lon": -81.283333, "lat": 19.283331}}, {"id": 3580619, "name": "Lambert House", "state": "", "country": "KY", "coord": {"lon": -81.400002, "lat": 19.26667}}, {"id": 3580661, "name": "George Town", "state": "", "country": "KY", "coord": {"lon": -81.367058, "lat": 19.286921}}, {"id": 3580678, "name": "East End", "state": "", "country": "KY", "coord": {"lon": -81.116669, "lat": 19.299999}}, {"id": 3580686, "name": "Dog City", "state": "", "country": "KY", "coord": {"lon": -81.383331, "lat": 19.299999}}, {"id": 3580718, "name": "Cayman Islands", "state": "", "country": "KY", "coord": {"lon": -80.666672, "lat": 19.5}}, {"id": 3580733, "name": "Bodden Town", "state": "", "country": "KY", "coord": {"lon": -81.25, "lat": 19.283331}}, {"id": 3580913, "name": "Toledo District", "state": "", "country": "BZ", "coord": {"lon": -88.75, "lat": 16.33333}}, {"id": 3580975, "name": "Stann Creek District", "state": "", "country": "BZ", "coord": {"lon": -88.5, "lat": 16.83333}}, {"id": 3580985, "name": "Spanish Lookout", "state": "", "country": "BZ", "coord": {"lon": -88.98333, "lat": 17.216669}}, {"id": 3581164, "name": "San Pedro", "state": "", "country": "BZ", "coord": {"lon": -87.965897, "lat": 17.915979}}, {"id": 3581194, "name": "San Ignacio", "state": "", "country": "BZ", "coord": {"lon": -89.071388, "lat": 17.156111}}, {"id": 3581367, "name": "Ranchito", "state": "", "country": "BZ", "coord": {"lon": -88.400002, "lat": 18.366671}}, {"id": 3581398, "name": "Punta Gorda", "state": "", "country": "BZ", "coord": {"lon": -88.8097, "lat": 16.098351}}, {"id": 3581418, "name": "Privassion Camp", "state": "", "country": "BZ", "coord": {"lon": -88.949997, "lat": 17.033331}}, {"id": 3581511, "name": "Orange Walk District", "state": "", "country": "BZ", "coord": {"lon": -88.833328, "lat": 17.83333}}, {"id": 3581514, "name": "Orange Walk", "state": "", "country": "BZ", "coord": {"lon": -88.563278, "lat": 18.08124}}, {"id": 3581672, "name": "Middlesex", "state": "", "country": "BZ", "coord": {"lon": -88.5, "lat": 17.01667}}, {"id": 3581851, "name": "Ladyville", "state": "", "country": "BZ", "coord": {"lon": -88.290001, "lat": 17.55427}}, {"id": 3581922, "name": "Hopkins", "state": "", "country": "BZ", "coord": {"lon": -88.283333, "lat": 16.866671}}, {"id": 3582228, "name": "Dangriga", "state": "", "country": "BZ", "coord": {"lon": -88.232063, "lat": 16.96921}}, {"id": 3582302, "name": "Corozal District", "state": "", "country": "BZ", "coord": {"lon": -88.333328, "lat": 18.25}}, {"id": 3582305, "name": "Corozal", "state": "", "country": "BZ", "coord": {"lon": -88.394188, "lat": 18.39794}}, {"id": 3582324, "name": "Consejo", "state": "", "country": "BZ", "coord": {"lon": -88.283333, "lat": 18.450001}}, {"id": 3582383, "name": "Chicago", "state": "", "country": "BZ", "coord": {"lon": -88.300003, "lat": 17.799999}}, {"id": 3582429, "name": "Cayo District", "state": "", "country": "BZ", "coord": {"lon": -88.916672, "lat": 16.83333}}, {"id": 3582487, "name": "Caledonia", "state": "", "country": "BZ", "coord": {"lon": -88.466667, "lat": 18.216669}}, {"id": 3582662, "name": "Benque Viejo el Carmen", "state": "", "country": "BZ", "coord": {"lon": -89.139168, "lat": 17.075001}}, {"id": 3582672, "name": "Belmopan", "state": "", "country": "BZ", "coord": {"lon": -88.76667, "lat": 17.25}}, {"id": 3582676, "name": "Belize District", "state": "", "country": "BZ", "coord": {"lon": -88.166672, "lat": 17.25}}, {"id": 3582677, "name": "Belize City", "state": "", "country": "BZ", "coord": {"lon": -88.197563, "lat": 17.499519}}, {"id": 3582678, "name": "Belize", "state": "", "country": "BZ", "coord": {"lon": -88.75, "lat": 17.25}}, {"id": 3582790, "name": "Zaragoza", "state": "", "country": "SV", "coord": {"lon": -89.288887, "lat": 13.58944}}, {"id": 3582805, "name": "Zacatecoluca", "state": "", "country": "SV", "coord": {"lon": -88.866669, "lat": 13.5}}, {"id": 3582835, "name": "Victoria", "state": "", "country": "SV", "coord": {"lon": -88.633331, "lat": 13.95}}, {"id": 3582882, "name": "Departamento de Usulut\u00e1n", "state": "", "country": "SV", "coord": {"lon": -88.533333, "lat": 13.43333}}, {"id": 3582883, "name": "Usulut\u00e1n", "state": "", "country": "SV", "coord": {"lon": -88.449997, "lat": 13.35}}, {"id": 3582918, "name": "Tonacatepeque", "state": "", "country": "SV", "coord": {"lon": -89.118607, "lat": 13.78111}}, {"id": 3582954, "name": "Texistepeque", "state": "", "country": "SV", "coord": {"lon": -89.5, "lat": 14.13333}}, {"id": 3582974, "name": "Tepecoyo", "state": "", "country": "SV", "coord": {"lon": -89.467781, "lat": 13.70028}}, {"id": 3582981, "name": "Teosinte", "state": "", "country": "SV", "coord": {"lon": -89.133331, "lat": 14.25}}, {"id": 3582987, "name": "Tenancingo", "state": "", "country": "SV", "coord": {"lon": -88.98333, "lat": 13.83333}}, {"id": 3583009, "name": "Tecoluca", "state": "", "country": "SV", "coord": {"lon": -89.00528, "lat": 13.78917}}, {"id": 3583041, "name": "Tamanique", "state": "", "country": "SV", "coord": {"lon": -89.42028, "lat": 13.59833}}, {"id": 3583065, "name": "Tacuba", "state": "", "country": "SV", "coord": {"lon": -89.929718, "lat": 13.90111}}, {"id": 3583090, "name": "Suchitoto", "state": "", "country": "SV", "coord": {"lon": -89.027779, "lat": 13.93806}}, {"id": 3583096, "name": "Soyapango", "state": "", "country": "SV", "coord": {"lon": -89.15139, "lat": 13.73472}}, {"id": 3583098, "name": "Sonzacate", "state": "", "country": "SV", "coord": {"lon": -89.714722, "lat": 13.73417}}, {"id": 3583101, "name": "Departamento de Sonsonate", "state": "", "country": "SV", "coord": {"lon": -89.699997, "lat": 13.7}}, {"id": 3583102, "name": "Sonsonate", "state": "", "country": "SV", "coord": {"lon": -89.724167, "lat": 13.71889}}, {"id": 3583111, "name": "Sociedad", "state": "", "country": "SV", "coord": {"lon": -88.01667, "lat": 13.7}}, {"id": 3583120, "name": "Sitio Las Palomas", "state": "", "country": "SV", "coord": {"lon": -89.5, "lat": 14.0}}, {"id": 3583127, "name": "Sitio de Los Nejapa", "state": "", "country": "SV", "coord": {"lon": -89.272781, "lat": 13.89194}}, {"id": 3583155, "name": "Sesori", "state": "", "country": "SV", "coord": {"lon": -88.366669, "lat": 13.71667}}, {"id": 3583158, "name": "Sensuntepeque", "state": "", "country": "SV", "coord": {"lon": -88.633331, "lat": 13.86667}}, {"id": 3583176, "name": "Departamento de San Vicente", "state": "", "country": "SV", "coord": {"lon": -88.75, "lat": 13.51667}}, {"id": 3583178, "name": "San Vicente", "state": "", "country": "SV", "coord": {"lon": -88.800003, "lat": 13.63333}}, {"id": 3583183, "name": "Santo Tom\u00e1s", "state": "", "country": "SV", "coord": {"lon": -89.133331, "lat": 13.64083}}, {"id": 3583194, "name": "Santiago Texacuangos", "state": "", "country": "SV", "coord": {"lon": -89.118332, "lat": 13.64278}}, {"id": 3583196, "name": "Santiago Nonualco", "state": "", "country": "SV", "coord": {"lon": -88.949997, "lat": 13.51667}}, {"id": 3583199, "name": "Santiago de Mar\u00eda", "state": "", "country": "SV", "coord": {"lon": -88.466667, "lat": 13.48333}}, {"id": 3583214, "name": "Santa Rosa de Lima", "state": "", "country": "SV", "coord": {"lon": -87.893608, "lat": 13.62472}}, {"id": 3583278, "name": "Santa Elena", "state": "", "country": "SV", "coord": {"lon": -88.416672, "lat": 13.38333}}, {"id": 3583332, "name": "Departamento de Santa Ana", "state": "", "country": "SV", "coord": {"lon": -89.583328, "lat": 14.1}}, {"id": 3583334, "name": "Santa Ana", "state": "", "country": "SV", "coord": {"lon": -89.559723, "lat": 13.99417}}, {"id": 3583338, "name": "San Sebasti\u00e1n Salitrillo", "state": "", "country": "SV", "coord": {"lon": -89.636108, "lat": 13.96917}}, {"id": 3583352, "name": "San Sebasti\u00e1n", "state": "", "country": "SV", "coord": {"lon": -88.833328, "lat": 13.73333}}, {"id": 3583360, "name": "Departamento de San Salvador", "state": "", "country": "SV", "coord": {"lon": -89.183327, "lat": 13.78333}}, {"id": 3583361, "name": "San Salvador", "state": "", "country": "SV", "coord": {"lon": -89.18718, "lat": 13.68935}}, {"id": 3583379, "name": "San Rafael Oriente", "state": "", "country": "SV", "coord": {"lon": -88.349998, "lat": 13.38333}}, {"id": 3583381, "name": "San Rafael Obrajuelo", "state": "", "country": "SV", "coord": {"lon": -88.933327, "lat": 13.5}}, {"id": 3583404, "name": "San Pedro Nonualco", "state": "", "country": "SV", "coord": {"lon": -88.933327, "lat": 13.6}}, {"id": 3583407, "name": "San Pedro Masahuat", "state": "", "country": "SV", "coord": {"lon": -89.038612, "lat": 13.54361}}, {"id": 3583429, "name": "San Pablo Tacachico", "state": "", "country": "SV", "coord": {"lon": -89.339996, "lat": 13.97556}}, {"id": 3583446, "name": "San Miguel", "state": "", "country": "SV", "coord": {"lon": -88.183327, "lat": 13.48333}}, {"id": 3583457, "name": "San Miguel de Mercedes", "state": "", "country": "SV", "coord": {"lon": -88.933327, "lat": 14.01667}}, {"id": 3583462, "name": "Departamento de San Miguel", "state": "", "country": "SV", "coord": {"lon": -88.283333, "lat": 13.53333}}, {"id": 3583463, "name": "San Miguel", "state": "", "country": "SV", "coord": {"lon": -89.566673, "lat": 14.15}}, {"id": 3583471, "name": "San Mart\u00edn", "state": "", "country": "SV", "coord": {"lon": -88.916672, "lat": 13.78333}}, {"id": 3583480, "name": "San Marcos", "state": "", "country": "SV", "coord": {"lon": -89.18306, "lat": 13.65889}}, {"id": 3583499, "name": "San Luis Talpa", "state": "", "country": "SV", "coord": {"lon": -89.089172, "lat": 13.47389}}, {"id": 3583528, "name": "San Juan Talpa", "state": "", "country": "SV", "coord": {"lon": -89.090828, "lat": 13.50278}}, {"id": 3583531, "name": "San Juan Opico", "state": "", "country": "SV", "coord": {"lon": -89.359718, "lat": 13.87611}}, {"id": 3583533, "name": "San Juan Nonualco", "state": "", "country": "SV", "coord": {"lon": -88.883331, "lat": 13.5}}, {"id": 3583690, "name": "San Isidro", "state": "", "country": "SV", "coord": {"lon": -89.533333, "lat": 14.0}}, {"id": 3583716, "name": "San Francisco Men\u00e9ndez", "state": "", "country": "SV", "coord": {"lon": -90.015831, "lat": 13.84306}}, {"id": 3583733, "name": "San Francisco Amatepe", "state": "", "country": "SV", "coord": {"lon": -89.067497, "lat": 13.42278}}, {"id": 3583747, "name": "San Francisco", "state": "", "country": "SV", "coord": {"lon": -88.099998, "lat": 13.7}}, {"id": 3583833, "name": "San Antonio Tras El Cerro", "state": "", "country": "SV", "coord": {"lon": -88.800003, "lat": 13.63333}}, {"id": 3583851, "name": "San Antonio del Monte", "state": "", "country": "SV", "coord": {"lon": -89.738327, "lat": 13.71639}}, {"id": 3583900, "name": "San Andr\u00e9s", "state": "", "country": "SV", "coord": {"lon": -89.849998, "lat": 13.71667}}, {"id": 3583905, "name": "San Alejo", "state": "", "country": "SV", "coord": {"lon": -87.963058, "lat": 13.43139}}, {"id": 3583910, "name": "San Agust\u00edn", "state": "", "country": "SV", "coord": {"lon": -88.599998, "lat": 13.43333}}, {"id": 3583937, "name": "Rosario de Mora", "state": "", "country": "SV", "coord": {"lon": -89.208893, "lat": 13.57528}}, {"id": 3583981, "name": "Quezaltepeque", "state": "", "country": "SV", "coord": {"lon": -89.274437, "lat": 13.835}}, {"id": 3584003, "name": "Puerto El Triunfo", "state": "", "country": "SV", "coord": {"lon": -88.550003, "lat": 13.28333}}, {"id": 3584140, "name": "Pasaquina", "state": "", "country": "SV", "coord": {"lon": -87.84111, "lat": 13.58444}}, {"id": 3584156, "name": "Panchimalco", "state": "", "country": "SV", "coord": {"lon": -89.18, "lat": 13.61278}}, {"id": 3584190, "name": "Ozatl\u00e1n", "state": "", "country": "SV", "coord": {"lon": -88.5, "lat": 13.38333}}, {"id": 3584212, "name": "Olocuilta", "state": "", "country": "SV", "coord": {"lon": -89.117218, "lat": 13.56972}}, {"id": 3584251, "name": "Nuevo Cuscatl\u00e1n", "state": "", "country": "SV", "coord": {"lon": -89.265282, "lat": 13.64861}}, {"id": 3584257, "name": "Santa Tecla", "state": "", "country": "SV", "coord": {"lon": -89.279716, "lat": 13.67694}}, {"id": 3584260, "name": "Nueva Guadalupe", "state": "", "country": "SV", "coord": {"lon": -88.349998, "lat": 13.53333}}, {"id": 3584264, "name": "Nueva Esparta", "state": "", "country": "SV", "coord": {"lon": -87.838608, "lat": 13.78361}}, {"id": 3584266, "name": "Nueva Concepci\u00f3n", "state": "", "country": "SV", "coord": {"lon": -89.300003, "lat": 14.13333}}, {"id": 3584297, "name": "Nahuizalco", "state": "", "country": "SV", "coord": {"lon": -89.736671, "lat": 13.7775}}, {"id": 3584317, "name": "Departamento de Moraz\u00e1n", "state": "", "country": "SV", "coord": {"lon": -88.099998, "lat": 13.8}}, {"id": 3584348, "name": "Moncagua", "state": "", "country": "SV", "coord": {"lon": -88.25, "lat": 13.53333}}, {"id": 3584349, "name": "Molineros", "state": "", "country": "SV", "coord": {"lon": -88.866669, "lat": 13.65}}, {"id": 3584384, "name": "Metap\u00e1n", "state": "", "country": "SV", "coord": {"lon": -89.449997, "lat": 14.33333}}, {"id": 3584399, "name": "Mejicanos", "state": "", "country": "SV", "coord": {"lon": -89.213058, "lat": 13.74028}}, {"id": 3584424, "name": "Masahuat", "state": "", "country": "SV", "coord": {"lon": -89.433327, "lat": 14.18333}}, {"id": 3584714, "name": "Lolotique", "state": "", "country": "SV", "coord": {"lon": -88.349998, "lat": 13.55}}, {"id": 3584734, "name": "Llano de La Virgen", "state": "", "country": "SV", "coord": {"lon": -89.23333, "lat": 14.35}}, {"id": 3584767, "name": "Departamento de La Uni\u00f3n", "state": "", "country": "SV", "coord": {"lon": -87.900002, "lat": 13.55}}, {"id": 3584772, "name": "La Uni\u00f3n", "state": "", "country": "SV", "coord": {"lon": -87.843887, "lat": 13.33694}}, {"id": 3584935, "name": "La Shila", "state": "", "country": "SV", "coord": {"lon": -89.34639, "lat": 13.57083}}, {"id": 3584958, "name": "Las Flores", "state": "", "country": "SV", "coord": {"lon": -88.48333, "lat": 13.5}}, {"id": 3585087, "name": "Departamento de La Paz", "state": "", "country": "SV", "coord": {"lon": -88.98333, "lat": 13.46667}}, {"id": 3585155, "name": "Departamento de La Libertad", "state": "", "country": "SV", "coord": {"lon": -89.383331, "lat": 13.75}}, {"id": 3585157, "name": "La Libertad", "state": "", "country": "SV", "coord": {"lon": -89.32222, "lat": 13.48833}}, {"id": 3585392, "name": "Jujutla", "state": "", "country": "SV", "coord": {"lon": -89.857224, "lat": 13.78694}}, {"id": 3585395, "name": "Jucuar\u00e1n", "state": "", "country": "SV", "coord": {"lon": -88.24778, "lat": 13.25389}},