[{"id": 5904742, "name": "Boat Harbour", "state": "", "country": "CA", "coord": {"lon": -123.802696, "lat": 49.082932}}, {"id": 5904987, "name": "Bodo", "state": "", "country": "CA", "coord": {"lon": -110.084869, "lat": 52.150131}}, {"id": 5905132, "name": "Boisbriand", "state": "", "country": "CA", "coord": {"lon": -73.832489, "lat": 45.616779}}, {"id": 5905138, "name": "Boisdale", "state": "", "country": "CA", "coord": {"lon": -60.49847, "lat": 46.10014}}, {"id": 5905152, "name": "Bois-des-Filion", "state": "", "country": "CA", "coord": {"lon": -73.749184, "lat": 45.666779}}, {"id": 5905191, "name": "Boissevain", "state": "", "country": "CA", "coord": {"lon": -100.055862, "lat": 49.230621}}, {"id": 5905308, "name": "Bolton", "state": "", "country": "CA", "coord": {"lon": -79.737907, "lat": 43.87952}}, {"id": 5905331, "name": "Bolton-Ouest", "state": "", "country": "CA", "coord": {"lon": -72.449112, "lat": 45.233379}}, {"id": 5905348, "name": "Bon Accord", "state": "", "country": "CA", "coord": {"lon": -113.418716, "lat": 53.83345}}, {"id": 5905393, "name": "Bonavista", "state": "", "country": "CA", "coord": {"lon": -53.114738, "lat": 48.649891}}, {"id": 5905486, "name": "Bongard", "state": "", "country": "CA", "coord": {"lon": -76.94944, "lat": 44.05011}}, {"id": 5905616, "name": "Bonnyville", "state": "", "country": "CA", "coord": {"lon": -110.735046, "lat": 54.266842}}, {"id": 5905868, "name": "Bordeaux", "state": "", "country": "CA", "coord": {"lon": -73.693077, "lat": 45.542278}}, {"id": 5905875, "name": "Borden", "state": "", "country": "CA", "coord": {"lon": -63.694519, "lat": 46.25433}}, {"id": 5906087, "name": "Boswarlos", "state": "", "country": "CA", "coord": {"lon": -58.81522, "lat": 48.566719}}, {"id": 5906088, "name": "Boswell", "state": "", "country": "CA", "coord": {"lon": -116.768867, "lat": 49.449879}}, {"id": 5906222, "name": "Bottrel", "state": "", "country": "CA", "coord": {"lon": -114.485321, "lat": 51.400108}}, {"id": 5906229, "name": "Botwood", "state": "", "country": "CA", "coord": {"lon": -55.34819, "lat": 49.14994}}, {"id": 5906267, "name": "Boucherville", "state": "", "country": "CA", "coord": {"lon": -73.43605, "lat": 45.591042}}, {"id": 5906269, "name": "Bouchette", "state": "", "country": "CA", "coord": {"lon": -75.966049, "lat": 46.216808}}, {"id": 5906281, "name": "Bouctouche", "state": "", "country": "CA", "coord": {"lon": -64.739052, "lat": 46.468441}}, {"id": 5906575, "name": "Bourget", "state": "", "country": "CA", "coord": {"lon": -75.1493, "lat": 45.433399}}, {"id": 5906592, "name": "Bourlamaque", "state": "", "country": "CA", "coord": {"lon": -77.76619, "lat": 48.100182}}, {"id": 5906664, "name": "Bowden", "state": "", "country": "CA", "coord": {"lon": -114.035294, "lat": 51.916809}}, {"id": 5906690, "name": "Bowen Island", "state": "", "country": "CA", "coord": {"lon": -123.33596, "lat": 49.38295}}, {"id": 5906752, "name": "Bowesville", "state": "", "country": "CA", "coord": {"lon": -75.666039, "lat": 45.316799}}, {"id": 5906757, "name": "Bow Island", "state": "", "country": "CA", "coord": {"lon": -111.368431, "lat": 49.86676}}, {"id": 5906831, "name": "Bowmanville", "state": "", "country": "CA", "coord": {"lon": -78.682861, "lat": 43.916821}}, {"id": 5906853, "name": "Bowser", "state": "", "country": "CA", "coord": {"lon": -124.669502, "lat": 49.43293}}, {"id": 5907019, "name": "Boyle", "state": "", "country": "CA", "coord": {"lon": -112.81871, "lat": 54.583481}}, {"id": 5907092, "name": "Bracebridge", "state": "", "country": "CA", "coord": {"lon": -79.31633, "lat": 45.033409}}, {"id": 5907104, "name": "Bracken", "state": "", "country": "CA", "coord": {"lon": -108.101341, "lat": 49.183331}}, {"id": 5907106, "name": "Brackendale", "state": "", "country": "CA", "coord": {"lon": -123.152679, "lat": 49.766369}}, {"id": 5907166, "name": "Bradford", "state": "", "country": "CA", "coord": {"lon": -79.566322, "lat": 44.11681}}, {"id": 5907180, "name": "Bradford West Gwillimbury", "state": "", "country": "CA", "coord": {"lon": -79.616333, "lat": 44.11681}}, {"id": 5907294, "name": "Braeside", "state": "", "country": "CA", "coord": {"lon": -76.399391, "lat": 45.466808}}, {"id": 5907364, "name": "Brampton", "state": "", "country": "CA", "coord": {"lon": -79.766327, "lat": 43.683411}}, {"id": 5907368, "name": "Branch", "state": "", "country": "CA", "coord": {"lon": -53.948139, "lat": 46.883202}}, {"id": 5907896, "name": "Brandon", "state": "", "country": "CA", "coord": {"lon": -99.953056, "lat": 49.84692}}, {"id": 5907983, "name": "Brant", "state": "", "country": "CA", "coord": {"lon": -80.34967, "lat": 43.1334}}, {"id": 5907990, "name": "Brantford", "state": "", "country": "CA", "coord": {"lon": -80.266357, "lat": 43.1334}}, {"id": 5908111, "name": "Braund Port", "state": "", "country": "CA", "coord": {"lon": -78.332832, "lat": 44.266819}}, {"id": 5908163, "name": "Brazeau", "state": "", "country": "CA", "coord": {"lon": -116.08551, "lat": 52.466782}}, {"id": 5908319, "name": "Brechin", "state": "", "country": "CA", "coord": {"lon": -79.177269, "lat": 44.547661}}, {"id": 5908337, "name": "Bredenbury", "state": "", "country": "CA", "coord": {"lon": -102.050941, "lat": 50.950001}}, {"id": 5908408, "name": "Brem River", "state": "", "country": "CA", "coord": {"lon": -124.669601, "lat": 50.432949}}, {"id": 5908422, "name": "Brennan Harbour", "state": "", "country": "CA", "coord": {"lon": -82.385941, "lat": 46.187569}}, {"id": 5908443, "name": "Brent", "state": "", "country": "CA", "coord": {"lon": -78.482857, "lat": 46.033421}}, {"id": 5908473, "name": "Brentwood Bay", "state": "", "country": "CA", "coord": {"lon": -123.452621, "lat": 48.582939}}, {"id": 5908499, "name": "Breton", "state": "", "country": "CA", "coord": {"lon": -114.468781, "lat": 53.116821}}, {"id": 5908579, "name": "Breynat", "state": "", "country": "CA", "coord": {"lon": -112.468658, "lat": 55.133511}}, {"id": 5908672, "name": "Bridge Lake", "state": "", "country": "CA", "coord": {"lon": -120.719276, "lat": 51.483131}}, {"id": 5908691, "name": "Bridgeport", "state": "", "country": "CA", "coord": {"lon": -80.482986, "lat": 43.483398}}, {"id": 5908723, "name": "Bridgewater", "state": "", "country": "CA", "coord": {"lon": -64.515457, "lat": 44.38345}}, {"id": 5908749, "name": "Briercrest", "state": "", "country": "CA", "coord": {"lon": -105.26783, "lat": 50.166771}}, {"id": 5908835, "name": "Brighton", "state": "", "country": "CA", "coord": {"lon": -77.732788, "lat": 44.033421}}, {"id": 5908881, "name": "Brigus", "state": "", "country": "CA", "coord": {"lon": -53.210579, "lat": 47.524891}}, {"id": 5908935, "name": "Brindle Crossing", "state": "", "country": "CA", "coord": {"lon": -77.332771, "lat": 45.933418}}, {"id": 5908999, "name": "Bristol", "state": "", "country": "CA", "coord": {"lon": -76.466103, "lat": 45.533409}}, {"id": 5909024, "name": "Britannia", "state": "", "country": "CA", "coord": {"lon": -75.793747, "lat": 45.3629}}, {"id": 5909028, "name": "Britannia Beach", "state": "", "country": "CA", "coord": {"lon": -123.202667, "lat": 49.632969}}, {"id": 5909050, "name": "British Columbia", "state": "", "country": "CA", "coord": {"lon": -125.003197, "lat": 53.999828}}, {"id": 5909067, "name": "Britt", "state": "", "country": "CA", "coord": {"lon": -80.559181, "lat": 45.774231}}, {"id": 5909230, "name": "Broadview", "state": "", "country": "CA", "coord": {"lon": -102.584312, "lat": 50.36673}}, {"id": 5909245, "name": "Brochet", "state": "", "country": "CA", "coord": {"lon": -101.671806, "lat": 57.879978}}, {"id": 5909294, "name": "Brockville", "state": "", "country": "CA", "coord": {"lon": -75.68264, "lat": 44.583408}}, {"id": 5909303, "name": "Broderick", "state": "", "country": "CA", "coord": {"lon": -106.917969, "lat": 51.50008}}, {"id": 5909391, "name": "Bromhead", "state": "", "country": "CA", "coord": {"lon": -103.667686, "lat": 49.183361}}, {"id": 5909403, "name": "Bromont", "state": "", "country": "CA", "coord": {"lon": -72.649117, "lat": 45.31678}}, {"id": 5909464, "name": "Brookfield", "state": "", "country": "CA", "coord": {"lon": -63.281979, "lat": 45.250149}}, {"id": 5909467, "name": "Brookfield", "state": "", "country": "CA", "coord": {"lon": -96.060257, "lat": 50.134201}}, {"id": 5909514, "name": "Brooks", "state": "", "country": "CA", "coord": {"lon": -111.885094, "lat": 50.583408}}, {"id": 5909628, "name": "Brossard", "state": "", "country": "CA", "coord": {"lon": -73.465874, "lat": 45.450081}}, {"id": 5909629, "name": "Brossard", "state": "", "country": "CA", "coord": {"lon": -73.465828, "lat": 45.450081}}, {"id": 5909677, "name": "Broughton", "state": "", "country": "CA", "coord": {"lon": -59.965141, "lat": 46.083439}}, {"id": 5909847, "name": "Brownings Landing", "state": "", "country": "CA", "coord": {"lon": -119.802902, "lat": 61.300201}}, {"id": 5909969, "name": "Brownsburg-Chatham", "state": "", "country": "CA", "coord": {"lon": -74.415901, "lat": 45.683418}}, {"id": 5909998, "name": "Brownsdale", "state": "", "country": "CA", "coord": {"lon": -53.114761, "lat": 48.033192}}, {"id": 5910127, "name": "Bruce Mines", "state": "", "country": "CA", "coord": {"lon": -83.799919, "lat": 46.30006}}, {"id": 5910266, "name": "Bruno", "state": "", "country": "CA", "coord": {"lon": -105.51783, "lat": 52.266762}}, {"id": 5910429, "name": "Bryson", "state": "", "country": "CA", "coord": {"lon": -76.616112, "lat": 45.683411}}, {"id": 5910456, "name": "Buchanan", "state": "", "country": "CA", "coord": {"lon": -102.750961, "lat": 51.699982}}, {"id": 5910505, "name": "Buchans", "state": "", "country": "CA", "coord": {"lon": -56.8647, "lat": 48.816738}}, {"id": 5910564, "name": "Buckhorn", "state": "", "country": "CA", "coord": {"lon": -78.349541, "lat": 44.550121}}, {"id": 5910808, "name": "Buffalo", "state": "", "country": "CA", "coord": {"lon": -110.668373, "lat": 50.80011}}, {"id": 5910853, "name": "Buffalo Narrows", "state": "", "country": "CA", "coord": {"lon": -108.484749, "lat": 55.85017}}, {"id": 5911269, "name": "Bulyea", "state": "", "country": "CA", "coord": {"lon": -104.867828, "lat": 50.983379}}, {"id": 5911440, "name": "Burgeo", "state": "", "country": "CA", "coord": {"lon": -57.615162, "lat": 47.61668}}, {"id": 5911476, "name": "Burgis", "state": "", "country": "CA", "coord": {"lon": -102.450951, "lat": 51.549992}}, {"id": 5911483, "name": "Burgoynes Cove", "state": "", "country": "CA", "coord": {"lon": -53.71479, "lat": 48.183189}}, {"id": 5911570, "name": "Burk's Falls", "state": "", "country": "CA", "coord": {"lon": -79.399651, "lat": 45.616798}}, {"id": 5911592, "name": "Burlington", "state": "", "country": "CA", "coord": {"lon": -79.837128, "lat": 43.386211}}, {"id": 5911606, "name": "Burnaby", "state": "", "country": "CA", "coord": {"lon": -122.952629, "lat": 49.266361}}, {"id": 5911714, "name": "Burnside", "state": "", "country": "CA", "coord": {"lon": -53.798092, "lat": 48.716599}}, {"id": 5911745, "name": "Burns Lake", "state": "", "country": "CA", "coord": {"lon": -125.753304, "lat": 54.233101}}, {"id": 5912153, "name": "Burr", "state": "", "country": "CA", "coord": {"lon": -105.134422, "lat": 52.05006}}, {"id": 5912226, "name": "Burstall", "state": "", "country": "CA", "coord": {"lon": -109.901588, "lat": 50.65012}}, {"id": 5912314, "name": "Burwash Landing", "state": "", "country": "CA", "coord": {"lon": -139.009674, "lat": 61.35844}}, {"id": 5912338, "name": "Busby", "state": "", "country": "CA", "coord": {"lon": -113.885353, "lat": 53.95015}}, {"id": 5912366, "name": "Bushell Park", "state": "", "country": "CA", "coord": {"lon": -105.551147, "lat": 50.333351}}, {"id": 5912779, "name": "Buttonville", "state": "", "country": "CA", "coord": {"lon": -79.360863, "lat": 43.860592}}, {"id": 5912876, "name": "Byng Inlet", "state": "", "country": "CA", "coord": {"lon": -80.552658, "lat": 45.765942}}, {"id": 5913030, "name": "Cabri", "state": "", "country": "CA", "coord": {"lon": -108.468102, "lat": 50.616791}}, {"id": 5913049, "name": "Cache Creek", "state": "", "country": "CA", "coord": {"lon": -121.3246, "lat": 50.810108}}, {"id": 5913136, "name": "Cadillac", "state": "", "country": "CA", "coord": {"lon": -78.382858, "lat": 48.223782}}, {"id": 5913137, "name": "Cadillac", "state": "", "country": "CA", "coord": {"lon": -107.751343, "lat": 49.73336}}, {"id": 5913313, "name": "Calabogie", "state": "", "country": "CA", "coord": {"lon": -76.716118, "lat": 45.30011}}, {"id": 5913353, "name": "Calder", "state": "", "country": "CA", "coord": {"lon": -101.750931, "lat": 51.14999}}, {"id": 5913417, "name": "Caledon East", "state": "", "country": "CA", "coord": {"lon": -79.866913, "lat": 43.869129}}, {"id": 5913420, "name": "Caledonia", "state": "", "country": "CA", "coord": {"lon": -65.032097, "lat": 44.366859}}, {"id": 5913424, "name": "Caledonia", "state": "", "country": "CA", "coord": {"lon": -79.932938, "lat": 43.066811}}, {"id": 5913449, "name": "Caledon Village", "state": "", "country": "CA", "coord": {"lon": -79.996048, "lat": 43.860149}}, {"id": 5913490, "name": "Calgary", "state": "", "country": "CA", "coord": {"lon": -114.085289, "lat": 51.05011}}, {"id": 5913550, "name": "Callander", "state": "", "country": "CA", "coord": {"lon": -79.366318, "lat": 46.216801}}, {"id": 5913601, "name": "Calmar", "state": "", "country": "CA", "coord": {"lon": -113.818741, "lat": 53.26683}}, {"id": 5913692, "name": "Cambridge", "state": "", "country": "CA", "coord": {"lon": -64.11544, "lat": 45.20015}}, {"id": 5913695, "name": "Cambridge", "state": "", "country": "CA", "coord": {"lon": -80.312691, "lat": 43.3601}}, {"id": 5913698, "name": "Cambridge Bay", "state": "", "country": "CA", "coord": {"lon": -105.05484, "lat": 69.114891}}, {"id": 5913711, "name": "Cambridge Station", "state": "", "country": "CA", "coord": {"lon": -64.632072, "lat": 45.066849}}, {"id": 5913934, "name": "Camlachie", "state": "", "country": "CA", "coord": {"lon": -82.161598, "lat": 43.035961}}, {"id": 5914028, "name": "Campbellcroft", "state": "", "country": "CA", "coord": {"lon": -78.366226, "lat": 44.066818}}, {"id": 5914033, "name": "Campbellford", "state": "", "country": "CA", "coord": {"lon": -77.799492, "lat": 44.308418}}, {"id": 5914132, "name": "Campbell River", "state": "", "country": "CA", "coord": {"lon": -125.244591, "lat": 50.016338}}, {"id": 5914139, "name": "Campbell's Bay", "state": "", "country": "CA", "coord": {"lon": -76.599411, "lat": 45.73341}}, {"id": 5914266, "name": "Camperdown", "state": "", "country": "CA", "coord": {"lon": -64.59877, "lat": 44.266861}}, {"id": 5914276, "name": "Camp Farewell", "state": "", "country": "CA", "coord": {"lon": -134.919418, "lat": 69.28315}}, {"id": 5914653, "name": "Camrose", "state": "", "country": "CA", "coord": {"lon": -112.835251, "lat": 53.016842}}, {"id": 5914778, "name": "Canal Flats", "state": "", "country": "CA", "coord": {"lon": -115.818787, "lat": 50.14994}}, {"id": 5914826, "name": "Candiac", "state": "", "country": "CA", "coord": {"lon": -73.515869, "lat": 45.383381}}, {"id": 5914843, "name": "Cando", "state": "", "country": "CA", "coord": {"lon": -108.234673, "lat": 52.383419}}, {"id": 5914857, "name": "Canfield", "state": "", "country": "CA", "coord": {"lon": -79.749619, "lat": 42.966808}}, {"id": 5914876, "name": "Canim Lake", "state": "", "country": "CA", "coord": {"lon": -120.902634, "lat": 51.766529}}, {"id": 5914894, "name": "Canmore", "state": "", "country": "CA", "coord": {"lon": -115.352058, "lat": 51.083351}}, {"id": 5914938, "name": "Cannington", "state": "", "country": "CA", "coord": {"lon": -79.032883, "lat": 44.350121}}, {"id": 5915050, "name": "Canoe Narrows", "state": "", "country": "CA", "coord": {"lon": -108.151421, "lat": 55.16687}}, {"id": 5915070, "name": "Canoe River", "state": "", "country": "CA", "coord": {"lon": -108.168121, "lat": 55.233471}}, {"id": 5915098, "name": "Canora", "state": "", "country": "CA", "coord": {"lon": -102.43425, "lat": 51.633282}}, {"id": 5915182, "name": "Canwood", "state": "", "country": "CA", "coord": {"lon": -106.601112, "lat": 53.366798}}, {"id": 5915190, "name": "Canyon", "state": "", "country": "CA", "coord": {"lon": -137.058105, "lat": 60.85767}}, {"id": 5915299, "name": "Capasin", "state": "", "country": "CA", "coord": {"lon": -107.384499, "lat": 53.600121}}, {"id": 5915327, "name": "Cap-aux-Meules", "state": "", "country": "CA", "coord": {"lon": -61.85968, "lat": 47.38208}}, {"id": 5915359, "name": "Cap-Chat", "state": "", "country": "CA", "coord": {"lon": -66.682121, "lat": 49.10009}}, {"id": 5915577, "name": "Cape Broyle", "state": "", "country": "CA", "coord": {"lon": -52.942459, "lat": 47.092991}}, {"id": 5915627, "name": "Cape Chin North", "state": "", "country": "CA", "coord": {"lon": -81.319153, "lat": 45.124271}}, {"id": 5915732, "name": "Cape Dorset", "state": "", "country": "CA", "coord": {"lon": -76.543716, "lat": 64.23378}}, {"id": 5916134, "name": "Cape Parry", "state": "", "country": "CA", "coord": {"lon": -124.671829, "lat": 70.15052}}, {"id": 5916449, "name": "Cap La Ronde", "state": "", "country": "CA", "coord": {"lon": -60.89851, "lat": 45.566841}}, {"id": 5916458, "name": "Caplin Cove", "state": "", "country": "CA", "coord": {"lon": -52.98135, "lat": 48.033192}}, {"id": 5916706, "name": "Carberry", "state": "", "country": "CA", "coord": {"lon": -99.360207, "lat": 49.868931}}, {"id": 5916708, "name": "Carberry Junction", "state": "", "country": "CA", "coord": {"lon": -99.354111, "lat": 49.865318}}, {"id": 5916722, "name": "Carbonear", "state": "", "country": "CA", "coord": {"lon": -53.214779, "lat": 47.733189}}, {"id": 5916754, "name": "Carcross", "state": "", "country": "CA", "coord": {"lon": -134.703674, "lat": 60.166088}}, {"id": 5916775, "name": "Cardigan", "state": "", "country": "CA", "coord": {"lon": -62.615349, "lat": 46.23341}}, {"id": 5916786, "name": "Cardinal", "state": "", "country": "CA", "coord": {"lon": -75.382629, "lat": 44.783409}}, {"id": 5916821, "name": "Cardston", "state": "", "country": "CA", "coord": {"lon": -113.301903, "lat": 49.199982}}, {"id": 5916883, "name": "Cargill", "state": "", "country": "CA", "coord": {"lon": -81.249741, "lat": 44.200089}}, {"id": 5916974, "name": "Caribou Ferry", "state": "", "country": "CA", "coord": {"lon": -62.681938, "lat": 45.73344}}, {"id": 5917117, "name": "Carignan", "state": "", "country": "CA", "coord": {"lon": -73.299156, "lat": 45.450081}}, {"id": 5917144, "name": "Carleton", "state": "", "country": "CA", "coord": {"lon": -63.666821, "lat": 46.25703}}, {"id": 5917158, "name": "Carleton Place", "state": "", "country": "CA", "coord": {"lon": -76.149384, "lat": 45.133411}}, {"id": 5917254, "name": "Carlton", "state": "", "country": "CA", "coord": {"lon": -106.501137, "lat": 52.833382}}, {"id": 5917262, "name": "Carlyle", "state": "", "country": "CA", "coord": {"lon": -102.267647, "lat": 49.633339}}, {"id": 5917270, "name": "Carmacks", "state": "", "country": "CA", "coord": {"lon": -136.292953, "lat": 62.088348}}, {"id": 5917275, "name": "Carman", "state": "", "country": "CA", "coord": {"lon": -98.001556, "lat": 49.499199}}, {"id": 5917287, "name": "Carmangay", "state": "", "country": "CA", "coord": {"lon": -113.118584, "lat": 50.133331}}, {"id": 5917294, "name": "Carmanville", "state": "", "country": "CA", "coord": {"lon": -54.2981, "lat": 49.399921}}, {"id": 5917301, "name": "Carmel", "state": "", "country": "CA", "coord": {"lon": -72.3769, "lat": 45.97226}}, {"id": 5917349, "name": "Carnduff", "state": "", "country": "CA", "coord": {"lon": -101.80088, "lat": 49.16674}}, {"id": 5917353, "name": "Carnegie", "state": "", "country": "CA", "coord": {"lon": -100.090881, "lat": 49.97472}}, {"id": 5917390, "name": "Caroline", "state": "", "country": "CA", "coord": {"lon": -114.752052, "lat": 52.083408}}, {"id": 5917430, "name": "Caronport", "state": "", "country": "CA", "coord": {"lon": -105.817871, "lat": 50.450062}}, {"id": 5917434, "name": "Carp", "state": "", "country": "CA", "coord": {"lon": -76.032669, "lat": 45.350101}}, {"id": 5917605, "name": "Carrot River", "state": "", "country": "CA", "coord": {"lon": -103.584229, "lat": 53.283371}}, {"id": 5917622, "name": "Carruthers", "state": "", "country": "CA", "coord": {"lon": -109.268173, "lat": 52.866852}}, {"id": 5917652, "name": "Carseland", "state": "", "country": "CA", "coord": {"lon": -113.468643, "lat": 50.850109}}, {"id": 5917688, "name": "Carstairs", "state": "", "country": "CA", "coord": {"lon": -114.101997, "lat": 51.566811}}, {"id": 5917771, "name": "Cartier", "state": "", "country": "CA", "coord": {"lon": -81.549782, "lat": 46.700081}}, {"id": 5917781, "name": "Cartierville", "state": "", "country": "CA", "coord": {"lon": -73.703583, "lat": 45.531181}}, {"id": 5917796, "name": "Cartwright", "state": "", "country": "CA", "coord": {"lon": -99.340828, "lat": 49.095619}}, {"id": 5917819, "name": "Cartyville", "state": "", "country": "CA", "coord": {"lon": -58.798519, "lat": 48.233311}}, {"id": 5917832, "name": "Carway", "state": "", "country": "CA", "coord": {"lon": -113.385178, "lat": 48.99995}}, {"id": 5917848, "name": "Cascade", "state": "", "country": "CA", "coord": {"lon": -118.202263, "lat": 49.016499}}, {"id": 5918002, "name": "Caslan", "state": "", "country": "CA", "coord": {"lon": -112.518669, "lat": 54.633492}}, {"id": 5918021, "name": "Casselman", "state": "", "country": "CA", "coord": {"lon": -75.082603, "lat": 45.316799}}, {"id": 5918056, "name": "Cassils", "state": "", "country": "CA", "coord": {"lon": -112.035103, "lat": 50.583408}}, {"id": 5918118, "name": "Castlegar", "state": "", "country": "CA", "coord": {"lon": -117.668938, "lat": 49.299839}}, {"id": 5918148, "name": "Castle Mountain", "state": "", "country": "CA", "coord": {"lon": -115.918839, "lat": 51.266701}}, {"id": 5918185, "name": "Castor", "state": "", "country": "CA", "coord": {"lon": -111.885094, "lat": 52.216839}}, {"id": 5918243, "name": "Catalina", "state": "", "country": "CA", "coord": {"lon": -53.081348, "lat": 48.51659}}, {"id": 5918424, "name": "Cat Lake", "state": "", "country": "CA", "coord": {"lon": -91.816978, "lat": 51.72039}}, {"id": 5918580, "name": "Cavendish", "state": "", "country": "CA", "coord": {"lon": -53.481392, "lat": 47.716591}}, {"id": 5918583, "name": "Cavendish", "state": "", "country": "CA", "coord": {"lon": -110.451653, "lat": 50.816818}}, {"id": 5918689, "name": "Cayley", "state": "", "country": "CA", "coord": {"lon": -113.851967, "lat": 50.450089}}, {"id": 5918920, "name": "Cedarvale", "state": "", "country": "CA", "coord": {"lon": -128.332748, "lat": 55.019089}}, {"id": 5919115, "name": "Centralia", "state": "", "country": "CA", "coord": {"lon": -81.466461, "lat": 43.28339}}, {"id": 5919137, "name": "Central Saanich", "state": "", "country": "CA", "coord": {"lon": -123.419319, "lat": 48.566341}}, {"id": 5919258, "name": "Centreville", "state": "", "country": "CA", "coord": {"lon": -66.015572, "lat": 44.550152}}, {"id": 5919263, "name": "Centreville", "state": "", "country": "CA", "coord": {"lon": -81.266441, "lat": 44.950081}}, {"id": 5919289, "name": "Cereal", "state": "", "country": "CA", "coord": {"lon": -110.801689, "lat": 51.416828}}, {"id": 5919305, "name": "Ceylon", "state": "", "country": "CA", "coord": {"lon": -104.601067, "lat": 49.450069}}, {"id": 5919483, "name": "Chalk River", "state": "", "country": "CA", "coord": {"lon": -77.449478, "lat": 46.016819}}, {"id": 5919514, "name": "Chamberlain", "state": "", "country": "CA", "coord": {"lon": -105.567863, "lat": 50.850071}}, {"id": 5919566, "name": "Chambly", "state": "", "country": "CA", "coord": {"lon": -73.282463, "lat": 45.450081}}, {"id": 5919569, "name": "Chambord", "state": "", "country": "CA", "coord": {"lon": -72.065826, "lat": 48.433392}}, {"id": 5919603, "name": "Champcoeur", "state": "", "country": "CA", "coord": {"lon": -77.63279, "lat": 48.683491}}, {"id": 5919666, "name": "Champion", "state": "", "country": "CA", "coord": {"lon": -113.151878, "lat": 50.233349}}, {"id": 5919678, "name": "Champlain", "state": "", "country": "CA", "coord": {"lon": -72.344711, "lat": 46.440701}}, {"id": 5919767, "name": "Change Islands", "state": "", "country": "CA", "coord": {"lon": -54.414829, "lat": 49.666618}}, {"id": 5919815, "name": "Channel-Port aux Basques", "state": "", "country": "CA", "coord": {"lon": -59.136742, "lat": 47.57021}}, {"id": 5919829, "name": "Channing", "state": "", "country": "CA", "coord": {"lon": -101.833267, "lat": 54.753738}}, {"id": 5919850, "name": "Chapais", "state": "", "country": "CA", "coord": {"lon": -74.84919, "lat": 49.78344}}, {"id": 5919860, "name": "Chapel Arm", "state": "", "country": "CA", "coord": {"lon": -53.669331, "lat": 47.516911}}, {"id": 5919915, "name": "Chapleau", "state": "", "country": "CA", "coord": {"lon": -83.403397, "lat": 47.84053}}, {"id": 5919937, "name": "Chaplin", "state": "", "country": "CA", "coord": {"lon": -106.667938, "lat": 50.46677}}, {"id": 5920089, "name": "Charlemagne", "state": "", "country": "CA", "coord": {"lon": -73.482468, "lat": 45.716782}}, {"id": 5920224, "name": "Charlie Lake", "state": "", "country": "CA", "coord": {"lon": -120.952927, "lat": 56.28318}}, {"id": 5920288, "name": "Charlottetown", "state": "", "country": "CA", "coord": {"lon": -63.126709, "lat": 46.235249}}, {"id": 5920381, "name": "Chase", "state": "", "country": "CA", "coord": {"lon": -119.685707, "lat": 50.816502}}, {"id": 5920433, "name": "Ch\u00e2teauguay", "state": "", "country": "CA", "coord": {"lon": -73.749191, "lat": 45.383381}}, {"id": 5920435, "name": "Ch\u00e2teauguay-Centre", "state": "", "country": "CA", "coord": {"lon": -73.749191, "lat": 45.350079}}, {"id": 5920447, "name": "Chatham", "state": "", "country": "CA", "coord": {"lon": -65.432037, "lat": 47.033409}}, {"id": 5920450, "name": "Chatham-Kent", "state": "", "country": "CA", "coord": {"lon": -82.183098, "lat": 42.400089}}, {"id": 5920470, "name": "Chatsworth", "state": "", "country": "CA", "coord": {"lon": -80.899727, "lat": 44.450089}}, {"id": 5920507, "name": "Chauvin", "state": "", "country": "CA", "coord": {"lon": -110.118263, "lat": 52.70015}}, {"id": 5920641, "name": "Chelan", "state": "", "country": "CA", "coord": {"lon": -103.384262, "lat": 52.616699}}, {"id": 5920648, "name": "Chelmsford", "state": "", "country": "CA", "coord": {"lon": -81.19976, "lat": 46.583382}}, {"id": 5920668, "name": "Chemainus", "state": "", "country": "CA", "coord": {"lon": -123.719368, "lat": 48.916328}}, {"id": 5920888, "name": "Cherhill", "state": "", "country": "CA", "coord": {"lon": -114.685417, "lat": 53.816841}}, {"id": 5920973, "name": "Cherry Point", "state": "", "country": "CA", "coord": {"lon": -119.952873, "lat": 56.183208}}, {"id": 5920985, "name": "Cherry Valley", "state": "", "country": "CA", "coord": {"lon": -62.915371, "lat": 46.166809}}, {"id": 5920990, "name": "Cherryville", "state": "", "country": "CA", "coord": {"lon": -118.619011, "lat": 50.24152}}, {"id": 5921028, "name": "Chester", "state": "", "country": "CA", "coord": {"lon": -64.248741, "lat": 44.550152}}, {"id": 5921048, "name": "Chesterfield Inlet", "state": "", "country": "CA", "coord": {"lon": -90.701187, "lat": 63.33955}}, {"id": 5921060, "name": "Chestermere", "state": "", "country": "CA", "coord": {"lon": -113.818672, "lat": 51.033409}}, {"id": 5921064, "name": "Chesterville", "state": "", "country": "CA", "coord": {"lon": -71.815804, "lat": 45.96677}}, {"id": 5921066, "name": "Chesterville", "state": "", "country": "CA", "coord": {"lon": -75.23262, "lat": 45.100101}}, {"id": 5921091, "name": "Chetwynd", "state": "", "country": "CA", "coord": {"lon": -121.636269, "lat": 55.699879}}, {"id": 5921147, "name": "Chibougamau", "state": "", "country": "CA", "coord": {"lon": -74.36586, "lat": 49.91684}}, {"id": 5921356, "name": "Chilliwack", "state": "", "country": "CA", "coord": {"lon": -121.952568, "lat": 49.166382}}, {"id": 5921357, "name": "Chilliwack", "state": "", "country": "CA", "coord": {"lon": -121.944267, "lat": 49.174679}}, {"id": 5921525, "name": "Chip Lake", "state": "", "country": "CA", "coord": {"lon": -115.435471, "lat": 53.61684}}, {"id": 5921527, "name": "Chipman", "state": "", "country": "CA", "coord": {"lon": -65.883858, "lat": 46.169338}}, {"id": 5921530, "name": "Chipman", "state": "", "country": "CA", "coord": {"lon": -112.635231, "lat": 53.70015}}, {"id": 5921589, "name": "Chisasibi", "state": "", "country": "CA", "coord": {"lon": -78.332893, "lat": 53.66695}}, {"id": 5921607, "name": "Chisholm", "state": "", "country": "CA", "coord": {"lon": -114.168861, "lat": 54.916851}}, {"id": 5921642, "name": "Chisholm's Mills", "state": "", "country": "CA", "coord": {"lon": -77.309464, "lat": 44.353722}}, {"id": 5921656, "name": "Chitek", "state": "", "country": "CA", "coord": {"lon": -107.751259, "lat": 53.800152}}, {"id": 5921795, "name": "Christian Island", "state": "", "country": "CA", "coord": {"lon": -80.182991, "lat": 44.816799}}, {"id": 5922107, "name": "Churchill", "state": "", "country": "CA", "coord": {"lon": -79.582932, "lat": 44.250111}}, {"id": 5922111, "name": "Churchill", "state": "", "country": "CA", "coord": {"lon": -94.116821, "lat": 58.72541}}, {"id": 5922169, "name": "Church Point", "state": "", "country": "CA", "coord": {"lon": -66.11557, "lat": 44.33345}}, {"id": 5922281, "name": "Chute-aux-Outardes", "state": "", "country": "CA", "coord": {"lon": -68.398956, "lat": 49.116791}}, {"id": 5922650, "name": "Cinema", "state": "", "country": "CA", "coord": {"lon": -122.452919, "lat": 53.2332}}, {"id": 5922850, "name": "City Centre", "state": "", "country": "CA", "coord": {"lon": -97.164551, "lat": 49.876099}}, {"id": 5922883, "name": "Clair", "state": "", "country": "CA", "coord": {"lon": -104.084343, "lat": 52.016708}}, {"id": 5922904, "name": "Clairmont", "state": "", "country": "CA", "coord": {"lon": -118.786011, "lat": 55.266682}}, {"id": 5923101, "name": "Clarence-Rockland", "state": "", "country": "CA", "coord": {"lon": -75.291008, "lat": 45.550098}}, {"id": 5923118, "name": "Clarenville", "state": "", "country": "CA", "coord": {"lon": -53.964821, "lat": 48.166599}}, {"id": 5923119, "name": "Clarenville-Shoal Harbour", "state": "", "country": "CA", "coord": {"lon": -53.969818, "lat": 48.1805}}, {"id": 5923125, "name": "Claresholm", "state": "", "country": "CA", "coord": {"lon": -113.585243, "lat": 50.033321}}, {"id": 5923168, "name": "Clarke City", "state": "", "country": "CA", "coord": {"lon": -66.63205, "lat": 50.191799}}, {"id": 5923329, "name": "Clarkson", "state": "", "country": "CA", "coord": {"lon": -79.633537, "lat": 43.51852}}, {"id": 5923562, "name": "Clear Creek", "state": "", "country": "CA", "coord": {"lon": -137.287506, "lat": 63.78286}}, {"id": 5923566, "name": "Cleardale", "state": "", "country": "CA", "coord": {"lon": -119.586189, "lat": 56.333241}}, {"id": 5923667, "name": "Clearwater", "state": "", "country": "CA", "coord": {"lon": -120.027687, "lat": 51.64061}}, {"id": 5923871, "name": "Cl\u00e9ricy", "state": "", "country": "CA", "coord": {"lon": -78.864899, "lat": 48.365479}}, {"id": 5924007, "name": "Climax", "state": "", "country": "CA", "coord": {"lon": -108.384682, "lat": 49.200031}}, {"id": 5924039, "name": "Clinton", "state": "", "country": "CA", "coord": {"lon": -81.533073, "lat": 43.616791}}, {"id": 5924041, "name": "Clinton", "state": "", "country": "CA", "coord": {"lon": -121.585968, "lat": 51.083092}}, {"id": 5924075, "name": "Clive", "state": "", "country": "CA", "coord": {"lon": -113.451981, "lat": 52.46682}}, {"id": 5924109, "name": "Cloridorme", "state": "", "country": "CA", "coord": {"lon": -64.91539, "lat": 49.166801}}, {"id": 5924200, "name": "Cloverdale", "state": "", "country": "CA", "coord": {"lon": -63.21537, "lat": 45.183449}}, {"id": 5924204, "name": "Cloverdale", "state": "", "country": "CA", "coord": {"lon": -122.7276, "lat": 49.107971}}, {"id": 5924223, "name": "Clover Valley", "state": "", "country": "CA", "coord": {"lon": -81.814796, "lat": 45.712872}}, {"id": 5924351, "name": "Clyde River", "state": "", "country": "CA", "coord": {"lon": -68.591431, "lat": 70.469162}}, {"id": 5924417, "name": "Coaldale", "state": "", "country": "CA", "coord": {"lon": -112.618538, "lat": 49.716702}}, {"id": 5924428, "name": "Coalhurst", "state": "", "country": "CA", "coord": {"lon": -112.932457, "lat": 49.746399}}, {"id": 5924500, "name": "Coaticook", "state": "", "country": "CA", "coord": {"lon": -71.799072, "lat": 45.133389}}, {"id": 5924511, "name": "Cobalt", "state": "", "country": "CA", "coord": {"lon": -79.682983, "lat": 47.400162}}, {"id": 5924534, "name": "Cobble Hill", "state": "", "country": "CA", "coord": {"lon": -123.602638, "lat": 48.68293}}, {"id": 5924565, "name": "Cobden", "state": "", "country": "CA", "coord": {"lon": -76.882729, "lat": 45.633411}}, {"id": 5924578, "name": "Coboconk", "state": "", "country": "CA", "coord": {"lon": -78.799583, "lat": 44.65012}}, {"id": 5924579, "name": "Cobourg", "state": "", "country": "CA", "coord": {"lon": -78.165154, "lat": 43.95977}}, {"id": 5924614, "name": "Cochrane", "state": "", "country": "CA", "coord": {"lon": -81.033073, "lat": 49.066891}}, {"id": 5924618, "name": "Cochrane", "state": "", "country": "CA", "coord": {"lon": -114.468712, "lat": 51.183411}}, {"id": 5924756, "name": "Coderre", "state": "", "country": "CA", "coord": {"lon": -106.384506, "lat": 50.133362}}, {"id": 5924757, "name": "Codesa", "state": "", "country": "CA", "coord": {"lon": -118.069412, "lat": 55.76675}}, {"id": 5924760, "name": "Codette", "state": "", "country": "CA", "coord": {"lon": -104.034233, "lat": 53.283371}}, {"id": 5924787, "name": "Codroy", "state": "", "country": "CA", "coord": {"lon": -59.364971, "lat": 47.864079}}, {"id": 5924814, "name": "Codys", "state": "", "country": "CA", "coord": {"lon": -65.815552, "lat": 45.88345}}, {"id": 5924817, "name": "Coe Hill", "state": "", "country": "CA", "coord": {"lon": -77.832802, "lat": 44.866829}}, {"id": 5924963, "name": "Colborne", "state": "", "country": "CA", "coord": {"lon": -77.882797, "lat": 44.000118}}, {"id": 5925024, "name": "Cold Lake", "state": "", "country": "CA", "coord": {"lon": -110.201698, "lat": 54.45018}}, {"id": 5925058, "name": "Coldstream", "state": "", "country": "CA", "coord": {"lon": -119.202347, "lat": 50.216492}}, {"id": 5925102, "name": "Cole Bay", "state": "", "country": "CA", "coord": {"lon": -108.33474, "lat": 55.09457}}, {"id": 5925150, "name": "Coleman", "state": "", "country": "CA", "coord": {"lon": -64.165443, "lat": 46.683449}}, {"id": 5925154, "name": "Coleman", "state": "", "country": "CA", "coord": {"lon": -114.501999, "lat": 49.63332}}, {"id": 5925240, "name": "Coleville", "state": "", "country": "CA", "coord": {"lon": -109.251503, "lat": 51.71682}}, {"id": 5925975, "name": "Collingwood", "state": "", "country": "CA", "coord": {"lon": -80.216377, "lat": 44.483398}}, {"id": 5926129, "name": "Colonsay", "state": "", "country": "CA", "coord": {"lon": -105.884483, "lat": 51.983372}}, {"id": 5926155, "name": "Colpton", "state": "", "country": "CA", "coord": {"lon": -64.848778, "lat": 44.45015}}, {"id": 5926246, "name": "Colville Lake", "state": "", "country": "CA", "coord": {"lon": -126.120811, "lat": 67.033562}}, {"id": 5926255, "name": "Colwell", "state": "", "country": "CA", "coord": {"lon": -79.782951, "lat": 44.333408}}, {"id": 5926268, "name": "Colwood", "state": "", "country": "CA", "coord": {"lon": -123.485909, "lat": 48.43293}}, {"id": 5926281, "name": "Comber", "state": "", "country": "CA", "coord": {"lon": -82.54982, "lat": 42.233379}}, {"id": 5926284, "name": "Combermere", "state": "", "country": "CA", "coord": {"lon": -77.616188, "lat": 45.366821}}, {"id": 5926314, "name": "Come By Chance", "state": "", "country": "CA", "coord": {"lon": -53.98143, "lat": 47.849899}}, {"id": 5926350, "name": "Commanda", "state": "", "country": "CA", "coord": {"lon": -79.599632, "lat": 45.9501}}, {"id": 5926420, "name": "Como", "state": "", "country": "CA", "coord": {"lon": -74.115921, "lat": 45.450081}}, {"id": 5926432, "name": "Comox", "state": "", "country": "CA", "coord": {"lon": -124.936127, "lat": 49.682941}}, {"id": 5926458, "name": "Compeer", "state": "", "country": "CA", "coord": {"lon": -110.001579, "lat": 51.866829}}, {"id": 5926511, "name": "Conception Bay South", "state": "", "country": "CA", "coord": {"lon": -52.998058, "lat": 47.499889}}, {"id": 5926512, "name": "Conception Harbour", "state": "", "country": "CA", "coord": {"lon": -53.218079, "lat": 47.442692}}, {"id": 5926519, "name": "Conche", "state": "", "country": "CA", "coord": {"lon": -55.898079, "lat": 50.883381}}, {"id": 5926526, "name": "Concord", "state": "", "country": "CA", "coord": {"lon": -79.48291, "lat": 43.80011}}, {"id": 5926705, "name": "Coniston", "state": "", "country": "CA", "coord": {"lon": -80.849731, "lat": 46.483379}}, {"id": 5926755, "name": "Connaught", "state": "", "country": "CA", "coord": {"lon": -80.93309, "lat": 48.616871}}, {"id": 5926901, "name": "Conquest", "state": "", "country": "CA", "coord": {"lon": -107.234589, "lat": 51.533379}}, {"id": 5926902, "name": "Conrad", "state": "", "country": "CA", "coord": {"lon": -111.968468, "lat": 49.516731}}, {"id": 5926958, "name": "Consort", "state": "", "country": "CA", "coord": {"lon": -110.768356, "lat": 52.01683}}, {"id": 5927024, "name": "Contrecoeur", "state": "", "country": "CA", "coord": {"lon": -73.232452, "lat": 45.850079}}, {"id": 5927235, "name": "Cookshire-Eaton", "state": "", "country": "CA", "coord": {"lon": -71.632401, "lat": 45.416752}}, {"id": 5927537, "name": "Coppell", "state": "", "country": "CA", "coord": {"lon": -83.833153, "lat": 49.533508}}, {"id": 5927547, "name": "Copper Cliff", "state": "", "country": "CA", "coord": {"lon": -81.066437, "lat": 46.466782}}, {"id": 5927632, "name": "Copper Mountain", "state": "", "country": "CA", "coord": {"lon": -120.541367, "lat": 49.324718}}, {"id": 5927689, "name": "Coquitlam", "state": "", "country": "CA", "coord": {"lon": -122.752617, "lat": 49.28297}}, {"id": 5927708, "name": "Coral Harbour", "state": "", "country": "CA", "coord": {"lon": -83.166153, "lat": 64.134064}}, {"id": 5927764, "name": "Corbin", "state": "", "country": "CA", "coord": {"lon": -114.652, "lat": 49.516708}}, {"id": 5927788, "name": "Corbyville", "state": "", "country": "CA", "coord": {"lon": -77.382767, "lat": 44.21682}}, {"id": 5927900, "name": "Cormack", "state": "", "country": "CA", "coord": {"lon": -57.381618, "lat": 49.300011}}, {"id": 5927928, "name": "Cormorant", "state": "", "country": "CA", "coord": {"lon": -100.601097, "lat": 54.223991}}, {"id": 5927969, "name": "Corner Brook", "state": "", "country": "CA", "coord": {"lon": -57.948399, "lat": 48.966709}}, {"id": 5928063, "name": "Cornwall", "state": "", "country": "CA", "coord": {"lon": -63.21809, "lat": 46.226521}}, {"id": 5928065, "name": "Cornwall", "state": "", "country": "CA", "coord": {"lon": -74.728149, "lat": 45.018089}}, {"id": 5928098, "name": "Coronach", "state": "", "country": "CA", "coord": {"lon": -105.517807, "lat": 49.11676}}, {"id": 5928107, "name": "Coronation", "state": "", "country": "CA", "coord": {"lon": -111.451736, "lat": 52.083431}}, {"id": 5928337, "name": "Coteau-du-Lac", "state": "", "country": "CA", "coord": {"lon": -74.182533, "lat": 45.300079}}, {"id": 5928473, "name": "C\u00f4te-Nord", "state": "", "country": "CA", "coord": {"lon": -65.815407, "lat": 50.866829}}, {"id": 5928488, "name": "C\u00f4te-Saint-Luc", "state": "", "country": "CA", "coord": {"lon": -73.665848, "lat": 45.465359}}, {"id": 5928517, "name": "Cottam", "state": "", "country": "CA", "coord": {"lon": -82.749817, "lat": 42.133389}}, {"id": 5928552, "name": "Cottlesville", "state": "", "country": "CA", "coord": {"lon": -54.848148, "lat": 49.49992}}, {"id": 5928572, "name": "Cottonwood", "state": "", "country": "CA", "coord": {"lon": -122.169571, "lat": 53.049889}}, {"id": 5928856, "name": "Coulter", "state": "", "country": "CA", "coord": {"lon": -100.986168, "lat": 49.090832}}, {"id": 5930890, "name": "Courtenay", "state": "", "country": "CA", "coord": {"lon": -124.993599, "lat": 49.686569}}, {"id": 5930917, "name": "Courtright", "state": "", "country": "CA", "coord": {"lon": -82.46653, "lat": 42.81678}}, {"id": 5930953, "name": "Coutts", "state": "", "country": "CA", "coord": {"lon": -111.963043, "lat": 49.00201}}, {"id": 5931020, "name": "Covered Bridge", "state": "", "country": "CA", "coord": {"lon": -66.615562, "lat": 46.233398}}, {"id": 5931074, "name": "Cowansville", "state": "", "country": "CA", "coord": {"lon": -72.74913, "lat": 45.200081}}, {"id": 5931201, "name": "Cowley", "state": "", "country": "CA", "coord": {"lon": -114.085251, "lat": 49.5667}}, {"id": 5931287, "name": "Coxheath", "state": "", "country": "CA", "coord": {"lon": -60.23175, "lat": 46.11684}}, {"id": 5931346, "name": "Coyle", "state": "", "country": "CA", "coord": {"lon": -120.885811, "lat": 50.14975}}, {"id": 5931427, "name": "Crabtree", "state": "", "country": "CA", "coord": {"lon": -73.465858, "lat": 45.96677}}, {"id": 5931508, "name": "Craigend", "state": "", "country": "CA", "coord": {"lon": -111.935204, "lat": 54.583488}}, {"id": 5931545, "name": "Craigmyle", "state": "", "country": "CA", "coord": {"lon": -112.251831, "lat": 51.666828}}, {"id": 5931789, "name": "Cranberry Portage", "state": "", "country": "CA", "coord": {"lon": -101.377968, "lat": 54.586231}}, {"id": 5931800, "name": "Cranbrook", "state": "", "country": "CA", "coord": {"lon": -115.768791, "lat": 49.499908}}, {"id": 5931973, "name": "Crawford Bay", "state": "", "country": "CA", "coord": {"lon": -116.823807, "lat": 49.67207}}, {"id": 5932098, "name": "Crediton", "state": "", "country": "CA", "coord": {"lon": -81.549767, "lat": 43.28339}}, {"id": 5932143, "name": "Creemore", "state": "", "country": "CA", "coord": {"lon": -80.107498, "lat": 44.327042}}, {"id": 5932187, "name": "Cremona", "state": "", "country": "CA", "coord": {"lon": -114.485313, "lat": 51.550098}}, {"id": 5932283, "name": "Crescent Valley", "state": "", "country": "CA", "coord": {"lon": -117.552238, "lat": 49.449841}}, {"id": 5932311, "name": "Creston", "state": "", "country": "CA", "coord": {"lon": -116.502113, "lat": 49.099869}}, {"id": 5932675, "name": "Criss Creek", "state": "", "country": "CA", "coord": {"lon": -120.73584, "lat": 51.049801}}, {"id": 5932743, "name": "Crofton", "state": "", "country": "CA", "coord": {"lon": -123.652657, "lat": 48.866329}}, {"id": 5932784, "name": "Cromer", "state": "", "country": "CA", "coord": {"lon": -101.235931, "lat": 49.7314}}, {"id": 5932957, "name": "Crooked River", "state": "", "country": "CA", "coord": {"lon": -103.734253, "lat": 52.850021}}, {"id": 5932966, "name": "Crooked Turn", "state": "", "country": "CA", "coord": {"lon": -97.857002, "lat": 53.950649}}, {"id": 5933003, "name": "Crosby", "state": "", "country": "CA", "coord": {"lon": -76.26609, "lat": 44.65012}}, {"id": 5933070, "name": "Crossfield", "state": "", "country": "CA", "coord": {"lon": -114.035278, "lat": 51.433411}}, {"id": 5933127, "name": "Cross Lake", "state": "", "country": "CA", "coord": {"lon": -97.779449, "lat": 54.625938}}, {"id": 5933196, "name": "Crossroads", "state": "", "country": "CA", "coord": {"lon": -53.36338, "lat": 47.866589}}, {"id": 5933512, "name": "Crozier", "state": "", "country": "CA", "coord": {"lon": -93.517014, "lat": 48.616581}}, {"id": 5933629, "name": "Crystal City", "state": "", "country": "CA", "coord": {"lon": -98.949707, "lat": 49.146412}}, {"id": 5933765, "name": "Cudworth", "state": "", "country": "CA", "coord": {"lon": -105.734421, "lat": 52.500061}}, {"id": 5933885, "name": "Cumberland", "state": "", "country": "CA", "coord": {"lon": -125.036133, "lat": 49.616341}}, {"id": 5933890, "name": "Cumberland Bay", "state": "", "country": "CA", "coord": {"lon": -65.865562, "lat": 46.03344}}, {"id": 5933900, "name": "Cumberland House", "state": "", "country": "CA", "coord": {"lon": -102.26757, "lat": 53.966789}}, {"id": 5934031, "name": "Cupar", "state": "", "country": "CA", "coord": {"lon": -104.217781, "lat": 50.950081}}, {"id": 5934305, "name": "Cut Knife", "state": "", "country": "CA", "coord": {"lon": -109.018143, "lat": 52.750149}}, {"id": 5934438, "name": "Cypress River", "state": "", "country": "CA", "coord": {"lon": -99.087502, "lat": 49.55582}}, {"id": 5934463, "name": "Czar", "state": "", "country": "CA", "coord": {"lon": -110.834938, "lat": 52.45013}}, {"id": 5934486, "name": "Dacre", "state": "", "country": "CA", "coord": {"lon": -76.966141, "lat": 45.36681}}, {"id": 5934507, "name": "Dafoe", "state": "", "country": "CA", "coord": {"lon": -104.534393, "lat": 51.75005}}, {"id": 5934673, "name": "Dalhousie Road", "state": "", "country": "CA", "coord": {"lon": -64.698769, "lat": 44.733452}}, {"id": 5934709, "name": "Dalmeny", "state": "", "country": "CA", "coord": {"lon": -106.767921, "lat": 52.333389}}, {"id": 5934896, "name": "Dane", "state": "", "country": "CA", "coord": {"lon": -80.016411, "lat": 48.083469}}, {"id": 5934957, "name": "Daniel's Harbour", "state": "", "country": "CA", "coord": {"lon": -57.581558, "lat": 50.23333}}, {"id": 5935042, "name": "Danville", "state": "", "country": "CA", "coord": {"lon": -72.0158, "lat": 45.783371}}, {"id": 5935060, "name": "Dapp", "state": "", "country": "CA", "coord": {"lon": -113.918793, "lat": 54.350151}}, {"id": 5935258, "name": "Darrell Bay", "state": "", "country": "CA", "coord": {"lon": -123.169373, "lat": 49.66637}}, {"id": 5935277, "name": "Dartmouth", "state": "", "country": "CA", "coord": {"lon": -63.57719, "lat": 44.671341}}, {"id": 5935341, "name": "Dauphin", "state": "", "country": "CA", "coord": {"lon": -100.050232, "lat": 51.14941}}, {"id": 5935388, "name": "Daveluyville", "state": "", "country": "CA", "coord": {"lon": -72.132393, "lat": 46.200062}}, {"id": 5935486, "name": "Davidson", "state": "", "country": "CA", "coord": {"lon": -105.984489, "lat": 51.266762}}, {"id": 5935804, "name": "Dawson Creek", "state": "", "country": "CA", "coord": {"lon": -120.23616, "lat": 55.766602}}, {"id": 5935913, "name": "Daysland", "state": "", "country": "CA", "coord": {"lon": -112.251839, "lat": 52.86684}}, {"id": 5936199, "name": "Deadwood", "state": "", "country": "CA", "coord": {"lon": -117.452728, "lat": 56.733421}}, {"id": 5936286, "name": "Dease Lake", "state": "", "country": "CA", "coord": {"lon": -129.987488, "lat": 58.435692}}, {"id": 5936333, "name": "Debden", "state": "", "country": "CA", "coord": {"lon": -106.884438, "lat": 53.5168}}, {"id": 5936339, "name": "Debert", "state": "", "country": "CA", "coord": {"lon": -63.465389, "lat": 45.433449}}, {"id": 5937073, "name": "Deep River", "state": "", "country": "CA", "coord": {"lon": -77.499489, "lat": 46.100121}}, {"id": 5937252, "name": "Deer Lake", "state": "", "country": "CA", "coord": {"lon": -57.431629, "lat": 49.16671}}, {"id": 5937277, "name": "Deer Lake", "state": "", "country": "CA", "coord": {"lon": -94.083717, "lat": 52.616798}}, {"id": 5937504, "name": "Delburne", "state": "", "country": "CA", "coord": {"lon": -113.235229, "lat": 52.200119}}, {"id": 5937522, "name": "Delhi", "state": "", "country": "CA", "coord": {"lon": -80.49968, "lat": 42.850101}}, {"id": 5937538, "name": "Delisle", "state": "", "country": "CA", "coord": {"lon": -107.134583, "lat": 51.916779}}, {"id": 5937577, "name": "Deloraine", "state": "", "country": "CA", "coord": {"lon": -100.494766, "lat": 49.190819}}, {"id": 5937612, "name": "Delson", "state": "", "country": "CA", "coord": {"lon": -73.549171, "lat": 45.366779}}, {"id": 5937615, "name": "Delta", "state": "", "country": "CA", "coord": {"lon": -122.906799, "lat": 49.14399}}, {"id": 5937701, "name": "Demmitt", "state": "", "country": "CA", "coord": {"lon": -119.902809, "lat": 55.449909}}, {"id": 5937747, "name": "Denare Beach", "state": "", "country": "CA", "coord": {"lon": -102.084084, "lat": 54.666828}}, {"id": 5937753, "name": "Denbigh", "state": "", "country": "CA", "coord": {"lon": -77.249458, "lat": 45.133419}}, {"id": 5937775, "name": "Denfield", "state": "", "country": "CA", "coord": {"lon": -81.43306, "lat": 43.116791}}, {"id": 5937786, "name": "Denholm", "state": "", "country": "CA", "coord": {"lon": -108.018028, "lat": 52.650131}}, {"id": 5937943, "name": "Denzil", "state": "", "country": "CA", "coord": {"lon": -109.65152, "lat": 52.23344}}, {"id": 5938137, "name": "Desbarats", "state": "", "country": "CA", "coord": {"lon": -83.933228, "lat": 46.333359}}, {"id": 5938157, "name": "Deschaillons-sur-Saint-Laurent", "state": "", "country": "CA", "coord": {"lon": -72.115799, "lat": 46.550049}}, {"id": 5938187, "name": "Deseronto", "state": "", "country": "CA", "coord": {"lon": -77.049438, "lat": 44.200119}}, {"id": 5938513, "name": "Deux-Montagnes", "state": "", "country": "CA", "coord": {"lon": -73.90168, "lat": 45.53455}}, {"id": 5938768, "name": "Devine", "state": "", "country": "CA", "coord": {"lon": -122.485977, "lat": 50.51643}}, {"id": 5938797, "name": "Devon", "state": "", "country": "CA", "coord": {"lon": -63.398682, "lat": 44.916851}}, {"id": 5938801, "name": "Devon", "state": "", "country": "CA", "coord": {"lon": -113.735329, "lat": 53.366829}}, {"id": 5938928, "name": "Dezadeash", "state": "", "country": "CA", "coord": {"lon": -137.059448, "lat": 60.371552}}, {"id": 5939210, "name": "Didsbury", "state": "", "country": "CA", "coord": {"lon": -114.135292, "lat": 51.666809}}, {"id": 5939211, "name": "Didyme", "state": "", "country": "CA", "coord": {"lon": -72.665627, "lat": 48.900028}}, {"id": 5939219, "name": "Dieppe", "state": "", "country": "CA", "coord": {"lon": -64.687347, "lat": 46.078442}}, {"id": 5939236, "name": "Digby", "state": "", "country": "CA", "coord": {"lon": -65.765549, "lat": 44.616852}}, {"id": 5939341, "name": "Dildo", "state": "", "country": "CA", "coord": {"lon": -53.5481, "lat": 47.566589}}, {"id": 5939355, "name": "Dilke", "state": "", "country": "CA", "coord": {"lon": -105.251137, "lat": 50.866779}}, {"id": 5939382, "name": "Dillon", "state": "", "country": "CA", "coord": {"lon": -108.934776, "lat": 55.933479}}, {"id": 5939424, "name": "Dina", "state": "", "country": "CA", "coord": {"lon": -110.084862, "lat": 52.93346}}, {"id": 5939449, "name": "Dingwall", "state": "", "country": "CA", "coord": {"lon": -60.46516, "lat": 46.900139}}, {"id": 5939498, "name": "Dinorwic", "state": "", "country": "CA", "coord": {"lon": -92.500298, "lat": 49.683338}}, {"id": 5939508, "name": "Dinsmore", "state": "", "country": "CA", "coord": {"lon": -107.434608, "lat": 51.333389}}, {"id": 5939598, "name": "Discovery", "state": "", "country": "CA", "coord": {"lon": -113.902527, "lat": 63.18375}}, {"id": 5939663, "name": "Disraeli", "state": "", "country": "CA", "coord": {"lon": -71.349068, "lat": 45.90007}}, {"id": 5940363, "name": "Dixonville", "state": "", "country": "CA", "coord": {"lon": -117.669434, "lat": 56.533401}}, {"id": 5940570, "name": "Dodds", "state": "", "country": "CA", "coord": {"lon": -112.551903, "lat": 53.216839}}, {"id": 5940611, "name": "Dodsland", "state": "", "country": "CA", "coord": {"lon": -108.818153, "lat": 51.80011}}, {"id": 5940639, "name": "Doe River", "state": "", "country": "CA", "coord": {"lon": -120.086159, "lat": 55.999908}}, {"id": 5940681, "name": "Dog Creek", "state": "", "country": "CA", "coord": {"lon": -122.236053, "lat": 51.583099}}, {"id": 5940837, "name": "Dogpound", "state": "", "country": "CA", "coord": {"lon": -114.402008, "lat": 51.466801}}, {"id": 5940934, "name": "Dolbeau-Mistassini", "state": "", "country": "CA", "coord": {"lon": -72.212021, "lat": 48.876339}}, {"id": 5940956, "name": "Dollard-Des Ormeaux", "state": "", "country": "CA", "coord": {"lon": -73.824188, "lat": 45.494518}}, {"id": 5941034, "name": "Domain", "state": "", "country": "CA", "coord": {"lon": -97.32206, "lat": 49.614201}}, {"id": 5941414, "name": "Dominion", "state": "", "country": "CA", "coord": {"lon": -60.015148, "lat": 46.216839}}, {"id": 5941418, "name": "Dominion City", "state": "", "country": "CA", "coord": {"lon": -97.156258, "lat": 49.141891}}, {"id": 5941452, "name": "Domremy", "state": "", "country": "CA", "coord": {"lon": -105.734383, "lat": 52.783371}}, {"id": 5941474, "name": "Donalda", "state": "", "country": "CA", "coord": {"lon": -112.568611, "lat": 52.583431}}, {"id": 5941547, "name": "Donatville", "state": "", "country": "CA", "coord": {"lon": -112.80201, "lat": 54.750191}}, {"id": 5941588, "name": "Donkin", "state": "", "country": "CA", "coord": {"lon": -59.865139, "lat": 46.183441}}, {"id": 5941602, "name": "Don Mills", "state": "", "country": "CA", "coord": {"lon": -79.332901, "lat": 43.73341}}, {"id": 5941611, "name": "Donnelly", "state": "", "country": "CA", "coord": {"lon": -117.109512, "lat": 55.72929}}, {"id": 5941780, "name": "Dore Lake", "state": "", "country": "CA", "coord": {"lon": -107.401314, "lat": 54.633469}}, {"id": 5941811, "name": "Dorintosh", "state": "", "country": "CA", "coord": {"lon": -108.634758, "lat": 54.36689}}, {"id": 5941855, "name": "Dorothy", "state": "", "country": "CA", "coord": {"lon": -112.318542, "lat": 51.300121}}, {"id": 5941902, "name": "Dorset", "state": "", "country": "CA", "coord": {"lon": -78.899597, "lat": 45.23341}}, {"id": 5941925, "name": "Dorval", "state": "", "country": "CA", "coord": {"lon": -73.753349, "lat": 45.4473}}, {"id": 5942213, "name": "Douro", "state": "", "country": "CA", "coord": {"lon": -78.199532, "lat": 44.383419}}, {"id": 5942354, "name": "Downsview", "state": "", "country": "CA", "coord": {"lon": -79.48291, "lat": 43.716808}}, {"id": 5942519, "name": "Draper", "state": "", "country": "CA", "coord": {"lon": -111.251869, "lat": 56.666901}}, {"id": 5942547, "name": "Drayton Valley", "state": "", "country": "CA", "coord": {"lon": -114.985443, "lat": 53.21682}}, {"id": 5942576, "name": "Dresden", "state": "", "country": "CA", "coord": {"lon": -82.183098, "lat": 42.583382}}, {"id": 5942626, "name": "Driftpile", "state": "", "country": "CA", "coord": {"lon": -115.769096, "lat": 55.333408}}, {"id": 5942636, "name": "Driftwood", "state": "", "country": "CA", "coord": {"lon": -81.383072, "lat": 49.133492}}, {"id": 5942688, "name": "Drinkwater", "state": "", "country": "CA", "coord": {"lon": -105.134422, "lat": 50.300072}}, {"id": 5942791, "name": "Drumbo", "state": "", "country": "CA", "coord": {"lon": -80.54969, "lat": 43.233391}}, {"id": 5942798, "name": "Drumheller", "state": "", "country": "CA", "coord": {"lon": -112.710114, "lat": 51.461712}}, {"id": 5942845, "name": "Drummondville", "state": "", "country": "CA", "coord": {"lon": -72.482407, "lat": 45.883362}}, {"id": 5942911, "name": "Dryden", "state": "", "country": "CA", "coord": {"lon": -92.833633, "lat": 49.77504}}, {"id": 5942913, "name": "Dryden", "state": "", "country": "CA", "coord": {"lon": -92.75032, "lat": 49.78334}}, {"id": 5942919, "name": "Dryden's Corner", "state": "", "country": "CA", "coord": {"lon": -82.266533, "lat": 45.71677}}, {"id": 5943101, "name": "Duchess", "state": "", "country": "CA", "coord": {"lon": -111.918503, "lat": 50.71682}}, {"id": 5943309, "name": "Duck Lake", "state": "", "country": "CA", "coord": {"lon": -106.234421, "lat": 52.81678}}, {"id": 5943623, "name": "Dufresne", "state": "", "country": "CA", "coord": {"lon": -96.723907, "lat": 49.726891}}, {"id": 5943628, "name": "Dufrost", "state": "", "country": "CA", "coord": {"lon": -97.052338, "lat": 49.358292}}, {"id": 5943853, "name": "Dunblane", "state": "", "country": "CA", "coord": {"lon": -106.867973, "lat": 51.183369}}, {"id": 5943865, "name": "Duncan", "state": "", "country": "CA", "coord": {"lon": -123.70266, "lat": 48.782928}}, {"id": 5943968, "name": "Dundalk", "state": "", "country": "CA", "coord": {"lon": -80.39357, "lat": 44.167919}}, {"id": 5944013, "name": "Dundurn", "state": "", "country": "CA", "coord": {"lon": -106.501228, "lat": 51.81678}}, {"id": 5944051, "name": "Dunfermline", "state": "", "country": "CA", "coord": {"lon": -107.034554, "lat": 52.133389}}, {"id": 5944222, "name": "Dunnville", "state": "", "country": "CA", "coord": {"lon": -79.61631, "lat": 42.900108}}, {"id": 5944253, "name": "Dunsford", "state": "", "country": "CA", "coord": {"lon": -78.649559, "lat": 44.450119}}, {"id": 5944276, "name": "Dunster", "state": "", "country": "CA", "coord": {"lon": -119.83593, "lat": 53.116699}}, {"id": 5944299, "name": "Duparquet", "state": "", "country": "CA", "coord": {"lon": -79.232941, "lat": 48.500179}}, {"id": 5944335, "name": "Dupuy", "state": "", "country": "CA", "coord": {"lon": -79.358253, "lat": 48.83049}}, {"id": 5944368, "name": "Durham", "state": "", "country": "CA", "coord": {"lon": -80.816422, "lat": 44.16679}}, {"id": 5944371, "name": "Durham Bridge", "state": "", "country": "CA", "coord": {"lon": -66.598869, "lat": 46.11681}}, {"id": 5944610, "name": "Dyment", "state": "", "country": "CA", "coord": {"lon": -92.314987, "lat": 49.615639}}, {"id": 5944680, "name": "Eagle Bluff", "state": "", "country": "CA", "coord": {"lon": -119.505188, "lat": 49.26366}}, {"id": 5944684, "name": "Eagle Butte", "state": "", "country": "CA", "coord": {"lon": -110.434898, "lat": 49.600052}}, {"id": 5944872, "name": "Eagle River", "state": "", "country": "CA", "coord": {"lon": -93.194748, "lat": 49.791931}}, {"id": 5944893, "name": "Eaglesham", "state": "", "country": "CA", "coord": {"lon": -117.885986, "lat": 55.78336}}, {"id": 5944935, "name": "Ear Falls", "state": "", "country": "CA", "coord": {"lon": -93.23526, "lat": 50.639549}}, {"id": 5944975, "name": "Earlton", "state": "", "country": "CA", "coord": {"lon": -79.816391, "lat": 47.716862}}, {"id": 5945003, "name": "East Advocate", "state": "", "country": "CA", "coord": {"lon": -64.765472, "lat": 45.333431}}, {"id": 5945016, "name": "East Angus", "state": "", "country": "CA", "coord": {"lon": -71.665771, "lat": 45.483379}}, {"id": 5945137, "name": "East Braintree", "state": "", "country": "CA", "coord": {"lon": -95.623817, "lat": 49.619389}}, {"id": 5945299, "name": "East Chezzetcook", "state": "", "country": "CA", "coord": {"lon": -63.231972, "lat": 44.71685}}, {"id": 5945311, "name": "East Coulee", "state": "", "country": "CA", "coord": {"lon": -112.485153, "lat": 51.33342}}, {"id": 5945364, "name": "Eastend", "state": "", "country": "CA", "coord": {"lon": -108.81813, "lat": 49.516739}}, {"id": 5945566, "name": "Eastern Passage", "state": "", "country": "CA", "coord": {"lon": -63.481991, "lat": 44.616852}}, {"id": 5945707, "name": "East Gwillimbury", "state": "", "country": "CA", "coord": {"lon": -79.416313, "lat": 44.133411}}, {"id": 5945789, "name": "East LaHave", "state": "", "country": "CA", "coord": {"lon": -64.365448, "lat": 44.316849}}, {"id": 5945848, "name": "Eastmain", "state": "", "country": "CA", "coord": {"lon": -78.166161, "lat": 52.183498}}, {"id": 5945851, "name": "Eastman", "state": "", "country": "CA", "coord": {"lon": -72.315804, "lat": 45.300079}}, {"id": 5945998, "name": "East Poplar", "state": "", "country": "CA", "coord": {"lon": -105.384392, "lat": 49.06675}}, {"id": 5946001, "name": "Eastport", "state": "", "country": "CA", "coord": {"lon": -53.748089, "lat": 48.649899}}, {"id": 5946074, "name": "East Royalty", "state": "", "country": "CA", "coord": {"lon": -63.10228, "lat": 46.27792}}, {"id": 5946222, "name": "East Wiltshire", "state": "", "country": "CA", "coord": {"lon": -63.213989, "lat": 46.254318}}, {"id": 5946226, "name": "East Windsor", "state": "", "country": "CA", "coord": {"lon": -82.983139, "lat": 42.31678}}, {"id": 5946385, "name": "Echo Bay", "state": "", "country": "CA", "coord": {"lon": -84.066628, "lat": 46.48336}}, {"id": 5946502, "name": "Economy", "state": "", "country": "CA", "coord": {"lon": -63.915428, "lat": 45.38345}}, {"id": 5946523, "name": "Edam", "state": "", "country": "CA", "coord": {"lon": -108.768112, "lat": 53.183472}}, {"id": 5946577, "name": "Eden", "state": "", "country": "CA", "coord": {"lon": -99.470207, "lat": 50.376419}}, {"id": 5946620, "name": "Edgar", "state": "", "country": "CA", "coord": {"lon": -79.616333, "lat": 44.516811}}, {"id": 5946660, "name": "Edgerton", "state": "", "country": "CA", "coord": {"lon": -110.451599, "lat": 52.750141}}, {"id": 5946666, "name": "Edgewood", "state": "", "country": "CA", "coord": {"lon": -118.152283, "lat": 49.783161}}, {"id": 5946768, "name": "Edmonton", "state": "", "country": "CA", "coord": {"lon": -113.468712, "lat": 53.55014}}, {"id": 5946820, "name": "Edson", "state": "", "country": "CA", "coord": {"lon": -116.435593, "lat": 53.58345}}, {"id": 5946824, "name": "Edwand", "state": "", "country": "CA", "coord": {"lon": -112.28521, "lat": 54.150169}}, {"id": 5946917, "name": "Edwardsville", "state": "", "country": "CA", "coord": {"lon": -60.23175, "lat": 46.16684}}, {"id": 5947035, "name": "Eganville", "state": "", "country": "CA", "coord": {"lon": -77.099449, "lat": 45.533409}}, {"id": 5947123, "name": "Egremont", "state": "", "country": "CA", "coord": {"lon": -113.1353, "lat": 54.033459}}, {"id": 5947325, "name": "Elbow", "state": "", "country": "CA", "coord": {"lon": -106.584549, "lat": 51.11676}}, {"id": 5947456, "name": "Eldon", "state": "", "country": "CA", "coord": {"lon": -116.035461, "lat": 51.3167}}, {"id": 5947462, "name": "Eldorado", "state": "", "country": "CA", "coord": {"lon": -108.50161, "lat": 59.550461}}, {"id": 5947580, "name": "Elgin", "state": "", "country": "CA", "coord": {"lon": -65.115501, "lat": 45.800159}}, {"id": 5947585, "name": "Elgin", "state": "", "country": "CA", "coord": {"lon": -76.21608, "lat": 44.600121}}, {"id": 5947588, "name": "Elgin", "state": "", "country": "CA", "coord": {"lon": -100.270088, "lat": 49.443909}}, {"id": 5947696, "name": "Elk Bay", "state": "", "country": "CA", "coord": {"lon": -125.436218, "lat": 50.28294}}, {"id": 5947708, "name": "Elkford", "state": "", "country": "CA", "coord": {"lon": -114.885399, "lat": 50.050072}}, {"id": 5947712, "name": "Elkhorn", "state": "", "country": "CA", "coord": {"lon": -101.240341, "lat": 49.975601}}, {"id": 5947748, "name": "Elko", "state": "", "country": "CA", "coord": {"lon": -115.118721, "lat": 49.299938}}, {"id": 5947754, "name": "Elk Point", "state": "", "country": "CA", "coord": {"lon": -110.901703, "lat": 53.900169}}, {"id": 5947866, "name": "Elliot Lake", "state": "", "country": "CA", "coord": {"lon": -82.633148, "lat": 46.383362}}, {"id": 5947965, "name": "Elliston", "state": "", "country": "CA", "coord": {"lon": -53.048038, "lat": 48.633179}}, {"id": 5947979, "name": "Ellscott", "state": "", "country": "CA", "coord": {"lon": -112.902023, "lat": 54.500179}}, {"id": 5947998, "name": "Elma", "state": "", "country": "CA", "coord": {"lon": -95.908638, "lat": 49.874989}}, {"id": 5948012, "name": "Elm Creek", "state": "", "country": "CA", "coord": {"lon": -97.993233, "lat": 49.67561}}, {"id": 5948045, "name": "Elmira", "state": "", "country": "CA", "coord": {"lon": -80.549698, "lat": 43.60009}}, {"id": 5948075, "name": "Elmsdale", "state": "", "country": "CA", "coord": {"lon": -63.498692, "lat": 44.96685}}, {"id": 5948094, "name": "Elmvale", "state": "", "country": "CA", "coord": {"lon": -79.866364, "lat": 44.583401}}, {"id": 5948108, "name": "Eloida", "state": "", "country": "CA", "coord": {"lon": -75.966072, "lat": 44.683411}}, {"id": 5948111, "name": "Elora", "state": "", "country": "CA", "coord": {"lon": -80.432991, "lat": 43.683399}}, {"id": 5948117, "name": "Elphinstone", "state": "", "country": "CA", "coord": {"lon": -100.322739, "lat": 50.531109}}, {"id": 5948124, "name": "Elrose", "state": "", "country": "CA", "coord": {"lon": -108.034668, "lat": 51.2001}}, {"id": 5948507, "name": "Emerald", "state": "", "country": "CA", "coord": {"lon": -61.031799, "lat": 46.316841}}, {"id": 5948508, "name": "Emerald", "state": "", "country": "CA", "coord": {"lon": -76.766121, "lat": 44.15012}}, {"id": 5948716, "name": "Empress", "state": "", "country": "CA", "coord": {"lon": -110.001617, "lat": 50.95013}}, {"id": 5948729, "name": "Emsdale", "state": "", "country": "CA", "coord": {"lon": -79.316353, "lat": 45.533401}}, {"id": 5948749, "name": "Enchant", "state": "", "country": "CA", "coord": {"lon": -112.418518, "lat": 50.166771}}, {"id": 5948770, "name": "Enderby", "state": "", "country": "CA", "coord": {"lon": -119.152344, "lat": 50.549801}}, {"id": 5948819, "name": "Engineer", "state": "", "country": "CA", "coord": {"lon": -134.253616, "lat": 59.482731}}, {"id": 5948844, "name": "Englehart", "state": "", "country": "CA", "coord": {"lon": -79.866402, "lat": 47.81686}}, {"id": 5948888, "name": "English Harbour East", "state": "", "country": "CA", "coord": {"lon": -54.898239, "lat": 47.633221}}, {"id": 5948965, "name": "Ennadai", "state": "", "country": "CA", "coord": {"lon": -100.884193, "lat": 61.133789}}, {"id": 5948972, "name": "Enniskerry", "state": "", "country": "CA", "coord": {"lon": -75.568237, "lat": 45.202301}}, {"id": 5949028, "name": "Enterprise", "state": "", "country": "CA", "coord": {"lon": -76.866127, "lat": 44.46682}}, {"id": 5949030, "name": "Enterprise", "state": "", "country": "CA", "coord": {"lon": -116.13604, "lat": 60.550228}}, {"id": 5949245, "name": "Eriksdale", "state": "", "country": "CA", "coord": {"lon": -98.101822, "lat": 50.86282}}, {"id": 5949247, "name": "Erin", "state": "", "country": "CA", "coord": {"lon": -80.064362, "lat": 43.7729}}, {"id": 5949251, "name": "Erindale", "state": "", "country": "CA", "coord": {"lon": -79.64962, "lat": 43.533409}}, {"id": 5949307, "name": "Ernfold", "state": "", "country": "CA", "coord": {"lon": -106.88456, "lat": 50.46677}}, {"id": 5949493, "name": "Espanola", "state": "", "country": "CA", "coord": {"lon": -81.766487, "lat": 46.258369}}, {"id": 5949512, "name": "Esquimalt", "state": "", "country": "CA", "coord": {"lon": -123.419296, "lat": 48.449631}}, {"id": 5949531, "name": "Essex", "state": "", "country": "CA", "coord": {"lon": -82.824829, "lat": 42.175091}}, {"id": 5949555, "name": "Estaire", "state": "", "country": "CA", "coord": {"lon": -80.799721, "lat": 46.300079}}, {"id": 5949563, "name": "Esterhazy", "state": "", "country": "CA", "coord": {"lon": -102.084259, "lat": 50.650009}}, {"id": 5949568, "name": "Estevan", "state": "", "country": "CA", "coord": {"lon": -102.984222, "lat": 49.133369}}, {"id": 5949585, "name": "Esther", "state": "", "country": "CA", "coord": {"lon": -110.268311, "lat": 51.700119}}, {"id": 5949601, "name": "Eston", "state": "", "country": "CA", "coord": {"lon": -108.751442, "lat": 51.150101}}, {"id": 5949621, "name": "Estrie", "state": "", "country": "CA", "coord": {"lon": -71.665771, "lat": 45.483379}}, {"id": 5950218, "name": "Ethelbert", "state": "", "country": "CA", "coord": {"lon": -100.394173, "lat": 51.529209}}, {"id": 5950267, "name": "Etobicoke", "state": "", "country": "CA", "coord": {"lon": -79.567108, "lat": 43.654209}}, {"id": 5950322, "name": "Etzikom", "state": "", "country": "CA", "coord": {"lon": -111.104652, "lat": 49.47995}}, {"id": 5950344, "name": "Eugenia", "state": "", "country": "CA", "coord": {"lon": -80.516403, "lat": 44.316799}}, {"id": 5950504, "name": "Evanston", "state": "", "country": "CA", "coord": {"lon": -61.215229, "lat": 45.61684}}, {"id": 5950506, "name": "Evansville", "state": "", "country": "CA", "coord": {"lon": -82.566551, "lat": 45.816769}}, {"id": 5950572, "name": "Everard", "state": "", "country": "CA", "coord": {"lon": -88.350037, "lat": 48.900101}}, {"id": 5950589, "name": "Evergreen", "state": "", "country": "CA", "coord": {"lon": -114.535316, "lat": 52.23341}}, {"id": 5950609, "name": "Evesham", "state": "", "country": "CA", "coord": {"lon": -109.845932, "lat": 52.391239}}, {"id": 5950674, "name": "Exeter", "state": "", "country": "CA", "coord": {"lon": -81.479332, "lat": 43.343529}}, {"id": 5950739, "name": "Extension", "state": "", "country": "CA", "coord": {"lon": -123.952713, "lat": 49.09964}}, {"id": 5950760, "name": "Eyebrow", "state": "", "country": "CA", "coord": {"lon": -106.151207, "lat": 50.80006}}, {"id": 5950812, "name": "Fabre", "state": "", "country": "CA", "coord": {"lon": -79.366364, "lat": 47.200142}}, {"id": 5950954, "name": "Fairford Reserve", "state": "", "country": "CA", "coord": {"lon": -98.69294, "lat": 51.598621}}, {"id": 5951036, "name": "Fairview", "state": "", "country": "CA", "coord": {"lon": -118.386063, "lat": 56.06675}}, {"id": 5951224, "name": "Falher", "state": "", "country": "CA", "coord": {"lon": -117.202621, "lat": 55.733391}}, {"id": 5951644, "name": "Farnham", "state": "", "country": "CA", "coord": {"lon": -72.982437, "lat": 45.283379}}, {"id": 5951659, "name": "Faro", "state": "", "country": "CA", "coord": {"lon": -133.337204, "lat": 62.232868}}, {"id": 5951840, "name": "Fauquier", "state": "", "country": "CA", "coord": {"lon": -82.033073, "lat": 49.316921}}, {"id": 5951878, "name": "Fawcett", "state": "", "country": "CA", "coord": {"lon": -114.085419, "lat": 54.533451}}, {"id": 5952121, "name": "Fenelon Falls", "state": "", "country": "CA", "coord": {"lon": -78.749573, "lat": 44.533421}}, {"id": 5952131, "name": "Fenn", "state": "", "country": "CA", "coord": {"lon": -112.751892, "lat": 52.13343}}, {"id": 5952191, "name": "Fergus", "state": "", "country": "CA", "coord": {"lon": -80.366379, "lat": 43.7001}}, {"id": 5952315, "name": "Ferintosh", "state": "", "country": "CA", "coord": {"lon": -112.968658, "lat": 52.76683}}, {"id": 5952330, "name": "Ferme-Neuve", "state": "", "country": "CA", "coord": {"lon": -75.449287, "lat": 46.700111}}, {"id": 5952334, "name": "Fermeuse", "state": "", "country": "CA", "coord": {"lon": -52.956371, "lat": 46.976292}}, {"id": 5952337, "name": "Fermont", "state": "", "country": "CA", "coord": {"lon": -67.082039, "lat": 52.783451}}, {"id": 5952349, "name": "Fern Creek", "state": "", "country": "CA", "coord": {"lon": -114.25206, "lat": 53.100128}}, {"id": 5952370, "name": "Fernie", "state": "", "country": "CA", "coord": {"lon": -115.06871, "lat": 49.499962}}, {"id": 5952554, "name": "Field", "state": "", "country": "CA", "coord": {"lon": -80.01638, "lat": 46.516788}}, {"id": 5952555, "name": "Field", "state": "", "country": "CA", "coord": {"lon": -116.485512, "lat": 51.399971}}, {"id": 5952565, "name": "Fielding", "state": "", "country": "CA", "coord": {"lon": -107.534576, "lat": 52.516811}}, {"id": 5952703, "name": "Fillmore", "state": "", "country": "CA", "coord": {"lon": -103.434357, "lat": 49.883339}}, {"id": 5952722, "name": "Finch", "state": "", "country": "CA", "coord": {"lon": -75.082603, "lat": 45.1334}}, {"id": 5952770, "name": "Fingal", "state": "", "country": "CA", "coord": {"lon": -81.316437, "lat": 42.716789}}, {"id": 5952901, "name": "Finnegan", "state": "", "country": "CA", "coord": {"lon": -112.06852, "lat": 51.116798}}, {"id": 5953832, "name": "Fiske", "state": "", "country": "CA", "coord": {"lon": -108.401413, "lat": 51.483398}}, {"id": 5953864, "name": "Fitzgerald", "state": "", "country": "CA", "coord": {"lon": -110.834953, "lat": 49.883362}}, {"id": 5953935, "name": "Five Corners", "state": "", "country": "CA", "coord": {"lon": -67.298889, "lat": 45.200142}}, {"id": 5953979, "name": "Five Islands", "state": "", "country": "CA", "coord": {"lon": -64.032043, "lat": 45.416859}}, {"id": 5954231, "name": "Flatbush", "state": "", "country": "CA", "coord": {"lon": -114.152138, "lat": 54.70015}}, {"id": 5954358, "name": "Flat Lake", "state": "", "country": "CA", "coord": {"lon": -111.151779, "lat": 54.13348}}, {"id": 5954426, "name": "Flat River", "state": "", "country": "CA", "coord": {"lon": -62.865372, "lat": 46.016819}}, {"id": 5954524, "name": "Flaxcombe", "state": "", "country": "CA", "coord": {"lon": -109.601532, "lat": 51.483421}}, {"id": 5954544, "name": "Fleet", "state": "", "country": "CA", "coord": {"lon": -111.735062, "lat": 52.150139}}, {"id": 5954564, "name": "Fleming", "state": "", "country": "CA", "coord": {"lon": -101.517662, "lat": 50.0667}}, {"id": 5954617, "name": "Flesherton", "state": "", "country": "CA", "coord": {"lon": -80.549698, "lat": 44.2612}}, {"id": 5954718, "name": "Flin Flon", "state": "", "country": "CA", "coord": {"lon": -101.864967, "lat": 54.768242}}, {"id": 5954719, "name": "Flin Flon", "state": "", "country": "CA", "coord": {"lon": -101.86747, "lat": 54.766842}}, {"id": 5954834, "name": "Floradale", "state": "", "country": "CA", "coord": {"lon": -80.583, "lat": 43.616798}}, {"id": 5954952, "name": "Flower's Cove", "state": "", "country": "CA", "coord": {"lon": -56.731392, "lat": 51.300091}}, {"id": 5955084, "name": "Foam Lake", "state": "", "country": "CA", "coord": {"lon": -103.534309, "lat": 51.650009}}, {"id": 5955104, "name": "Foeda", "state": "", "country": "CA", "coord": {"lon": -102.817612, "lat": 49.15007}}, {"id": 5955140, "name": "Fogo", "state": "", "country": "CA", "coord": {"lon": -54.281422, "lat": 49.716621}}, {"id": 5955176, "name": "Foleyet", "state": "", "country": "CA", "coord": {"lon": -82.447327, "lat": 48.24194}}, {"id": 5955243, "name": "Fond-du-Lac", "state": "", "country": "CA", "coord": {"lon": -107.202187, "lat": 59.317532}}, {"id": 5955278, "name": "Fonthill", "state": "", "country": "CA", "coord": {"lon": -79.28289, "lat": 43.033421}}, {"id": 5955333, "name": "Footner Lake", "state": "", "country": "CA", "coord": {"lon": -117.152763, "lat": 58.616879}}, {"id": 5955491, "name": "Foremost", "state": "", "country": "CA", "coord": {"lon": -111.418404, "lat": 49.483349}}, {"id": 5955497, "name": "Forest", "state": "", "country": "CA", "coord": {"lon": -81.999802, "lat": 43.100079}}, {"id": 5955501, "name": "Forestburg", "state": "", "country": "CA", "coord": {"lon": -112.068497, "lat": 52.583439}}, {"id": 5955550, "name": "Forest Lawn Industrial", "state": "", "country": "CA", "coord": {"lon": -113.968681, "lat": 51.033409}}, {"id": 5955693, "name": "Forks Stream", "state": "", "country": "CA", "coord": {"lon": -65.565529, "lat": 46.11684}}, {"id": 5955783, "name": "Fort Assiniboine", "state": "", "country": "CA", "coord": {"lon": -114.768867, "lat": 54.333439}}, {"id": 5955788, "name": "Fort Belcher", "state": "", "country": "CA", "coord": {"lon": -63.41539, "lat": 45.366852}}, {"id": 5955793, "name": "Fort Chipewyan", "state": "", "country": "CA", "coord": {"lon": -111.120529, "lat": 58.72224}}, {"id": 5955797, "name": "Fort-Coulonge", "state": "", "country": "CA", "coord": {"lon": -76.732719, "lat": 45.850109}}, {"id": 5955815, "name": "Fort Erie", "state": "", "country": "CA", "coord": {"lon": -78.932861, "lat": 42.90012}}, {"id": 5955826, "name": "Fort Frances", "state": "", "country": "CA", "coord": {"lon": -93.400299, "lat": 48.59988}}, {"id": 5955840, "name": "Fort Good Hope", "state": "", "country": "CA", "coord": {"lon": -128.637405, "lat": 66.256981}}, {"id": 5955850, "name": "Fort Hope", "state": "", "country": "CA", "coord": {"lon": -87.959976, "lat": 51.555729}}, {"id": 5955860, "name": "Fortierville", "state": "", "country": "CA", "coord": {"lon": -72.032387, "lat": 46.483349}}, {"id": 5955877, "name": "Fort Kent", "state": "", "country": "CA", "coord": {"lon": -110.618446, "lat": 54.316879}}, {"id": 5955887, "name": "Fort Liard", "state": "", "country": "CA", "coord": {"lon": -123.469849, "lat": 60.233391}}, {"id": 5955889, "name": "Fort MacKay", "state": "", "country": "CA", "coord": {"lon": -111.618584, "lat": 57.183529}}, {"id": 5955891, "name": "Fort Macleod", "state": "", "country": "CA", "coord": {"lon": -113.418571, "lat": 49.716709}}, {"id": 5955895, "name": "Fort McMurray", "state": "", "country": "CA", "coord": {"lon": -111.381027, "lat": 56.726761}}, {"id": 5955898, "name": "Fort McPherson", "state": "", "country": "CA", "coord": {"lon": -134.885437, "lat": 67.438629}}, {"id": 5955902, "name": "Fort Nelson", "state": "", "country": "CA", "coord": {"lon": -122.700203, "lat": 58.805328}}, {"id": 5955921, "name": "Fort Providence", "state": "", "country": "CA", "coord": {"lon": -117.652763, "lat": 61.350262}}, {"id": 5955922, "name": "Fort Qu'Appelle", "state": "", "country": "CA", "coord": {"lon": -103.801033, "lat": 50.766769}}, {"id": 5955925, "name": "Fort Resolution", "state": "", "country": "CA", "coord": {"lon": -113.644287, "lat": 61.161949}}, {"id": 5955948, "name": "Fort Saskatchewan", "state": "", "country": "CA", "coord": {"lon": -113.218697, "lat": 53.716839}}, {"id": 5955950, "name": "Fort Severn", "state": "", "country": "CA", "coord": {"lon": -87.633171, "lat": 55.983521}}, {"id": 5955953, "name": "Fort Simpson", "state": "", "country": "CA", "coord": {"lon": -121.351593, "lat": 61.86269}}, {"id": 5955954, "name": "Fort Smith", "state": "", "country": "CA", "coord": {"lon": -111.885429, "lat": 60.00029}}, {"id": 5955956, "name": "Fort Steele", "state": "", "country": "CA", "coord": {"lon": -115.635384, "lat": 49.616638}}, {"id": 5955960, "name": "Fort St. John", "state": "", "country": "CA", "coord": {"lon": -120.852921, "lat": 56.249882}}, {"id": 5955964, "name": "Fortune", "state": "", "country": "CA", "coord": {"lon": -55.831638, "lat": 47.06665}}, {"id": 5956004, "name": "Fort Vermilion", "state": "", "country": "CA", "coord": {"lon": -116.007042, "lat": 58.391819}}, {"id": 5956016, "name": "Fort William", "state": "", "country": "CA", "coord": {"lon": -52.714741, "lat": 47.57209}}, {"id": 5956052, "name": "Forward", "state": "", "country": "CA", "coord": {"lon": -104.467789, "lat": 49.633369}}, {"id": 5956464, "name": "Fosterton", "state": "", "country": "CA", "coord": {"lon": -108.384689, "lat": 50.483391}}, {"id": 5956869, "name": "Fox Creek", "state": "", "country": "CA", "coord": {"lon": -116.802383, "lat": 54.40007}}, {"id": 5956895, "name": "Foxford", "state": "", "country": "CA", "coord": {"lon": -105.117661, "lat": 53.466789}}, {"id": 5956901, "name": "Fox Harbour", "state": "", "country": "CA", "coord": {"lon": -53.914822, "lat": 47.316601}}, {"id": 5957169, "name": "Foxtrap", "state": "", "country": "CA", "coord": {"lon": -52.981361, "lat": 47.51659}}, {"id": 5957175, "name": "Fox Valley", "state": "", "country": "CA", "coord": {"lon": -109.484818, "lat": 50.466801}}, {"id": 5957194, "name": "Foymount", "state": "", "country": "CA", "coord": {"lon": -77.305573, "lat": 45.434319}}, {"id": 5957207, "name": "Frains", "state": "", "country": "CA", "coord": {"lon": -112.585274, "lat": 54.750191}}, {"id": 5957285, "name": "Francis", "state": "", "country": "CA", "coord": {"lon": -103.86779, "lat": 50.10006}}, {"id": 5957376, "name": "Frankford", "state": "", "country": "CA", "coord": {"lon": -77.59948, "lat": 44.200119}}, {"id": 5957498, "name": "Frankville", "state": "", "country": "CA", "coord": {"lon": -61.51524, "lat": 45.650139}}, {"id": 5957776, "name": "Fredericton", "state": "", "country": "CA", "coord": {"lon": -66.665581, "lat": 45.945412}}, {"id": 5957777, "name": "Fredericton Junction", "state": "", "country": "CA", "coord": {"lon": -66.613869, "lat": 45.660431}}, {"id": 5957883, "name": "Freeport", "state": "", "country": "CA", "coord": {"lon": -66.315582, "lat": 44.283451}}, {"id": 5957990, "name": "Frenchman Butte", "state": "", "country": "CA", "coord": {"lon": -109.634827, "lat": 53.583481}}, {"id": 5958029, "name": "Frenchman's Cove", "state": "", "country": "CA", "coord": {"lon": -55.3983, "lat": 47.21664}}, {"id": 5958388, "name": "Frobisher", "state": "", "country": "CA", "coord": {"lon": -102.434196, "lat": 49.20005}}, {"id": 5958512, "name": "Frontier", "state": "", "country": "CA", "coord": {"lon": -108.5681, "lat": 49.200031}}, {"id": 5958590, "name": "Fruitvale", "state": "", "country": "CA", "coord": {"lon": -117.552223, "lat": 49.116539}}, {"id": 5958663, "name": "Fug\u00e8reville", "state": "", "country": "CA", "coord": {"lon": -79.199654, "lat": 47.40015}}, {"id": 5958726, "name": "Fulton", "state": "", "country": "CA", "coord": {"lon": -98.376534, "lat": 50.114719}}, {"id": 5958891, "name": "Gabriola", "state": "", "country": "CA", "coord": {"lon": -123.849899, "lat": 49.170429}}, {"id": 5958908, "name": "Gadsby", "state": "", "country": "CA", "coord": {"lon": -112.35186, "lat": 52.300129}}, {"id": 5958945, "name": "Gagetown", "state": "", "country": "CA", "coord": {"lon": -66.161659, "lat": 45.770142}}, {"id": 5958975, "name": "Gahern", "state": "", "country": "CA", "coord": {"lon": -111.084938, "lat": 49.31673}}, {"id": 5959003, "name": "Gainsborough", "state": "", "country": "CA", "coord": {"lon": -101.45089, "lat": 49.166729}}, {"id": 5959015, "name": "Galahad", "state": "", "country": "CA", "coord": {"lon": -111.935066, "lat": 52.516842}}, {"id": 5959266, "name": "Gambles Corner", "state": "", "country": "CA", "coord": {"lon": -63.515411, "lat": 46.26683}}, {"id": 5959271, "name": "Gambo", "state": "", "country": "CA", "coord": {"lon": -54.214821, "lat": 48.783199}}, {"id": 5959326, "name": "Gananoque", "state": "", "country": "CA", "coord": {"lon": -76.166069, "lat": 44.33342}}, {"id": 5959335, "name": "Gander", "state": "", "country": "CA", "coord": {"lon": -54.590641, "lat": 48.96822}}, {"id": 5959360, "name": "Ganges", "state": "", "country": "CA", "coord": {"lon": -123.502647, "lat": 48.84964}}, {"id": 5959366, "name": "Gang Ranch", "state": "", "country": "CA", "coord": {"lon": -122.336082, "lat": 51.549801}}, {"id": 5959534, "name": "Gardenton", "state": "", "country": "CA", "coord": {"lon": -96.695618, "lat": 49.086868}}, {"id": 5959542, "name": "Gardiner", "state": "", "country": "CA", "coord": {"lon": -81.033073, "lat": 49.30019}}, {"id": 5959634, "name": "Garibaldi", "state": "", "country": "CA", "coord": {"lon": -123.152718, "lat": 49.966381}}, {"id": 5959760, "name": "Garrick", "state": "", "country": "CA", "coord": {"lon": -104.334229, "lat": 53.483398}}, {"id": 5959803, "name": "Garson", "state": "", "country": "CA", "coord": {"lon": -80.864128, "lat": 46.555882}}, {"id": 5959878, "name": "Gasp\u00e9", "state": "", "country": "CA", "coord": {"lon": -64.481941, "lat": 48.833408}}, {"id": 5959974, "name": "Gatineau", "state": "", "country": "CA", "coord": {"lon": -75.701637, "lat": 45.47723}}, {"id": 5960200, "name": "Gem", "state": "", "country": "CA", "coord": {"lon": -112.185127, "lat": 50.950111}}, {"id": 5960531, "name": "Georgetown", "state": "", "country": "CA", "coord": {"lon": -62.531952, "lat": 46.183399}}, {"id": 5960603, "name": "Geraldton", "state": "", "country": "CA", "coord": {"lon": -86.948418, "lat": 49.726669}}, {"id": 5960842, "name": "Gibbons", "state": "", "country": "CA", "coord": {"lon": -113.335312, "lat": 53.83345}}, {"id": 5960971, "name": "Gibsons", "state": "", "country": "CA", "coord": {"lon": -123.502678, "lat": 49.399651}}, {"id": 5961009, "name": "Gifford", "state": "", "country": "CA", "coord": {"lon": -122.335876, "lat": 49.09967}}, {"id": 5961066, "name": "Gilbert Mountain", "state": "", "country": "CA", "coord": {"lon": -64.215446, "lat": 45.51685}}, {"id": 5961068, "name": "Gilbert Plains", "state": "", "country": "CA", "coord": {"lon": -100.488647, "lat": 51.1497}}, {"id": 5961153, "name": "Gillam", "state": "", "country": "CA", "coord": {"lon": -94.708076, "lat": 56.34745}}, {"id": 5961359, "name": "Gilmour", "state": "", "country": "CA", "coord": {"lon": -77.61618, "lat": 44.81683}}, {"id": 5961417, "name": "Gimli", "state": "", "country": "CA", "coord": {"lon": -96.990662, "lat": 50.633621}}, {"id": 5961502, "name": "Girouxville", "state": "", "country": "CA", "coord": {"lon": -117.33593, "lat": 55.75008}}, {"id": 5961516, "name": "Giscome", "state": "", "country": "CA", "coord": {"lon": -122.369698, "lat": 54.06662}}, {"id": 5961546, "name": "Gitwinksihlkw", "state": "", "country": "CA", "coord": {"lon": -129.220367, "lat": 55.19125}}, {"id": 5961560, "name": "Gjoa Haven", "state": "", "country": "CA", "coord": {"lon": -95.878357, "lat": 68.626022}}, {"id": 5961564, "name": "Glace Bay", "state": "", "country": "CA", "coord": {"lon": -59.956982, "lat": 46.196949}}, {"id": 5961575, "name": "Albert Canyon", "state": "", "country": "CA", "coord": {"lon": -117.518929, "lat": 51.266609}}, {"id": 5961655, "name": "Gladstone", "state": "", "country": "CA", "coord": {"lon": -98.950783, "lat": 50.22583}}, {"id": 5961742, "name": "Glaslyn", "state": "", "country": "CA", "coord": {"lon": -108.351349, "lat": 53.366871}}, {"id": 5961744, "name": "Glasnevin", "state": "", "country": "CA", "coord": {"lon": -105.051086, "lat": 49.55006}}, {"id": 5961813, "name": "Gleichen", "state": "", "country": "CA", "coord": {"lon": -113.051903, "lat": 50.866821}}, {"id": 5961838, "name": "Glenboro", "state": "", "country": "CA", "coord": {"lon": -99.291908, "lat": 49.55582}}, {"id": 5961858, "name": "Glenbush", "state": "", "country": "CA", "coord": {"lon": -108.001297, "lat": 53.250149}}, {"id": 5961876, "name": "Glencoe", "state": "", "country": "CA", "coord": {"lon": -81.716476, "lat": 42.750092}}, {"id": 5961889, "name": "Glencross", "state": "", "country": "CA", "coord": {"lon": -98.015152, "lat": 49.117199}}, {"id": 5961910, "name": "Glendon", "state": "", "country": "CA", "coord": {"lon": -111.168488, "lat": 54.250179}}, {"id": 5961963, "name": "Glen Gordon", "state": "", "country": "CA", "coord": {"lon": -74.527557, "lat": 45.178692}}, {"id": 5961980, "name": "Glen Kerr", "state": "", "country": "CA", "coord": {"lon": -107.017967, "lat": 50.60006}}, {"id": 5961991, "name": "Glen Lake", "state": "", "country": "CA", "coord": {"lon": -123.51931, "lat": 48.43293}}, {"id": 5962053, "name": "Glenora", "state": "", "country": "CA", "coord": {"lon": -131.387177, "lat": 57.833}}, {"id": 5962075, "name": "Glen Robertson", "state": "", "country": "CA", "coord": {"lon": -74.499252, "lat": 45.35009}}, {"id": 5962098, "name": "Glentworth", "state": "", "country": "CA", "coord": {"lon": -106.679008, "lat": 49.42366}}, {"id": 5962104, "name": "Glen Valley", "state": "", "country": "CA", "coord": {"lon": -63.448711, "lat": 46.350128}}, {"id": 5962132, "name": "Glenwood", "state": "", "country": "CA", "coord": {"lon": -113.518608, "lat": 49.366669}}, {"id": 5962145, "name": "Glidden", "state": "", "country": "CA", "coord": {"lon": -109.165382, "lat": 51.23761}}, {"id": 5962232, "name": "Glovertown", "state": "", "country": "CA", "coord": {"lon": -54.03141, "lat": 48.683208}}, {"id": 5962422, "name": "Godbout", "state": "", "country": "CA", "coord": {"lon": -67.5989, "lat": 49.316792}}, {"id": 5962442, "name": "Goderich", "state": "", "country": "CA", "coord": {"lon": -81.716476, "lat": 43.75008}}, {"id": 5962520, "name": "Gogama", "state": "", "country": "CA", "coord": {"lon": -81.722321, "lat": 47.675209}}, {"id": 5962551, "name": "Goldboro", "state": "", "country": "CA", "coord": {"lon": -61.648548, "lat": 45.183449}}, {"id": 5962556, "name": "Gold Bridge", "state": "", "country": "CA", "coord": {"lon": -122.836098, "lat": 50.849758}}, {"id": 5962582, "name": "Golden", "state": "", "country": "CA", "coord": {"lon": -116.968903, "lat": 51.29995}}, {"id": 5962627, "name": "Golden Lake", "state": "", "country": "CA", "coord": {"lon": -77.232758, "lat": 45.58342}}, {"id": 5962634, "name": "Golden Prairie", "state": "", "country": "CA", "coord": {"lon": -109.634842, "lat": 50.216801}}, {"id": 5962665, "name": "Goldfields", "state": "", "country": "CA", "coord": {"lon": -108.484909, "lat": 59.467201}}, {"id": 5962861, "name": "Gooderham", "state": "", "country": "CA", "coord": {"lon": -78.382851, "lat": 44.90012}}, {"id": 5962884, "name": "Goodfish Lake", "state": "", "country": "CA", "coord": {"lon": -111.835167, "lat": 54.300179}}, {"id": 5962890, "name": "Good Harbour", "state": "", "country": "CA", "coord": {"lon": -100.150253, "lat": 52.129719}}, {"id": 5962921, "name": "Goodlands", "state": "", "country": "CA", "coord": {"lon": -100.604767, "lat": 49.094429}}, {"id": 5962951, "name": "Goodridge", "state": "", "country": "CA", "coord": {"lon": -111.36853, "lat": 54.38348}}, {"id": 5962967, "name": "Goodsoil", "state": "", "country": "CA", "coord": {"lon": -109.218262, "lat": 54.400188}}, {"id": 5962975, "name": "Goodwater", "state": "", "country": "CA", "coord": {"lon": -103.701027, "lat": 49.400059}}, {"id": 5963119, "name": "Goose Cove", "state": "", "country": "CA", "coord": {"lon": -55.63129, "lat": 51.300079}}, {"id": 5963145, "name": "Goose Creek", "state": "", "country": "CA", "coord": {"lon": -94.144829, "lat": 58.67511}}, {"id": 5963553, "name": "Gore Bay", "state": "", "country": "CA", "coord": {"lon": -82.466537, "lat": 45.916771}}, {"id": 5963659, "name": "Goshen", "state": "", "country": "CA", "coord": {"lon": -64.06543, "lat": 45.166851}}, {"id": 5963660, "name": "Goshen", "state": "", "country": "CA", "coord": {"lon": -61.98188, "lat": 45.38345}}, {"id": 5963873, "name": "Govan", "state": "", "country": "CA", "coord": {"lon": -105.001152, "lat": 51.300072}}, {"id": 5963945, "name": "Gowganda", "state": "", "country": "CA", "coord": {"lon": -80.766472, "lat": 47.650162}}, {"id": 5964008, "name": "Grace Lake", "state": "", "country": "CA", "coord": {"lon": -101.193031, "lat": 53.823689}}, {"id": 5964189, "name": "Grainland", "state": "", "country": "CA", "coord": {"lon": -106.551247, "lat": 50.98336}}, {"id": 5964214, "name": "Granby", "state": "", "country": "CA", "coord": {"lon": -72.73243, "lat": 45.383381}}, {"id": 5964215, "name": "Granby", "state": "", "country": "CA", "coord": {"lon": -72.73243, "lat": 45.400082}}, {"id": 5964230, "name": "Grand Bank", "state": "", "country": "CA", "coord": {"lon": -55.765041, "lat": 47.099949}}, {"id": 5964244, "name": "Grand Beach", "state": "", "country": "CA", "coord": {"lon": -55.515011, "lat": 47.13324}}, {"id": 5964250, "name": "Grand Bend", "state": "", "country": "CA", "coord": {"lon": -81.749779, "lat": 43.31678}}, {"id": 5964269, "name": "Grand Coulee", "state": "", "country": "CA", "coord": {"lon": -104.81781, "lat": 50.43338}}, {"id": 5964304, "name": "Grande Cache", "state": "", "country": "CA", "coord": {"lon": -119.135849, "lat": 53.88335}}, {"id": 5964337, "name": "Grande-Ligne", "state": "", "country": "CA", "coord": {"lon": -73.301064, "lat": 45.22068}}, {"id": 5964347, "name": "Grande Prairie", "state": "", "country": "CA", "coord": {"lon": -118.802711, "lat": 55.166672}}, {"id": 5964356, "name": "Grandes-Piles", "state": "", "country": "CA", "coord": {"lon": -72.732422, "lat": 46.683361}}, {"id": 5964370, "name": "Grande-Vall\u00e9e", "state": "", "country": "CA", "coord": {"lon": -65.132011, "lat": 49.216801}}, {"id": 5964378, "name": "Grand Falls-Windsor", "state": "", "country": "CA", "coord": {"lon": -55.664921, "lat": 48.933239}}, {"id": 5964401, "name": "Grand Forks", "state": "", "country": "CA", "coord": {"lon": -118.4356, "lat": 49.033089}}, {"id": 5964633, "name": "Grand Narrows", "state": "", "country": "CA", "coord": {"lon": -60.781792, "lat": 45.950142}}, {"id": 5964683, "name": "Grand River", "state": "", "country": "CA", "coord": {"lon": -60.665192, "lat": 45.65015}}, {"id": 5964693, "name": "Grand-Saint-Esprit", "state": "", "country": "CA", "coord": {"lon": -72.499107, "lat": 46.183361}}, {"id": 5964700, "name": "Greater Sudbury", "state": "", "country": "CA", "coord": {"lon": -80.990013, "lat": 46.490002}}, {"id": 5964707, "name": "Grand Valley", "state": "", "country": "CA", "coord": {"lon": -80.316383, "lat": 43.900101}}, {"id": 5964716, "name": "Grandview", "state": "", "country": "CA", "coord": {"lon": -100.698669, "lat": 51.174198}}, {"id": 5964764, "name": "Granite Bay", "state": "", "country": "CA", "coord": {"lon": -125.302902, "lat": 50.232948}}, {"id": 5964848, "name": "Granite Village", "state": "", "country": "CA", "coord": {"lon": -64.9655, "lat": 43.866859}}, {"id": 5964960, "name": "Granton", "state": "", "country": "CA", "coord": {"lon": -81.299751, "lat": 43.216789}}, {"id": 5965136, "name": "Grassland", "state": "", "country": "CA", "coord": {"lon": -112.685287, "lat": 54.816891}}, {"id": 5965321, "name": "Grassy Lake", "state": "", "country": "CA", "coord": {"lon": -111.71846, "lat": 49.816761}}, {"id": 5965462, "name": "Gravelbourg", "state": "", "country": "CA", "coord": {"lon": -106.551224, "lat": 49.883362}}, {"id": 5965546, "name": "Gravenhurst", "state": "", "country": "CA", "coord": {"lon": -79.366333, "lat": 44.916809}}, {"id": 5965620, "name": "Gray", "state": "", "country": "CA", "coord": {"lon": -104.434402, "lat": 50.166771}}, {"id": 5965812, "name": "Greater Napanee", "state": "", "country": "CA", "coord": {"lon": -76.94944, "lat": 44.250118}}, {"id": 5965816, "name": "Great Falls", "state": "", "country": "CA", "coord": {"lon": -96.012756, "lat": 50.459412}}, {"id": 5965842, "name": "Great Jervais", "state": "", "country": "CA", "coord": {"lon": -55.148281, "lat": 47.466629}}, {"id": 5965889, "name": "Great Village", "state": "", "country": "CA", "coord": {"lon": -63.598701, "lat": 45.416851}}, {"id": 5966373, "name": "Green Lake", "state": "", "country": "CA", "coord": {"lon": -107.78466, "lat": 54.28347}}, {"id": 5966667, "name": "Greenway", "state": "", "country": "CA", "coord": {"lon": -99.116112, "lat": 49.365311}}, {"id": 5966689, "name": "Greenwood", "state": "", "country": "CA", "coord": {"lon": -64.898788, "lat": 44.983452}}, {"id": 5966694, "name": "Greenwood", "state": "", "country": "CA", "coord": {"lon": -118.685608, "lat": 49.099789}}, {"id": 5966821, "name": "Grenfell", "state": "", "country": "CA", "coord": {"lon": -102.934319, "lat": 50.41674}}, {"id": 5966843, "name": "Grenville", "state": "", "country": "CA", "coord": {"lon": -74.599251, "lat": 45.633389}}, {"id": 5966858, "name": "Grenville-sur-la-Rouge", "state": "", "country": "CA", "coord": {"lon": -74.632584, "lat": 45.650089}}, {"id": 5967049, "name": "Griffin", "state": "", "country": "CA", "coord": {"lon": -103.434341, "lat": 49.666752}}, {"id": 5967149, "name": "Grimsby", "state": "", "country": "CA", "coord": {"lon": -79.566307, "lat": 43.200111}}, {"id": 5967157, "name": "Grimshaw", "state": "", "country": "CA", "coord": {"lon": -117.602699, "lat": 56.183392}}, {"id": 5967170, "name": "Grindrod", "state": "", "country": "CA", "coord": {"lon": -119.119049, "lat": 50.633099}}, {"id": 5967239, "name": "Griswold", "state": "", "country": "CA", "coord": {"lon": -100.471687, "lat": 49.775002}}, {"id": 5967333, "name": "Gronlid", "state": "", "country": "CA", "coord": {"lon": -104.467651, "lat": 53.100029}}, {"id": 5967378, "name": "Gros-Morne", "state": "", "country": "CA", "coord": {"lon": -65.548737, "lat": 49.250092}}, {"id": 5967397, "name": "Grosse Isle", "state": "", "country": "CA", "coord": {"lon": -97.442368, "lat": 50.06361}}, {"id": 5967463, "name": "Groundbirch", "state": "", "country": "CA", "coord": {"lon": -120.919617, "lat": 55.783192}}, {"id": 5967581, "name": "Grund", "state": "", "country": "CA", "coord": {"lon": -99.268311, "lat": 49.459221}}, {"id": 5967629, "name": "Guelph", "state": "", "country": "CA", "coord": {"lon": -80.249672, "lat": 43.550098}}, {"id": 5967682, "name": "Guigues", "state": "", "country": "CA", "coord": {"lon": -79.43856, "lat": 47.46455}}, {"id": 5967690, "name": "Guildwood", "state": "", "country": "CA", "coord": {"lon": -79.196579, "lat": 43.743382}}, {"id": 5967988, "name": "Gull Lake", "state": "", "country": "CA", "coord": {"lon": -108.484711, "lat": 50.100071}}, {"id": 5968472, "name": "Gunters", "state": "", "country": "CA", "coord": {"lon": -78.06562, "lat": 45.384331}}, {"id": 5968689, "name": "Gypsumville", "state": "", "country": "CA", "coord": {"lon": -98.635437, "lat": 51.768902}}, {"id": 5968740, "name": "Hackett", "state": "", "country": "CA", "coord": {"lon": -112.451859, "lat": 52.13343}}, {"id": 5968839, "name": "Hafford", "state": "", "country": "CA", "coord": {"lon": -107.351242, "lat": 52.71682}}, {"id": 5968869, "name": "Hagensborg", "state": "", "country": "CA", "coord": {"lon": -126.504478, "lat": 52.398232}}, {"id": 5968875, "name": "Hagersville", "state": "", "country": "CA", "coord": {"lon": -80.049652, "lat": 42.966808}}, {"id": 5968919, "name": "Hague", "state": "", "country": "CA", "coord": {"lon": -106.41787, "lat": 52.511181}}, {"id": 5968992, "name": "Haileybury", "state": "", "country": "CA", "coord": {"lon": -79.637321, "lat": 47.449039}}, {"id": 5969025, "name": "Haines Junction", "state": "", "country": "CA", "coord": {"lon": -137.510818, "lat": 60.752159}}, {"id": 5969093, "name": "Haldimand County", "state": "", "country": "CA", "coord": {"lon": -79.866333, "lat": 42.98341}}, {"id": 5969145, "name": "Haley Station", "state": "", "country": "CA", "coord": {"lon": -76.782722, "lat": 45.566811}}, {"id": 5969185, "name": "Halfmoon Bay", "state": "", "country": "CA", "coord": {"lon": -123.919441, "lat": 49.51635}}, {"id": 5969423, "name": "Halifax", "state": "", "country": "CA", "coord": {"lon": -63.57333, "lat": 44.646}}, {"id": 5969452, "name": "Halkirk", "state": "", "country": "CA", "coord": {"lon": -112.151817, "lat": 52.28344}}, {"id": 5969475, "name": "Hall Beach", "state": "", "country": "CA", "coord": {"lon": -81.235977, "lat": 68.791344}}, {"id": 5969494, "name": "Hallebourg", "state": "", "country": "CA", "coord": {"lon": -83.516533, "lat": 49.66692}}, {"id": 5969607, "name": "Halls Harbour", "state": "", "country": "CA", "coord": {"lon": -64.615471, "lat": 45.20015}}, {"id": 5969782, "name": "Hamilton", "state": "", "country": "CA", "coord": {"lon": -79.849632, "lat": 43.250111}}, {"id": 5969785, "name": "Hamilton", "state": "", "country": "CA", "coord": {"lon": -79.949638, "lat": 43.23341}}, {"id": 5969883, "name": "Hamiota", "state": "", "country": "CA", "coord": {"lon": -100.596992, "lat": 50.180611}}, {"id": 5969986, "name": "Ham-Nord", "state": "", "country": "CA", "coord": {"lon": -71.649094, "lat": 45.90007}}, {"id": 5969990, "name": "Hampden", "state": "", "country": "CA", "coord": {"lon": -56.848259, "lat": 49.549999}}, {"id": 5970014, "name": "Hampstead", "state": "", "country": "CA", "coord": {"lon": -73.663071, "lat": 45.48064}}, {"id": 5970016, "name": "Hampton", "state": "", "country": "CA", "coord": {"lon": -63.465408, "lat": 46.216831}}, {"id": 5970018, "name": "Hampton", "state": "", "country": "CA", "coord": {"lon": -65.853539, "lat": 45.528759}}, {"id": 5970051, "name": "Hanbury", "state": "", "country": "CA", "coord": {"lon": -79.663582, "lat": 47.59528}}, {"id": 5970063, "name": "Hanceville", "state": "", "country": "CA", "coord": {"lon": -123.044579, "lat": 51.91922}}, {"id": 5970088, "name": "Handel", "state": "", "country": "CA", "coord": {"lon": -108.701439, "lat": 52.066818}}, {"id": 5970216, "name": "Hanley", "state": "", "country": "CA", "coord": {"lon": -106.434532, "lat": 51.633369}}, {"id": 5970234, "name": "Hanna", "state": "", "country": "CA", "coord": {"lon": -111.90181, "lat": 51.63343}}, {"id": 5970301, "name": "Hanover", "state": "", "country": "CA", "coord": {"lon": -81.033028, "lat": 44.150089}}, {"id": 5970410, "name": "Hant's Harbour", "state": "", "country": "CA", "coord": {"lon": -53.264771, "lat": 48.01659}}, {"id": 5970414, "name": "Hantsport", "state": "", "country": "CA", "coord": {"lon": -64.165443, "lat": 45.066849}}, {"id": 5970458, "name": "Happy Valley-Goose Bay", "state": "", "country": "CA", "coord": {"lon": -60.331532, "lat": 53.316849}}, {"id": 5970478, "name": "Harbour Breton", "state": "", "country": "CA", "coord": {"lon": -55.798328, "lat": 47.48325}}, {"id": 5970551, "name": "Harbour Main", "state": "", "country": "CA", "coord": {"lon": -53.16478, "lat": 47.433189}}, {"id": 5970650, "name": "Harcourt", "state": "", "country": "CA", "coord": {"lon": -65.248772, "lat": 46.466831}}, {"id": 5970726, "name": "Hardisty", "state": "", "country": "CA", "coord": {"lon": -111.301682, "lat": 52.66684}}, {"id": 5970737, "name": "Hardrock", "state": "", "country": "CA", "coord": {"lon": -86.883263, "lat": 49.716831}}, {"id": 5970873, "name": "Hare Bay", "state": "", "country": "CA", "coord": {"lon": -54.014809, "lat": 48.849899}}, {"id": 5970964, "name": "Hargrave", "state": "", "country": "CA", "coord": {"lon": -101.07283, "lat": 49.917198}}, {"id": 5971066, "name": "Harmony", "state": "", "country": "CA", "coord": {"lon": -64.048737, "lat": 46.516842}},