[{"id": 6358148, "name": "O\u00f1ati", "state": "", "country": "ES", "coord": {"lon": -2.40679, "lat": 43.01783}}, {"id": 6358149, "name": "Orexa", "state": "", "country": "ES", "coord": {"lon": -1.99581, "lat": 43.08876}}, {"id": 6358150, "name": "Orio", "state": "", "country": "ES", "coord": {"lon": -2.12706, "lat": 43.277458}}, {"id": 6358151, "name": "Ormaiztegi", "state": "", "country": "ES", "coord": {"lon": -2.24931, "lat": 43.043179}}, {"id": 6358153, "name": "Soraluze / Placencia de las Armas", "state": "", "country": "ES", "coord": {"lon": -2.41397, "lat": 43.17807}}, {"id": 6358154, "name": "Errezil", "state": "", "country": "ES", "coord": {"lon": -2.18666, "lat": 43.175201}}, {"id": 6358156, "name": "Leintz-Gatzaga", "state": "", "country": "ES", "coord": {"lon": -2.56855, "lat": 42.976231}}, {"id": 6358157, "name": "Donostia / San Sebasti\u00e1n", "state": "", "country": "ES", "coord": {"lon": -1.98851, "lat": 43.291809}}, {"id": 6358158, "name": "Segura", "state": "", "country": "ES", "coord": {"lon": -2.25765, "lat": 43.00082}}, {"id": 6358159, "name": "Tolosa", "state": "", "country": "ES", "coord": {"lon": -2.08005, "lat": 43.10775}}, {"id": 6358160, "name": "Urnieta", "state": "", "country": "ES", "coord": {"lon": -1.96418, "lat": 43.227928}}, {"id": 6358161, "name": "Usurbil", "state": "", "country": "ES", "coord": {"lon": -2.04814, "lat": 43.271461}}, {"id": 6358162, "name": "Bergara", "state": "", "country": "ES", "coord": {"lon": -2.41484, "lat": 43.122009}}, {"id": 6358163, "name": "Villabona", "state": "", "country": "ES", "coord": {"lon": -2.03086, "lat": 43.186378}}, {"id": 6358165, "name": "Urretxu", "state": "", "country": "ES", "coord": {"lon": -2.3242, "lat": 43.099388}}, {"id": 6358166, "name": "Zaldibia", "state": "", "country": "ES", "coord": {"lon": -2.13876, "lat": 43.0201}}, {"id": 6358167, "name": "Zarautz", "state": "", "country": "ES", "coord": {"lon": -2.16722, "lat": 43.28096}}, {"id": 6358168, "name": "Zumarraga", "state": "", "country": "ES", "coord": {"lon": -2.31561, "lat": 43.103081}}, {"id": 6358169, "name": "Zumaia", "state": "", "country": "ES", "coord": {"lon": -2.24611, "lat": 43.287651}}, {"id": 6358170, "name": "Mendaro", "state": "", "country": "ES", "coord": {"lon": -2.37858, "lat": 43.245781}}, {"id": 6358173, "name": "Baliarrain", "state": "", "country": "ES", "coord": {"lon": -2.12937, "lat": 43.072899}}, {"id": 6358174, "name": "Orendain", "state": "", "country": "ES", "coord": {"lon": -2.1048, "lat": 43.077702}}, {"id": 6358175, "name": "Altzaga", "state": "", "country": "ES", "coord": {"lon": -2.15205, "lat": 43.067059}}, {"id": 6358176, "name": "Gaztelu", "state": "", "country": "ES", "coord": {"lon": -2.02041, "lat": 43.100689}}, {"id": 6358177, "name": "Al\u00e1jar", "state": "", "country": "ES", "coord": {"lon": -6.65079, "lat": 37.839439}}, {"id": 6358178, "name": "Aljaraque", "state": "", "country": "ES", "coord": {"lon": -7.01918, "lat": 37.279839}}, {"id": 6358179, "name": "Almendro, El", "state": "", "country": "ES", "coord": {"lon": -7.37613, "lat": 37.574379}}, {"id": 6358181, "name": "Almonte", "state": "", "country": "ES", "coord": {"lon": -6.46971, "lat": 36.995399}}, {"id": 6358182, "name": "Alosno", "state": "", "country": "ES", "coord": {"lon": -7.05164, "lat": 37.55262}}, {"id": 6358183, "name": "Aracena", "state": "", "country": "ES", "coord": {"lon": -6.57306, "lat": 37.856091}}, {"id": 6358184, "name": "Aroche", "state": "", "country": "ES", "coord": {"lon": -6.96869, "lat": 37.968861}}, {"id": 6358185, "name": "Arroyomolinos de Le\u00f3n", "state": "", "country": "ES", "coord": {"lon": -6.41727, "lat": 38.005421}}, {"id": 6358186, "name": "Ayamonte", "state": "", "country": "ES", "coord": {"lon": -7.36322, "lat": 37.27034}}, {"id": 6358187, "name": "Beas", "state": "", "country": "ES", "coord": {"lon": -6.81247, "lat": 37.483158}}, {"id": 6358188, "name": "Berrocal", "state": "", "country": "ES", "coord": {"lon": -6.51659, "lat": 37.59639}}, {"id": 6358189, "name": "Bollullos Par del Condado", "state": "", "country": "ES", "coord": {"lon": -6.54478, "lat": 37.33316}}, {"id": 6358190, "name": "Bonares", "state": "", "country": "ES", "coord": {"lon": -6.69188, "lat": 37.302719}}, {"id": 6358191, "name": "Cabezas Rubias", "state": "", "country": "ES", "coord": {"lon": -7.10417, "lat": 37.747639}}, {"id": 6358192, "name": "Cala", "state": "", "country": "ES", "coord": {"lon": -6.31578, "lat": 37.97438}}, {"id": 6358193, "name": "Cala\u00f1as", "state": "", "country": "ES", "coord": {"lon": -6.91192, "lat": 37.60601}}, {"id": 6358195, "name": "Campofr\u00edo", "state": "", "country": "ES", "coord": {"lon": -6.57206, "lat": 37.779202}}, {"id": 6358196, "name": "Ca\u00f1averal de Le\u00f3n", "state": "", "country": "ES", "coord": {"lon": -6.48426, "lat": 37.988541}}, {"id": 6358197, "name": "Cartaya", "state": "", "country": "ES", "coord": {"lon": -7.16817, "lat": 37.315681}}, {"id": 6358199, "name": "Cerro de And\u00e9valo, El", "state": "", "country": "ES", "coord": {"lon": -7.02102, "lat": 37.716061}}, {"id": 6358200, "name": "Corteconcepci\u00f3n", "state": "", "country": "ES", "coord": {"lon": -6.49212, "lat": 37.940361}}, {"id": 6358201, "name": "Cortegana", "state": "", "country": "ES", "coord": {"lon": -6.89718, "lat": 37.861698}}, {"id": 6358202, "name": "Cortelazor", "state": "", "country": "ES", "coord": {"lon": -6.61572, "lat": 37.943062}}, {"id": 6358205, "name": "Cumbres Mayores", "state": "", "country": "ES", "coord": {"lon": -6.68064, "lat": 38.04034}}, {"id": 6358206, "name": "Chucena", "state": "", "country": "ES", "coord": {"lon": -6.39004, "lat": 37.358261}}, {"id": 6358207, "name": "Encinasola", "state": "", "country": "ES", "coord": {"lon": -6.89929, "lat": 38.117748}}, {"id": 6358208, "name": "Escacena del Campo", "state": "", "country": "ES", "coord": {"lon": -6.3832, "lat": 37.503201}}, {"id": 6358209, "name": "Fuenteheridos", "state": "", "country": "ES", "coord": {"lon": -6.66335, "lat": 37.910381}}, {"id": 6358210, "name": "Galaroza", "state": "", "country": "ES", "coord": {"lon": -6.68219, "lat": 37.928242}}, {"id": 6358211, "name": "Gibrale\u00f3n", "state": "", "country": "ES", "coord": {"lon": -7.00326, "lat": 37.389858}}, {"id": 6358214, "name": "Higuera de la Sierra", "state": "", "country": "ES", "coord": {"lon": -6.43557, "lat": 37.833611}}, {"id": 6358215, "name": "Hinojales", "state": "", "country": "ES", "coord": {"lon": -6.55799, "lat": 37.994862}}, {"id": 6358217, "name": "Huelva", "state": "", "country": "ES", "coord": {"lon": -6.92932, "lat": 37.258202}}, {"id": 6358218, "name": "Isla Cristina", "state": "", "country": "ES", "coord": {"lon": -7.30739, "lat": 37.22086}}, {"id": 6358219, "name": "Jabugo", "state": "", "country": "ES", "coord": {"lon": -6.74575, "lat": 37.912521}}, {"id": 6358220, "name": "Lepe", "state": "", "country": "ES", "coord": {"lon": -7.19039, "lat": 37.278912}}, {"id": 6358221, "name": "Linares de la Sierra", "state": "", "country": "ES", "coord": {"lon": -6.60984, "lat": 37.850521}}, {"id": 6358223, "name": "Manzanilla", "state": "", "country": "ES", "coord": {"lon": -6.43427, "lat": 37.394871}}, {"id": 6358225, "name": "Minas de Riotinto", "state": "", "country": "ES", "coord": {"lon": -6.56939, "lat": 37.690651}}, {"id": 6358226, "name": "Moguer", "state": "", "country": "ES", "coord": {"lon": -6.8168, "lat": 37.246189}}, {"id": 6358228, "name": "Nerva", "state": "", "country": "ES", "coord": {"lon": -6.52662, "lat": 37.700321}}, {"id": 6358229, "name": "Niebla", "state": "", "country": "ES", "coord": {"lon": -6.67988, "lat": 37.430641}}, {"id": 6358230, "name": "Palma del Condado, La", "state": "", "country": "ES", "coord": {"lon": -6.55666, "lat": 37.4035}}, {"id": 6358231, "name": "Palos de la Frontera", "state": "", "country": "ES", "coord": {"lon": -6.83825, "lat": 37.152809}}, {"id": 6358233, "name": "Paymogo", "state": "", "country": "ES", "coord": {"lon": -7.32388, "lat": 37.73988}}, {"id": 6358236, "name": "Punta Umbr\u00eda", "state": "", "country": "ES", "coord": {"lon": -7.01433, "lat": 37.211102}}, {"id": 6358238, "name": "Rosal de la Frontera", "state": "", "country": "ES", "coord": {"lon": -7.19441, "lat": 37.935959}}, {"id": 6358239, "name": "San Bartolom\u00e9 de la Torre", "state": "", "country": "ES", "coord": {"lon": -7.10554, "lat": 37.45739}}, {"id": 6358240, "name": "San Juan del Puerto", "state": "", "country": "ES", "coord": {"lon": -6.83952, "lat": 37.333302}}, {"id": 6358241, "name": "Sanl\u00facar de Guadiana", "state": "", "country": "ES", "coord": {"lon": -7.38749, "lat": 37.446739}}, {"id": 6358242, "name": "San Silvestre de Guzm\u00e1n", "state": "", "country": "ES", "coord": {"lon": -7.39844, "lat": 37.385929}}, {"id": 6358243, "name": "Santa Ana la Real", "state": "", "country": "ES", "coord": {"lon": -6.7122, "lat": 37.8545}}, {"id": 6358244, "name": "Santa B\u00e1rbara de Casa", "state": "", "country": "ES", "coord": {"lon": -7.21951, "lat": 37.804329}}, {"id": 6358245, "name": "Santa Olalla del Cala", "state": "", "country": "ES", "coord": {"lon": -6.19061, "lat": 37.88052}}, {"id": 6358246, "name": "Trigueros", "state": "", "country": "ES", "coord": {"lon": -6.85679, "lat": 37.421711}}, {"id": 6358247, "name": "Valdelarco", "state": "", "country": "ES", "coord": {"lon": -6.66071, "lat": 37.94582}}, {"id": 6358248, "name": "Valverde del Camino", "state": "", "country": "ES", "coord": {"lon": -6.74951, "lat": 37.545811}}, {"id": 6358249, "name": "Villablanca", "state": "", "country": "ES", "coord": {"lon": -7.33015, "lat": 37.306419}}, {"id": 6358250, "name": "Villalba del Alcor", "state": "", "country": "ES", "coord": {"lon": -6.46955, "lat": 37.3745}}, {"id": 6358251, "name": "Villanueva de las Cruces", "state": "", "country": "ES", "coord": {"lon": -7.00072, "lat": 37.6077}}, {"id": 6358252, "name": "Villanueva de los Castillejos", "state": "", "country": "ES", "coord": {"lon": -7.18774, "lat": 37.44952}}, {"id": 6358253, "name": "Villarrasa", "state": "", "country": "ES", "coord": {"lon": -6.62964, "lat": 37.40205}}, {"id": 6358254, "name": "Zalamea la Real", "state": "", "country": "ES", "coord": {"lon": -6.66012, "lat": 37.637421}}, {"id": 6358255, "name": "Zufre", "state": "", "country": "ES", "coord": {"lon": -6.38344, "lat": 37.827438}}, {"id": 6358256, "name": "Abiego", "state": "", "country": "ES", "coord": {"lon": -0.06881, "lat": 42.143608}}, {"id": 6358257, "name": "Abizanda", "state": "", "country": "ES", "coord": {"lon": 0.18311, "lat": 42.255718}}, {"id": 6358258, "name": "Adahuesca", "state": "", "country": "ES", "coord": {"lon": -0.02378, "lat": 42.209068}}, {"id": 6358260, "name": "Aisa", "state": "", "country": "ES", "coord": {"lon": -0.58998, "lat": 42.719219}}, {"id": 6358261, "name": "Albalate de Cinca", "state": "", "country": "ES", "coord": {"lon": 0.16598, "lat": 41.74086}}, {"id": 6358262, "name": "Albalatillo", "state": "", "country": "ES", "coord": {"lon": -0.15031, "lat": 41.737991}}, {"id": 6358263, "name": "Albelda", "state": "", "country": "ES", "coord": {"lon": 0.49963, "lat": 41.848801}}, {"id": 6358264, "name": "Albero Alto", "state": "", "country": "ES", "coord": {"lon": -0.34627, "lat": 42.053478}}, {"id": 6358265, "name": "Albero Bajo", "state": "", "country": "ES", "coord": {"lon": -0.38304, "lat": 42.02615}}, {"id": 6358266, "name": "Alberuela de Tubo", "state": "", "country": "ES", "coord": {"lon": -0.23188, "lat": 41.89716}}, {"id": 6358267, "name": "Alcal\u00e1 de Gurrea", "state": "", "country": "ES", "coord": {"lon": -0.68416, "lat": 42.066238}}, {"id": 6358268, "name": "Alcal\u00e1 del Obispo", "state": "", "country": "ES", "coord": {"lon": -0.27886, "lat": 42.082729}}, {"id": 6358270, "name": "Alcolea de Cinca", "state": "", "country": "ES", "coord": {"lon": 0.06216, "lat": 41.7342}}, {"id": 6358271, "name": "Alcubierre", "state": "", "country": "ES", "coord": {"lon": -0.45238, "lat": 41.788261}}, {"id": 6358272, "name": "Alerre", "state": "", "country": "ES", "coord": {"lon": -0.48035, "lat": 42.164749}}, {"id": 6358273, "name": "Alf\u00e1ntega", "state": "", "country": "ES", "coord": {"lon": 0.1497, "lat": 41.83099}}, {"id": 6358274, "name": "Almud\u00e9var", "state": "", "country": "ES", "coord": {"lon": -0.58483, "lat": 42.06353}}, {"id": 6358276, "name": "Almuniente", "state": "", "country": "ES", "coord": {"lon": -0.42849, "lat": 41.938278}}, {"id": 6358277, "name": "Alqu\u00e9zar", "state": "", "country": "ES", "coord": {"lon": 0.01406, "lat": 42.188042}}, {"id": 6358279, "name": "Ang\u00fc\u00e9s", "state": "", "country": "ES", "coord": {"lon": -0.1495, "lat": 42.0826}}, {"id": 6358280, "name": "Ans\u00f3", "state": "", "country": "ES", "coord": {"lon": -0.74045, "lat": 42.793121}}, {"id": 6358281, "name": "Antill\u00f3n", "state": "", "country": "ES", "coord": {"lon": -0.16607, "lat": 42.026459}}, {"id": 6358282, "name": "Arag\u00fc\u00e9s del Puerto", "state": "", "country": "ES", "coord": {"lon": -0.65774, "lat": 42.72155}}, {"id": 6358283, "name": "Areny de Noguera / Ar\u00e9n", "state": "", "country": "ES", "coord": {"lon": 0.71857, "lat": 42.257751}}, {"id": 6358284, "name": "Argavieso", "state": "", "country": "ES", "coord": {"lon": -0.28069, "lat": 42.052559}}, {"id": 6358285, "name": "Arguis", "state": "", "country": "ES", "coord": {"lon": -0.46856, "lat": 42.32478}}, {"id": 6358288, "name": "Azara", "state": "", "country": "ES", "coord": {"lon": -0.02801, "lat": 42.06879}}, {"id": 6358289, "name": "Azlor", "state": "", "country": "ES", "coord": {"lon": -0.03667, "lat": 42.099072}}, {"id": 6358290, "name": "Baells", "state": "", "country": "ES", "coord": {"lon": 0.46323, "lat": 41.959091}}, {"id": 6358291, "name": "Bailo", "state": "", "country": "ES", "coord": {"lon": -0.80433, "lat": 42.500549}}, {"id": 6358293, "name": "Ballobar", "state": "", "country": "ES", "coord": {"lon": 0.13771, "lat": 41.60416}}, {"id": 6358294, "name": "Banast\u00e1s", "state": "", "country": "ES", "coord": {"lon": -0.45266, "lat": 42.188801}}, {"id": 6358295, "name": "Barbastro", "state": "", "country": "ES", "coord": {"lon": 0.12556, "lat": 42.04348}}, {"id": 6358296, "name": "Barbu\u00e9s", "state": "", "country": "ES", "coord": {"lon": -0.43812, "lat": 41.984001}}, {"id": 6358297, "name": "Barbu\u00f1ales", "state": "", "country": "ES", "coord": {"lon": -0.10035, "lat": 42.040169}}, {"id": 6358298, "name": "B\u00e1rcabo", "state": "", "country": "ES", "coord": {"lon": 0.06041, "lat": 42.250679}}, {"id": 6358299, "name": "Belver de Cinca", "state": "", "country": "ES", "coord": {"lon": 0.24103, "lat": 41.712502}}, {"id": 6358300, "name": "Benabarre", "state": "", "country": "ES", "coord": {"lon": 0.49223, "lat": 42.085171}}, {"id": 6358301, "name": "Benasque", "state": "", "country": "ES", "coord": {"lon": 0.56336, "lat": 42.63269}}, {"id": 6358302, "name": "Berbegal", "state": "", "country": "ES", "coord": {"lon": 0.00512, "lat": 41.967091}}, {"id": 6358303, "name": "Bielsa", "state": "", "country": "ES", "coord": {"lon": 0.18418, "lat": 42.681641}}, {"id": 6358304, "name": "Bierge", "state": "", "country": "ES", "coord": {"lon": -0.08437, "lat": 42.239498}}, {"id": 6358305, "name": "Biescas", "state": "", "country": "ES", "coord": {"lon": -0.31369, "lat": 42.633419}}, {"id": 6358306, "name": "Binaced", "state": "", "country": "ES", "coord": {"lon": 0.21552, "lat": 41.81179}}, {"id": 6358307, "name": "Bin\u00e9far", "state": "", "country": "ES", "coord": {"lon": 0.29683, "lat": 41.848808}}, {"id": 6358308, "name": "Bisaurri", "state": "", "country": "ES", "coord": {"lon": 0.53869, "lat": 42.49213}}, {"id": 6358309, "name": "Biscarru\u00e9s", "state": "", "country": "ES", "coord": {"lon": -0.73186, "lat": 42.212448}}, {"id": 6358310, "name": "Blecua y Torres", "state": "", "country": "ES", "coord": {"lon": -0.19123, "lat": 42.070911}}, {"id": 6358311, "name": "Bolta\u00f1a", "state": "", "country": "ES", "coord": {"lon": 0.01159, "lat": 42.4249}}, {"id": 6358312, "name": "Bonansa", "state": "", "country": "ES", "coord": {"lon": 0.69103, "lat": 42.416512}}, {"id": 6358313, "name": "Borau", "state": "", "country": "ES", "coord": {"lon": -0.57539, "lat": 42.684872}}, {"id": 6358314, "name": "Broto", "state": "", "country": "ES", "coord": {"lon": -0.15642, "lat": 42.56707}}, {"id": 6358316, "name": "Camporrells", "state": "", "country": "ES", "coord": {"lon": 0.52364, "lat": 41.940269}}, {"id": 6358317, "name": "Canal de Berd\u00fan", "state": "", "country": "ES", "coord": {"lon": -0.85845, "lat": 42.609039}}, {"id": 6358318, "name": "Candasnos", "state": "", "country": "ES", "coord": {"lon": 0.06865, "lat": 41.495621}}, {"id": 6358319, "name": "Canfranc", "state": "", "country": "ES", "coord": {"lon": -0.47851, "lat": 42.75573}}, {"id": 6358320, "name": "Capdesaso", "state": "", "country": "ES", "coord": {"lon": -0.18463, "lat": 41.846149}}, {"id": 6358321, "name": "Capella", "state": "", "country": "ES", "coord": {"lon": 0.44008, "lat": 42.1758}}, {"id": 6358322, "name": "Casbas de Huesca", "state": "", "country": "ES", "coord": {"lon": -0.16714, "lat": 42.196072}}, {"id": 6358323, "name": "Castej\u00f3n del Puente", "state": "", "country": "ES", "coord": {"lon": 0.13599, "lat": 41.963032}}, {"id": 6358324, "name": "Castej\u00f3n de Monegros", "state": "", "country": "ES", "coord": {"lon": -0.21738, "lat": 41.65089}}, {"id": 6358325, "name": "Castej\u00f3n de Sos", "state": "", "country": "ES", "coord": {"lon": 0.53108, "lat": 42.536152}}, {"id": 6358326, "name": "Castelflorite", "state": "", "country": "ES", "coord": {"lon": -0.02416, "lat": 41.79882}}, {"id": 6358327, "name": "Castiello de Jaca", "state": "", "country": "ES", "coord": {"lon": -0.55781, "lat": 42.646191}}, {"id": 6358328, "name": "Castigaleu", "state": "", "country": "ES", "coord": {"lon": 0.58226, "lat": 42.201832}}, {"id": 6358329, "name": "Castillazuelo", "state": "", "country": "ES", "coord": {"lon": 0.05594, "lat": 42.059731}}, {"id": 6358331, "name": "Colungo", "state": "", "country": "ES", "coord": {"lon": 0.0652, "lat": 42.19067}}, {"id": 6358332, "name": "Chalamera", "state": "", "country": "ES", "coord": {"lon": 0.15553, "lat": 41.664371}}, {"id": 6358333, "name": "Ch\u00eda", "state": "", "country": "ES", "coord": {"lon": 0.44131, "lat": 42.536362}}, {"id": 6358334, "name": "Chimillas", "state": "", "country": "ES", "coord": {"lon": -0.4775, "lat": 42.160919}}, {"id": 6358335, "name": "Espl\u00fas", "state": "", "country": "ES", "coord": {"lon": 0.29953, "lat": 41.767929}}, {"id": 6358336, "name": "Estada", "state": "", "country": "ES", "coord": {"lon": 0.24606, "lat": 42.075809}}, {"id": 6358337, "name": "Estadilla", "state": "", "country": "ES", "coord": {"lon": 0.2447, "lat": 42.044651}}, {"id": 6358339, "name": "Fago", "state": "", "country": "ES", "coord": {"lon": -0.88627, "lat": 42.725891}}, {"id": 6358341, "name": "Fiscal", "state": "", "country": "ES", "coord": {"lon": -0.11913, "lat": 42.49868}}, {"id": 6358342, "name": "Fonz", "state": "", "country": "ES", "coord": {"lon": 0.23987, "lat": 42.01223}}, {"id": 6358344, "name": "Fraga", "state": "", "country": "ES", "coord": {"lon": 0.19751, "lat": 41.478279}}, {"id": 6358345, "name": "Fueva, La", "state": "", "country": "ES", "coord": {"lon": 0.26747, "lat": 42.37389}}, {"id": 6358346, "name": "Gista\u00edn", "state": "", "country": "ES", "coord": {"lon": 0.36957, "lat": 42.670609}}, {"id": 6358347, "name": "Grado, El", "state": "", "country": "ES", "coord": {"lon": 0.20124, "lat": 42.122639}}, {"id": 6358348, "name": "Gra\u00f1\u00e9n", "state": "", "country": "ES", "coord": {"lon": -0.3405, "lat": 41.931599}}, {"id": 6358349, "name": "Graus", "state": "", "country": "ES", "coord": {"lon": 0.3746, "lat": 42.19825}}, {"id": 6358350, "name": "Gurrea de G\u00e1llego", "state": "", "country": "ES", "coord": {"lon": -0.76654, "lat": 42.028011}}, {"id": 6358351, "name": "Hoz de Jaca", "state": "", "country": "ES", "coord": {"lon": -0.29663, "lat": 42.681492}}, {"id": 6358352, "name": "Huesca", "state": "", "country": "ES", "coord": {"lon": -0.41253, "lat": 42.14838}}, {"id": 6358353, "name": "Ibieca", "state": "", "country": "ES", "coord": {"lon": -0.19634, "lat": 42.160389}}, {"id": 6358354, "name": "Igri\u00e9s", "state": "", "country": "ES", "coord": {"lon": -0.43026, "lat": 42.20705}}, {"id": 6358355, "name": "Ilche", "state": "", "country": "ES", "coord": {"lon": 0.05112, "lat": 41.938251}}, {"id": 6358356, "name": "Is\u00e1bena", "state": "", "country": "ES", "coord": {"lon": 0.54485, "lat": 42.30925}}, {"id": 6358357, "name": "Jaca", "state": "", "country": "ES", "coord": {"lon": -0.54094, "lat": 42.57605}}, {"id": 6358358, "name": "Jasa", "state": "", "country": "ES", "coord": {"lon": -0.64931, "lat": 42.703308}}, {"id": 6358359, "name": "Labuerda", "state": "", "country": "ES", "coord": {"lon": 0.11621, "lat": 42.449661}}, {"id": 6358360, "name": "Laluenga", "state": "", "country": "ES", "coord": {"lon": -0.01982, "lat": 42.012421}}, {"id": 6358361, "name": "Lalueza", "state": "", "country": "ES", "coord": {"lon": -0.25488, "lat": 41.871841}}, {"id": 6358362, "name": "Lanaja", "state": "", "country": "ES", "coord": {"lon": -0.35344, "lat": 41.741611}}, {"id": 6358363, "name": "Laperdiguera", "state": "", "country": "ES", "coord": {"lon": -0.04726, "lat": 41.995529}}, {"id": 6358365, "name": "Lascuarre", "state": "", "country": "ES", "coord": {"lon": 0.51807, "lat": 42.188911}}, {"id": 6358366, "name": "Laspa\u00fales", "state": "", "country": "ES", "coord": {"lon": 0.59859, "lat": 42.482521}}, {"id": 6358367, "name": "Laspu\u00f1a", "state": "", "country": "ES", "coord": {"lon": 0.17679, "lat": 42.521679}}, {"id": 6358368, "name": "Loarre", "state": "", "country": "ES", "coord": {"lon": -0.62485, "lat": 42.313751}}, {"id": 6358369, "name": "Loporzano", "state": "", "country": "ES", "coord": {"lon": -0.30757, "lat": 42.20599}}, {"id": 6358370, "name": "Loscorrales", "state": "", "country": "ES", "coord": {"lon": -0.67166, "lat": 42.203781}}, {"id": 6358373, "name": "Montanuy", "state": "", "country": "ES", "coord": {"lon": 0.68843, "lat": 42.552719}}, {"id": 6358374, "name": "Monz\u00f3n", "state": "", "country": "ES", "coord": {"lon": 0.17021, "lat": 41.902309}}, {"id": 6358375, "name": "Naval", "state": "", "country": "ES", "coord": {"lon": 0.16993, "lat": 42.20129}}, {"id": 6358376, "name": "Novales", "state": "", "country": "ES", "coord": {"lon": -0.28418, "lat": 42.03577}}, {"id": 6358377, "name": "Nueno", "state": "", "country": "ES", "coord": {"lon": -0.31703, "lat": 42.294239}}, {"id": 6358379, "name": "Onti\u00f1ena", "state": "", "country": "ES", "coord": {"lon": 0.02855, "lat": 41.62624}}, {"id": 6358381, "name": "Palo", "state": "", "country": "ES", "coord": {"lon": 0.24103, "lat": 42.325958}}, {"id": 6358383, "name": "Pe\u00f1alba", "state": "", "country": "ES", "coord": {"lon": -0.02999, "lat": 41.476109}}, {"id": 6358384, "name": "Pe\u00f1as de Riglos, Las", "state": "", "country": "ES", "coord": {"lon": -0.7342, "lat": 42.406849}}, {"id": 6358387, "name": "Peraltilla", "state": "", "country": "ES", "coord": {"lon": -0.01574, "lat": 42.046951}}, {"id": 6358389, "name": "Pertusa", "state": "", "country": "ES", "coord": {"lon": -0.12751, "lat": 42.001598}}, {"id": 6358390, "name": "Pirac\u00e9s", "state": "", "country": "ES", "coord": {"lon": -0.31472, "lat": 41.9963}}, {"id": 6358391, "name": "Plan", "state": "", "country": "ES", "coord": {"lon": 0.31028, "lat": 42.545891}}, {"id": 6358392, "name": "Pole\u00f1ino", "state": "", "country": "ES", "coord": {"lon": -0.32453, "lat": 41.84914}}, {"id": 6358393, "name": "Poz\u00e1n de Vero", "state": "", "country": "ES", "coord": {"lon": 0.0268, "lat": 42.081989}}, {"id": 6358396, "name": "Pu\u00e9rtolas", "state": "", "country": "ES", "coord": {"lon": 0.1269, "lat": 42.550159}}, {"id": 6358397, "name": "Pueyo de Aragu\u00e1s, El", "state": "", "country": "ES", "coord": {"lon": 0.20009, "lat": 42.46455}}, {"id": 6358398, "name": "Pueyo de Santa Cruz", "state": "", "country": "ES", "coord": {"lon": 0.15724, "lat": 41.854679}}, {"id": 6358399, "name": "Quicena", "state": "", "country": "ES", "coord": {"lon": -0.35003, "lat": 42.152431}}, {"id": 6358400, "name": "Robres", "state": "", "country": "ES", "coord": {"lon": -0.48055, "lat": 41.861759}}, {"id": 6358401, "name": "Sabi\u00f1\u00e1nigo", "state": "", "country": "ES", "coord": {"lon": -0.32919, "lat": 42.483479}}, {"id": 6358402, "name": "Sah\u00fan", "state": "", "country": "ES", "coord": {"lon": 0.46856, "lat": 42.605301}}, {"id": 6358403, "name": "Salas Altas", "state": "", "country": "ES", "coord": {"lon": 0.07873, "lat": 42.116718}}, {"id": 6358404, "name": "Salas Bajas", "state": "", "country": "ES", "coord": {"lon": 0.09271, "lat": 42.095589}}, {"id": 6358405, "name": "Salillas", "state": "", "country": "ES", "coord": {"lon": -0.17055, "lat": 41.97953}}, {"id": 6358406, "name": "Sallent de G\u00e1llego", "state": "", "country": "ES", "coord": {"lon": -0.33832, "lat": 42.786152}}, {"id": 6358408, "name": "Sangarr\u00e9n", "state": "", "country": "ES", "coord": {"lon": -0.45149, "lat": 42.008991}}, {"id": 6358411, "name": "Santa Cruz de la Ser\u00f3s", "state": "", "country": "ES", "coord": {"lon": -0.68367, "lat": 42.535938}}, {"id": 6358413, "name": "Sari\u00f1ena", "state": "", "country": "ES", "coord": {"lon": -0.16581, "lat": 41.777672}}, {"id": 6358414, "name": "Secastilla", "state": "", "country": "ES", "coord": {"lon": 0.25162, "lat": 42.19289}}, {"id": 6358415, "name": "Seira", "state": "", "country": "ES", "coord": {"lon": 0.38877, "lat": 42.512901}}, {"id": 6358417, "name": "Sen\u00e9s de Alcubierre", "state": "", "country": "ES", "coord": {"lon": -0.51706, "lat": 41.902519}}, {"id": 6358418, "name": "Sesa", "state": "", "country": "ES", "coord": {"lon": -0.2491, "lat": 41.99144}}, {"id": 6358419, "name": "Sesu\u00e9", "state": "", "country": "ES", "coord": {"lon": 0.47926, "lat": 42.552872}}, {"id": 6358420, "name": "Si\u00e9tamo", "state": "", "country": "ES", "coord": {"lon": -0.25202, "lat": 42.148411}}, {"id": 6358421, "name": "Sopeira", "state": "", "country": "ES", "coord": {"lon": 0.71851, "lat": 42.346191}}, {"id": 6358422, "name": "Tamarite de Litera", "state": "", "country": "ES", "coord": {"lon": 0.39098, "lat": 41.814411}}, {"id": 6358423, "name": "Tardienta", "state": "", "country": "ES", "coord": {"lon": -0.55848, "lat": 41.958691}}, {"id": 6358425, "name": "Tierz", "state": "", "country": "ES", "coord": {"lon": -0.35197, "lat": 42.132301}}, {"id": 6358428, "name": "Torralba de Arag\u00f3n", "state": "", "country": "ES", "coord": {"lon": -0.52542, "lat": 41.918919}}, {"id": 6358431, "name": "Torres de Alcanadre", "state": "", "country": "ES", "coord": {"lon": -0.10178, "lat": 41.95499}}, {"id": 6358432, "name": "Torres de Barbu\u00e9s", "state": "", "country": "ES", "coord": {"lon": -0.44804, "lat": 41.95966}}, {"id": 6358433, "name": "Tramaced", "state": "", "country": "ES", "coord": {"lon": -0.30145, "lat": 41.972591}}, {"id": 6358434, "name": "Valfarta", "state": "", "country": "ES", "coord": {"lon": -0.11595, "lat": 41.55035}}, {"id": 6358435, "name": "Valle de Bardaj\u00ed", "state": "", "country": "ES", "coord": {"lon": 0.46714, "lat": 42.42733}}, {"id": 6358442, "name": "Villan\u00faa", "state": "", "country": "ES", "coord": {"lon": -0.51352, "lat": 42.689251}}, {"id": 6358443, "name": "Villanueva de Sigena", "state": "", "country": "ES", "coord": {"lon": -0.03098, "lat": 41.68404}}, {"id": 6358444, "name": "Yebra de Basa", "state": "", "country": "ES", "coord": {"lon": -0.2435, "lat": 42.487011}}, {"id": 6358445, "name": "Y\u00e9sero", "state": "", "country": "ES", "coord": {"lon": -0.22375, "lat": 42.63781}}, {"id": 6358446, "name": "Zaid\u00edn", "state": "", "country": "ES", "coord": {"lon": 0.28254, "lat": 41.62331}}, {"id": 6358447, "name": "Valle de Echo", "state": "", "country": "ES", "coord": {"lon": -0.73055, "lat": 42.719372}}, {"id": 6358449, "name": "San Miguel de Cinca", "state": "", "country": "ES", "coord": {"lon": 0.09116, "lat": 41.828838}}, {"id": 6358450, "name": "Sotonera, La", "state": "", "country": "ES", "coord": {"lon": -0.53258, "lat": 42.24049}}, {"id": 6358451, "name": "Lupi\u00f1\u00e9n-Ortilla", "state": "", "country": "ES", "coord": {"lon": -0.65241, "lat": 42.15493}}, {"id": 6358453, "name": "A\u00ednsa-Sobrarbe", "state": "", "country": "ES", "coord": {"lon": 0.07127, "lat": 42.326881}}, {"id": 6358454, "name": "Hoz y Costean", "state": "", "country": "ES", "coord": {"lon": 0.14545, "lat": 42.125011}}, {"id": 6358457, "name": "Alcal\u00e1 la Real", "state": "", "country": "ES", "coord": {"lon": -3.94738, "lat": 37.46587}}, {"id": 6358458, "name": "Alcaudete", "state": "", "country": "ES", "coord": {"lon": -4.10775, "lat": 37.59692}}, {"id": 6358459, "name": "Aldeaquemada", "state": "", "country": "ES", "coord": {"lon": -3.3632, "lat": 38.40155}}, {"id": 6358460, "name": "And\u00fajar", "state": "", "country": "ES", "coord": {"lon": -4.10369, "lat": 38.176949}}, {"id": 6358461, "name": "Arjona", "state": "", "country": "ES", "coord": {"lon": -4.05257, "lat": 37.931591}}, {"id": 6358462, "name": "Arjonilla", "state": "", "country": "ES", "coord": {"lon": -4.11332, "lat": 38.004398}}, {"id": 6358463, "name": "Arquillos", "state": "", "country": "ES", "coord": {"lon": -3.40717, "lat": 38.222382}}, {"id": 6358464, "name": "Baeza", "state": "", "country": "ES", "coord": {"lon": -3.49804, "lat": 37.947311}}, {"id": 6358465, "name": "Bail\u00e9n", "state": "", "country": "ES", "coord": {"lon": -3.78418, "lat": 38.080231}}, {"id": 6358467, "name": "Beas de Segura", "state": "", "country": "ES", "coord": {"lon": -2.87691, "lat": 38.255451}}, {"id": 6358468, "name": "Beg\u00edjar", "state": "", "country": "ES", "coord": {"lon": -3.57602, "lat": 37.971939}}, {"id": 6358469, "name": "B\u00e9lmez de la Moraleda", "state": "", "country": "ES", "coord": {"lon": -3.37155, "lat": 37.731041}}, {"id": 6358470, "name": "Benatae", "state": "", "country": "ES", "coord": {"lon": -2.61094, "lat": 38.326141}}, {"id": 6358471, "name": "Cabra del Santo Cristo", "state": "", "country": "ES", "coord": {"lon": -3.22911, "lat": 37.695641}}, {"id": 6358472, "name": "Cambil", "state": "", "country": "ES", "coord": {"lon": -3.57091, "lat": 37.65905}}, {"id": 6358474, "name": "Canena", "state": "", "country": "ES", "coord": {"lon": -3.49774, "lat": 38.056622}}, {"id": 6358475, "name": "Carboneros", "state": "", "country": "ES", "coord": {"lon": -3.63107, "lat": 38.219341}}, {"id": 6358476, "name": "Carolina, La", "state": "", "country": "ES", "coord": {"lon": -3.60023, "lat": 38.318329}}, {"id": 6358477, "name": "Castillo de Locub\u00edn", "state": "", "country": "ES", "coord": {"lon": -3.94008, "lat": 37.544151}}, {"id": 6358478, "name": "Cazalilla", "state": "", "country": "ES", "coord": {"lon": -3.8852, "lat": 37.963661}}, {"id": 6358479, "name": "Cazorla", "state": "", "country": "ES", "coord": {"lon": -2.9788, "lat": 37.921421}}, {"id": 6358480, "name": "Chiclana de Segura", "state": "", "country": "ES", "coord": {"lon": -2.96956, "lat": 38.351768}}, {"id": 6358481, "name": "Chillu\u00e9var", "state": "", "country": "ES", "coord": {"lon": -3.03107, "lat": 37.990082}}, {"id": 6358482, "name": "Esca\u00f1uela", "state": "", "country": "ES", "coord": {"lon": -4.02848, "lat": 37.877689}}, {"id": 6358483, "name": "Espel\u00fay", "state": "", "country": "ES", "coord": {"lon": -3.86182, "lat": 38.021961}}, {"id": 6358484, "name": "Frailes", "state": "", "country": "ES", "coord": {"lon": -3.80893, "lat": 37.497559}}, {"id": 6358485, "name": "Fuensanta de Martos", "state": "", "country": "ES", "coord": {"lon": -3.91541, "lat": 37.618752}}, {"id": 6358486, "name": "Fuerte del Rey", "state": "", "country": "ES", "coord": {"lon": -3.90649, "lat": 37.909962}}, {"id": 6358487, "name": "G\u00e9nave", "state": "", "country": "ES", "coord": {"lon": -2.75278, "lat": 38.44318}}, {"id": 6358488, "name": "Guardia de Ja\u00e9n, La", "state": "", "country": "ES", "coord": {"lon": -3.70342, "lat": 37.75552}}, {"id": 6358489, "name": "Guarrom\u00e1n", "state": "", "country": "ES", "coord": {"lon": -3.74956, "lat": 38.147129}}, {"id": 6358491, "name": "Higuera de Calatrava", "state": "", "country": "ES", "coord": {"lon": -4.15327, "lat": 37.799511}}, {"id": 6358492, "name": "Hinojares", "state": "", "country": "ES", "coord": {"lon": -3.00804, "lat": 37.730839}}, {"id": 6358494, "name": "Huelma", "state": "", "country": "ES", "coord": {"lon": -3.38997, "lat": 37.671322}}, {"id": 6358497, "name": "Iruela, La", "state": "", "country": "ES", "coord": {"lon": -2.92798, "lat": 37.971272}}, {"id": 6358498, "name": "Iznatoraf", "state": "", "country": "ES", "coord": {"lon": -2.99799, "lat": 38.13538}}, {"id": 6358499, "name": "Jabalquinto", "state": "", "country": "ES", "coord": {"lon": -3.76009, "lat": 38.01757}}, {"id": 6358500, "name": "Ja\u00e9n", "state": "", "country": "ES", "coord": {"lon": -3.73316, "lat": 37.825851}}, {"id": 6358501, "name": "Jamilena", "state": "", "country": "ES", "coord": {"lon": -3.91638, "lat": 37.737869}}, {"id": 6358502, "name": "Jimena", "state": "", "country": "ES", "coord": {"lon": -3.51921, "lat": 37.83831}}, {"id": 6358503, "name": "J\u00f3dar", "state": "", "country": "ES", "coord": {"lon": -3.3487, "lat": 37.838322}}, {"id": 6358504, "name": "Larva", "state": "", "country": "ES", "coord": {"lon": -3.19357, "lat": 37.762039}}, {"id": 6358505, "name": "Linares", "state": "", "country": "ES", "coord": {"lon": -3.64455, "lat": 38.09734}}, {"id": 6358506, "name": "Lopera", "state": "", "country": "ES", "coord": {"lon": -4.22617, "lat": 37.96347}}, {"id": 6358507, "name": "Lupi\u00f3n", "state": "", "country": "ES", "coord": {"lon": -3.57789, "lat": 38.015781}}, {"id": 6358508, "name": "Mancha Real", "state": "", "country": "ES", "coord": {"lon": -3.60115, "lat": 37.863522}}, {"id": 6358509, "name": "Marmolejo", "state": "", "country": "ES", "coord": {"lon": -4.16748, "lat": 38.07576}}, {"id": 6358510, "name": "Martos", "state": "", "country": "ES", "coord": {"lon": -4.00201, "lat": 37.670879}}, {"id": 6358511, "name": "Meng\u00edbar", "state": "", "country": "ES", "coord": {"lon": -3.79645, "lat": 37.970139}}, {"id": 6358512, "name": "Montiz\u00f3n", "state": "", "country": "ES", "coord": {"lon": -3.09823, "lat": 38.373539}}, {"id": 6358513, "name": "Navas de San Juan", "state": "", "country": "ES", "coord": {"lon": -3.35383, "lat": 38.235062}}, {"id": 6358514, "name": "Noalejo", "state": "", "country": "ES", "coord": {"lon": -3.64986, "lat": 37.538879}}, {"id": 6358515, "name": "Orcera", "state": "", "country": "ES", "coord": {"lon": -2.77298, "lat": 38.383339}}, {"id": 6358516, "name": "Peal de Becerro", "state": "", "country": "ES", "coord": {"lon": -3.08409, "lat": 37.87711}}, {"id": 6358517, "name": "Pegalajar", "state": "", "country": "ES", "coord": {"lon": -3.61274, "lat": 37.7248}}, {"id": 6358518, "name": "Porcuna", "state": "", "country": "ES", "coord": {"lon": -4.1938, "lat": 37.857288}}, {"id": 6358519, "name": "Pozo Alc\u00f3n", "state": "", "country": "ES", "coord": {"lon": -2.9607, "lat": 37.704899}}, {"id": 6358520, "name": "Puente de G\u00e9nave", "state": "", "country": "ES", "coord": {"lon": -2.82559, "lat": 38.337929}}, {"id": 6358522, "name": "Quesada", "state": "", "country": "ES", "coord": {"lon": -3.09766, "lat": 37.746929}}, {"id": 6358523, "name": "Rus", "state": "", "country": "ES", "coord": {"lon": -3.45572, "lat": 38.078121}}, {"id": 6358525, "name": "Santa Elena", "state": "", "country": "ES", "coord": {"lon": -3.51452, "lat": 38.352951}}, {"id": 6358526, "name": "Santiago de Calatrava", "state": "", "country": "ES", "coord": {"lon": -4.18513, "lat": 37.7467}}, {"id": 6358527, "name": "Santisteban del Puerto", "state": "", "country": "ES", "coord": {"lon": -3.25724, "lat": 38.33157}}, {"id": 6358528, "name": "Santo Tom\u00e9", "state": "", "country": "ES", "coord": {"lon": -2.99694, "lat": 38.018131}}, {"id": 6358530, "name": "Siles", "state": "", "country": "ES", "coord": {"lon": -2.60856, "lat": 38.407101}}, {"id": 6358531, "name": "Sorihuela del Guadalimar", "state": "", "country": "ES", "coord": {"lon": -2.94648, "lat": 38.209351}}, {"id": 6358532, "name": "Torreblascopedro", "state": "", "country": "ES", "coord": {"lon": -3.66083, "lat": 37.987728}}, {"id": 6358533, "name": "Torre del Campo", "state": "", "country": "ES", "coord": {"lon": -3.93297, "lat": 37.85408}}, {"id": 6358534, "name": "Torredonjimeno", "state": "", "country": "ES", "coord": {"lon": -4.04767, "lat": 37.78907}}, {"id": 6358535, "name": "Torreperogil", "state": "", "country": "ES", "coord": {"lon": -3.23071, "lat": 38.034451}}, {"id": 6358536, "name": "Torres", "state": "", "country": "ES", "coord": {"lon": -3.52071, "lat": 37.787251}}, {"id": 6358538, "name": "\u00dabeda", "state": "", "country": "ES", "coord": {"lon": -3.36868, "lat": 38.013569}}, {"id": 6358539, "name": "Valdepe\u00f1as de Ja\u00e9n", "state": "", "country": "ES", "coord": {"lon": -3.75666, "lat": 37.573372}}, {"id": 6358540, "name": "Vilches", "state": "", "country": "ES", "coord": {"lon": -3.47746, "lat": 38.22776}}, {"id": 6358541, "name": "Villacarrillo", "state": "", "country": "ES", "coord": {"lon": -3.02669, "lat": 38.090561}}, {"id": 6358542, "name": "Villanueva de la Reina", "state": "", "country": "ES", "coord": {"lon": -3.88747, "lat": 38.13052}}, {"id": 6358543, "name": "Villanueva del Arzobispo", "state": "", "country": "ES", "coord": {"lon": -2.95204, "lat": 38.171291}}, {"id": 6358544, "name": "Villardompardo", "state": "", "country": "ES", "coord": {"lon": -3.99781, "lat": 37.843922}}, {"id": 6358547, "name": "C\u00e1rcheles", "state": "", "country": "ES", "coord": {"lon": -3.6193, "lat": 37.644569}}, {"id": 6358548, "name": "Bedmar y Garc\u00edez", "state": "", "country": "ES", "coord": {"lon": -3.4272, "lat": 37.841171}}, {"id": 6358550, "name": "Santiago-Pontones", "state": "", "country": "ES", "coord": {"lon": -2.67918, "lat": 38.086632}}, {"id": 6358551, "name": "Arroyo del Ojanco", "state": "", "country": "ES", "coord": {"lon": -2.88874, "lat": 38.314339}}, {"id": 6358552, "name": "Acebedo", "state": "", "country": "ES", "coord": {"lon": -5.12525, "lat": 43.03529}}, {"id": 6358553, "name": "Algadefe", "state": "", "country": "ES", "coord": {"lon": -5.56769, "lat": 42.207329}}, {"id": 6358555, "name": "Almanza", "state": "", "country": "ES", "coord": {"lon": -5.01386, "lat": 42.677261}}, {"id": 6358557, "name": "Ard\u00f3n", "state": "", "country": "ES", "coord": {"lon": -5.59182, "lat": 42.426682}}, {"id": 6358558, "name": "Arganza", "state": "", "country": "ES", "coord": {"lon": -6.68363, "lat": 42.643669}}, {"id": 6358559, "name": "Astorga", "state": "", "country": "ES", "coord": {"lon": -6.09461, "lat": 42.45927}}, {"id": 6358560, "name": "Balboa", "state": "", "country": "ES", "coord": {"lon": -6.93559, "lat": 42.72382}}, {"id": 6358561, "name": "Ba\u00f1eza, La", "state": "", "country": "ES", "coord": {"lon": -5.90267, "lat": 42.295341}}, {"id": 6358562, "name": "Barjas", "state": "", "country": "ES", "coord": {"lon": -6.97493, "lat": 42.611801}}, {"id": 6358563, "name": "Barrios de Luna, Los", "state": "", "country": "ES", "coord": {"lon": -5.86164, "lat": 42.846809}}, {"id": 6358564, "name": "Bembibre", "state": "", "country": "ES", "coord": {"lon": -6.43707, "lat": 42.641579}}, {"id": 6358565, "name": "Benavides", "state": "", "country": "ES", "coord": {"lon": -5.93395, "lat": 42.536228}}, {"id": 6358566, "name": "Benuza", "state": "", "country": "ES", "coord": {"lon": -6.66956, "lat": 42.381889}}, {"id": 6358567, "name": "Bercianos del P\u00e1ramo", "state": "", "country": "ES", "coord": {"lon": -5.69026, "lat": 42.35603}}, {"id": 6358568, "name": "Bercianos del Real Camino", "state": "", "country": "ES", "coord": {"lon": -5.15214, "lat": 42.399212}}, {"id": 6358569, "name": "Berlanga del Bierzo", "state": "", "country": "ES", "coord": {"lon": -6.58131, "lat": 42.746632}}, {"id": 6358570, "name": "Boca de Hu\u00e9rgano", "state": "", "country": "ES", "coord": {"lon": -4.8947, "lat": 42.979191}}, {"id": 6358571, "name": "Bo\u00f1ar", "state": "", "country": "ES", "coord": {"lon": -5.28092, "lat": 42.90168}}, {"id": 6358572, "name": "Borrenes", "state": "", "country": "ES", "coord": {"lon": -6.73118, "lat": 42.483711}}, {"id": 6358573, "name": "Brazuelo", "state": "", "country": "ES", "coord": {"lon": -6.18931, "lat": 42.503311}}, {"id": 6358575, "name": "Bur\u00f3n", "state": "", "country": "ES", "coord": {"lon": -5.04985, "lat": 43.06786}}, {"id": 6358576, "name": "Bustillo del P\u00e1ramo", "state": "", "country": "ES", "coord": {"lon": -5.80995, "lat": 42.436489}}, {"id": 6358578, "name": "Cabreros del R\u00edo", "state": "", "country": "ES", "coord": {"lon": -5.52213, "lat": 42.406342}}, {"id": 6358579, "name": "Cabrillanes", "state": "", "country": "ES", "coord": {"lon": -6.16076, "lat": 42.97105}}, {"id": 6358580, "name": "Cacabelos", "state": "", "country": "ES", "coord": {"lon": -6.73835, "lat": 42.627251}}, {"id": 6358581, "name": "Calzada del Coto", "state": "", "country": "ES", "coord": {"lon": -5.07488, "lat": 42.38015}}, {"id": 6358582, "name": "Campazas", "state": "", "country": "ES", "coord": {"lon": -5.49302, "lat": 42.148861}}, {"id": 6358583, "name": "Campo de Villavidel", "state": "", "country": "ES", "coord": {"lon": -5.5208, "lat": 42.436321}}, {"id": 6358584, "name": "Camponaraya", "state": "", "country": "ES", "coord": {"lon": -6.67866, "lat": 42.581299}}, {"id": 6358585, "name": "Cand\u00edn", "state": "", "country": "ES", "coord": {"lon": -6.74631, "lat": 42.836349}}, {"id": 6358586, "name": "C\u00e1rmenes", "state": "", "country": "ES", "coord": {"lon": -5.56222, "lat": 42.978149}}, {"id": 6358587, "name": "Carracedelo", "state": "", "country": "ES", "coord": {"lon": -6.7309, "lat": 42.557079}}, {"id": 6358588, "name": "Carrizo", "state": "", "country": "ES", "coord": {"lon": -5.85169, "lat": 42.593399}}, {"id": 6358589, "name": "Carrocera", "state": "", "country": "ES", "coord": {"lon": -5.75812, "lat": 42.807892}}, {"id": 6358590, "name": "Carucedo", "state": "", "country": "ES", "coord": {"lon": -6.79336, "lat": 42.482712}}, {"id": 6358591, "name": "Castilfal\u00e9", "state": "", "country": "ES", "coord": {"lon": -5.41383, "lat": 42.20295}}, {"id": 6358592, "name": "Castrillo de Cabrera", "state": "", "country": "ES", "coord": {"lon": -6.54744, "lat": 42.33728}}, {"id": 6358593, "name": "Castrillo de la Valduerna", "state": "", "country": "ES", "coord": {"lon": -6.14898, "lat": 42.33007}}, {"id": 6358594, "name": "Castrocalb\u00f3n", "state": "", "country": "ES", "coord": {"lon": -5.99552, "lat": 42.208839}}, {"id": 6358595, "name": "Castrocontrigo", "state": "", "country": "ES", "coord": {"lon": -6.18339, "lat": 42.207581}}, {"id": 6358596, "name": "Castropodame", "state": "", "country": "ES", "coord": {"lon": -6.43513, "lat": 42.574188}}, {"id": 6358598, "name": "Cebanico", "state": "", "country": "ES", "coord": {"lon": -5.04731, "lat": 42.728371}}, {"id": 6358599, "name": "Cebrones del R\u00edo", "state": "", "country": "ES", "coord": {"lon": -5.84618, "lat": 42.261539}}, {"id": 6358600, "name": "Cimanes de la Vega", "state": "", "country": "ES", "coord": {"lon": -5.60804, "lat": 42.104691}}, {"id": 6358601, "name": "Cimanes del Tejar", "state": "", "country": "ES", "coord": {"lon": -5.78861, "lat": 42.601669}}, {"id": 6358602, "name": "Cistierna", "state": "", "country": "ES", "coord": {"lon": -5.11194, "lat": 42.80798}}, {"id": 6358603, "name": "Congosto", "state": "", "country": "ES", "coord": {"lon": -6.51489, "lat": 42.611328}}, {"id": 6358604, "name": "Corbillos de los Oteros", "state": "", "country": "ES", "coord": {"lon": -5.46428, "lat": 42.419441}}, {"id": 6358605, "name": "Corull\u00f3n", "state": "", "country": "ES", "coord": {"lon": -6.83158, "lat": 42.56369}}, {"id": 6358606, "name": "Cr\u00e9menes", "state": "", "country": "ES", "coord": {"lon": -5.12372, "lat": 42.929642}}, {"id": 6358607, "name": "Cuadros", "state": "", "country": "ES", "coord": {"lon": -5.65328, "lat": 42.717369}}, {"id": 6358608, "name": "Cubillas de los Oteros", "state": "", "country": "ES", "coord": {"lon": -5.50763, "lat": 42.380611}}, {"id": 6358609, "name": "Cubillas de Rueda", "state": "", "country": "ES", "coord": {"lon": -5.15518, "lat": 42.655979}}, {"id": 6358610, "name": "Cubillos del Sil", "state": "", "country": "ES", "coord": {"lon": -6.56155, "lat": 42.642601}}, {"id": 6358611, "name": "Chozas de Abajo", "state": "", "country": "ES", "coord": {"lon": -5.64836, "lat": 42.48568}}, {"id": 6358612, "name": "Destriana", "state": "", "country": "ES", "coord": {"lon": -6.09684, "lat": 42.32148}}, {"id": 6358613, "name": "Encinedo", "state": "", "country": "ES", "coord": {"lon": -6.62024, "lat": 42.2729}}, {"id": 6358614, "name": "Ercina, La", "state": "", "country": "ES", "coord": {"lon": -5.22964, "lat": 42.792301}}, {"id": 6358615, "name": "Escobar de Campos", "state": "", "country": "ES", "coord": {"lon": -4.95916, "lat": 42.322632}}, {"id": 6358616, "name": "Fabero", "state": "", "country": "ES", "coord": {"lon": -6.61823, "lat": 42.773788}}, {"id": 6358617, "name": "Folgoso de la Ribera", "state": "", "country": "ES", "coord": {"lon": -6.33734, "lat": 42.65976}}, {"id": 6358618, "name": "Fresno de la Vega", "state": "", "country": "ES", "coord": {"lon": -5.53377, "lat": 42.344978}}, {"id": 6358619, "name": "Fuentes de Carbajal", "state": "", "country": "ES", "coord": {"lon": -5.4545, "lat": 42.181808}}, {"id": 6358620, "name": "Garrafe de Tor\u00edo", "state": "", "country": "ES", "coord": {"lon": -5.51292, "lat": 42.737148}}, {"id": 6358621, "name": "Gordaliza del Pino", "state": "", "country": "ES", "coord": {"lon": -5.13854, "lat": 42.332321}}, {"id": 6358622, "name": "Gordoncillo", "state": "", "country": "ES", "coord": {"lon": -5.40354, "lat": 42.133091}}, {"id": 6358623, "name": "Gradefes", "state": "", "country": "ES", "coord": {"lon": -5.28208, "lat": 42.653709}}, {"id": 6358624, "name": "Grajal de Campos", "state": "", "country": "ES", "coord": {"lon": -5.01695, "lat": 42.319241}}, {"id": 6358625, "name": "Gusendos de los Oteros", "state": "", "country": "ES", "coord": {"lon": -5.42166, "lat": 42.380589}}, {"id": 6358626, "name": "Hospital de \u00d3rbigo", "state": "", "country": "ES", "coord": {"lon": -5.88099, "lat": 42.465092}}, {"id": 6358627, "name": "Ig\u00fce\u00f1a", "state": "", "country": "ES", "coord": {"lon": -6.26501, "lat": 42.737209}}, {"id": 6358628, "name": "Izagre", "state": "", "country": "ES", "coord": {"lon": -5.28542, "lat": 42.238392}}, {"id": 6358629, "name": "Joarilla de las Matas", "state": "", "country": "ES", "coord": {"lon": -5.19254, "lat": 42.29472}}, {"id": 6358630, "name": "Laguna Dalga", "state": "", "country": "ES", "coord": {"lon": -5.75411, "lat": 42.319199}}, {"id": 6358631, "name": "Laguna de Negrillos", "state": "", "country": "ES", "coord": {"lon": -5.64855, "lat": 42.219929}}, {"id": 6358633, "name": "Luyego", "state": "", "country": "ES", "coord": {"lon": -6.23714, "lat": 42.347691}}, {"id": 6358634, "name": "Llamas de la Ribera", "state": "", "country": "ES", "coord": {"lon": -5.88214, "lat": 42.63805}}, {"id": 6358635, "name": "Magaz de Cepeda", "state": "", "country": "ES", "coord": {"lon": -6.10614, "lat": 42.56284}}, {"id": 6358636, "name": "Mansilla de las Mulas", "state": "", "country": "ES", "coord": {"lon": -5.38405, "lat": 42.4995}}, {"id": 6358637, "name": "Mansilla Mayor", "state": "", "country": "ES", "coord": {"lon": -5.44426, "lat": 42.512199}}, {"id": 6358638, "name": "Mara\u00f1a", "state": "", "country": "ES", "coord": {"lon": -5.18774, "lat": 43.058788}}, {"id": 6358639, "name": "Matade\u00f3n de los Oteros", "state": "", "country": "ES", "coord": {"lon": -5.37565, "lat": 42.338718}}, {"id": 6358640, "name": "Matallana de Tor\u00edo", "state": "", "country": "ES", "coord": {"lon": -5.51101, "lat": 42.850979}}, {"id": 6358642, "name": "Molinaseca", "state": "", "country": "ES", "coord": {"lon": -6.47302, "lat": 42.543072}}, {"id": 6358643, "name": "Murias de Paredes", "state": "", "country": "ES", "coord": {"lon": -6.18768, "lat": 42.842381}}, {"id": 6358645, "name": "Oencia", "state": "", "country": "ES", "coord": {"lon": -6.99321, "lat": 42.54705}}, {"id": 6358646, "name": "Oma\u00f1as, Las", "state": "", "country": "ES", "coord": {"lon": -5.85387, "lat": 42.684898}}, {"id": 6358647, "name": "Onzonilla", "state": "", "country": "ES", "coord": {"lon": -5.58775, "lat": 42.515049}}, {"id": 6358648, "name": "Oseja de Sajambre", "state": "", "country": "ES", "coord": {"lon": -5.05181, "lat": 43.134491}}, {"id": 6358649, "name": "Pajares de los Oteros", "state": "", "country": "ES", "coord": {"lon": -5.46034, "lat": 42.348652}}, {"id": 6358650, "name": "Palacios de la Valduerna", "state": "", "country": "ES", "coord": {"lon": -5.94776, "lat": 42.31707}}, {"id": 6358651, "name": "Palacios del Sil", "state": "", "country": "ES", "coord": {"lon": -6.40381, "lat": 42.867409}}, {"id": 6358652, "name": "P\u00e1ramo del Sil", "state": "", "country": "ES", "coord": {"lon": -6.47598, "lat": 42.828789}}, {"id": 6358653, "name": "Peranzanes", "state": "", "country": "ES", "coord": {"lon": -6.66234, "lat": 42.883179}}, {"id": 6358654, "name": "Pobladura de Pelayo Garc\u00eda", "state": "", "country": "ES", "coord": {"lon": -5.66012, "lat": 42.30817}}, {"id": 6358655, "name": "Pola de Gord\u00f3n, La", "state": "", "country": "ES", "coord": {"lon": -5.68185, "lat": 42.87553}}, {"id": 6358656, "name": "Ponferrada", "state": "", "country": "ES", "coord": {"lon": -6.57195, "lat": 42.502529}}, {"id": 6358657, "name": "Posada de Valde\u00f3n", "state": "", "country": "ES", "coord": {"lon": -4.9136, "lat": 43.165321}}, {"id": 6358658, "name": "Pozuelo del P\u00e1ramo", "state": "", "country": "ES", "coord": {"lon": -5.78143, "lat": 42.16687}}, {"id": 6358659, "name": "Prado de la Guzpe\u00f1a", "state": "", "country": "ES", "coord": {"lon": -5.03371, "lat": 42.79023}}, {"id": 6358660, "name": "Priaranza del Bierzo", "state": "", "country": "ES", "coord": {"lon": -6.6725, "lat": 42.484219}}, {"id": 6358661, "name": "Prioro", "state": "", "country": "ES", "coord": {"lon": -4.97491, "lat": 42.899479}}, {"id": 6358662, "name": "Puebla de Lillo", "state": "", "country": "ES", "coord": {"lon": -5.28063, "lat": 43.033272}}, {"id": 6358663, "name": "Puente de Domingo Fl\u00f3rez", "state": "", "country": "ES", "coord": {"lon": -6.78791, "lat": 42.42696}}, {"id": 6358664, "name": "Quintana del Castillo", "state": "", "country": "ES", "coord": {"lon": -5.99183, "lat": 42.65292}}, {"id": 6358665, "name": "Quintana del Marco", "state": "", "country": "ES", "coord": {"lon": -5.84699, "lat": 42.199162}}, {"id": 6358666, "name": "Quintana y Congosto", "state": "", "country": "ES", "coord": {"lon": -6.06096, "lat": 42.26543}}, {"id": 6358667, "name": "Regueras de Arriba", "state": "", "country": "ES", "coord": {"lon": -5.85461, "lat": 42.295029}}, {"id": 6358668, "name": "Reyero", "state": "", "country": "ES", "coord": {"lon": -5.19662, "lat": 42.951561}}, {"id": 6358669, "name": "Ria\u00f1o", "state": "", "country": "ES", "coord": {"lon": -5.0097, "lat": 42.971031}}, {"id": 6358670, "name": "Riego de la Vega", "state": "", "country": "ES", "coord": {"lon": -5.97783, "lat": 42.35265}}, {"id": 6358671, "name": "Riello", "state": "", "country": "ES", "coord": {"lon": -6.02333, "lat": 42.822979}}, {"id": 6358673, "name": "Robla, La", "state": "", "country": "ES", "coord": {"lon": -5.6136, "lat": 42.80724}}, {"id": 6358674, "name": "Roperuelos del P\u00e1ramo", "state": "", "country": "ES", "coord": {"lon": -5.78881, "lat": 42.223}}, {"id": 6358675, "name": "Sabero", "state": "", "country": "ES", "coord": {"lon": -5.1622, "lat": 42.839989}}, {"id": 6358676, "name": "Sahag\u00fan", "state": "", "country": "ES", "coord": {"lon": -5.01898, "lat": 42.36483}}, {"id": 6358677, "name": "San Adri\u00e1n del Valle", "state": "", "country": "ES", "coord": {"lon": -5.71274, "lat": 42.12553}}, {"id": 6358678, "name": "San Andr\u00e9s del Rabanedo", "state": "", "country": "ES", "coord": {"lon": -5.67547, "lat": 42.62471}}, {"id": 6358679, "name": "Sancedo", "state": "", "country": "ES", "coord": {"lon": -6.63588, "lat": 42.670399}}, {"id": 6358680, "name": "San Crist\u00f3bal de la Polantera", "state": "", "country": "ES", "coord": {"lon": -5.90336, "lat": 42.390961}}, {"id": 6358681, "name": "San Emiliano", "state": "", "country": "ES", "coord": {"lon": -6.02645, "lat": 42.977779}}, {"id": 6358682, "name": "San Esteban de Nogales", "state": "", "country": "ES", "coord": {"lon": -5.94197, "lat": 42.155819}}, {"id": 6358683, "name": "San Justo de la Vega", "state": "", "country": "ES", "coord": {"lon": -6.01054, "lat": 42.457119}}, {"id": 6358684, "name": "San Mill\u00e1n de los Caballeros", "state": "", "country": "ES", "coord": {"lon": -5.58477, "lat": 42.294891}}, {"id": 6358685, "name": "San Pedro Bercianos", "state": "", "country": "ES", "coord": {"lon": -5.7195, "lat": 42.412979}}, {"id": 6358686, "name": "Santa Colomba de Curue\u00f1o", "state": "", "country": "ES", "coord": {"lon": -5.40905, "lat": 42.758209}}, {"id": 6358687, "name": "Santa Colomba de Somoza", "state": "", "country": "ES", "coord": {"lon": -6.27606, "lat": 42.47971}}, {"id": 6358688, "name": "Santa Cristina de Valmadrigal", "state": "", "country": "ES", "coord": {"lon": -5.31105, "lat": 42.369598}}, {"id": 6358689, "name": "Santa Elena de Jamuz", "state": "", "country": "ES", "coord": {"lon": -5.91393, "lat": 42.254501}}, {"id": 6358690, "name": "Santa Mar\u00eda de la Isla", "state": "", "country": "ES", "coord": {"lon": -5.93333, "lat": 42.35947}}, {"id": 6358691, "name": "Santa Mar\u00eda del Monte de Cea", "state": "", "country": "ES", "coord": {"lon": -5.11403, "lat": 42.496498}}, {"id": 6358692, "name": "Santa Mar\u00eda del P\u00e1ramo", "state": "", "country": "ES", "coord": {"lon": -5.7545, "lat": 42.355782}}, {"id": 6358693, "name": "Santa Mar\u00eda de Ord\u00e1s", "state": "", "country": "ES", "coord": {"lon": -5.82686, "lat": 42.749512}}, {"id": 6358694, "name": "Santa Marina del Rey", "state": "", "country": "ES", "coord": {"lon": -5.83967, "lat": 42.493149}}, {"id": 6358695, "name": "Santas Martas", "state": "", "country": "ES", "coord": {"lon": -5.35754, "lat": 42.445438}}, {"id": 6358696, "name": "Santiago Millas", "state": "", "country": "ES", "coord": {"lon": -6.11542, "lat": 42.403179}}, {"id": 6358697, "name": "Santovenia de la Valdoncina", "state": "", "country": "ES", "coord": {"lon": -5.61784, "lat": 42.543449}}, {"id": 6358698, "name": "Sariegos", "state": "", "country": "ES", "coord": {"lon": -5.62702, "lat": 42.661819}}, {"id": 6358699, "name": "Sena de Luna", "state": "", "country": "ES", "coord": {"lon": -5.93488, "lat": 42.917938}}, {"id": 6358700, "name": "Sobrado", "state": "", "country": "ES", "coord": {"lon": -6.867, "lat": 42.514801}}, {"id": 6358701, "name": "Soto de la Vega", "state": "", "country": "ES", "coord": {"lon": -5.89149, "lat": 42.334099}}, {"id": 6358702, "name": "Soto y Am\u00edo", "state": "", "country": "ES", "coord": {"lon": -5.86483, "lat": 42.790199}}, {"id": 6358703, "name": "Toral de los Guzmanes", "state": "", "country": "ES", "coord": {"lon": -5.56533, "lat": 42.246231}}, {"id": 6358704, "name": "Toreno", "state": "", "country": "ES", "coord": {"lon": -6.49501, "lat": 42.716801}}, {"id": 6358705, "name": "Torre del Bierzo", "state": "", "country": "ES", "coord": {"lon": -6.31174, "lat": 42.572552}}, {"id": 6358706, "name": "Trabadelo", "state": "", "country": "ES", "coord": {"lon": -6.87097, "lat": 42.641171}}, {"id": 6358707, "name": "Truchas", "state": "", "country": "ES", "coord": {"lon": -6.44241, "lat": 42.262489}}, {"id": 6358708, "name": "Turcia", "state": "", "country": "ES", "coord": {"lon": -5.88833, "lat": 42.560051}}, {"id": 6358709, "name": "Urdiales del P\u00e1ramo", "state": "", "country": "ES", "coord": {"lon": -5.78226, "lat": 42.37801}}, {"id": 6358710, "name": "Valdefresno", "state": "", "country": "ES", "coord": {"lon": -5.47376, "lat": 42.61726}}, {"id": 6358711, "name": "Valdefuentes del P\u00e1ramo", "state": "", "country": "ES", "coord": {"lon": -5.82216, "lat": 42.316872}}, {"id": 6358713, "name": "Valdemora", "state": "", "country": "ES", "coord": {"lon": -5.42131, "lat": 42.187469}}, {"id": 6358714, "name": "Valdepi\u00e9lago", "state": "", "country": "ES", "coord": {"lon": -5.41785, "lat": 42.874229}}, {"id": 6358715, "name": "Valdepolo", "state": "", "country": "ES", "coord": {"lon": -5.21108, "lat": 42.56424}}, {"id": 6358716, "name": "Valderas", "state": "", "country": "ES", "coord": {"lon": -5.44632, "lat": 42.09264}}, {"id": 6358717, "name": "Valderrey", "state": "", "country": "ES", "coord": {"lon": -6.02064, "lat": 42.398651}}, {"id": 6358718, "name": "Valderrueda", "state": "", "country": "ES", "coord": {"lon": -4.98181, "lat": 42.83963}}, {"id": 6358719, "name": "Valdesamario", "state": "", "country": "ES", "coord": {"lon": -6.03114, "lat": 42.727951}}, {"id": 6358720, "name": "Val de San Lorenzo", "state": "", "country": "ES", "coord": {"lon": -6.15183, "lat": 42.402882}}, {"id": 6358721, "name": "Valdevimbre", "state": "", "country": "ES", "coord": {"lon": -5.64121, "lat": 42.413471}}, {"id": 6358722, "name": "Valencia de Don Juan", "state": "", "country": "ES", "coord": {"lon": -5.50554, "lat": 42.283909}}, {"id": 6358723, "name": "Valverde de la Virgen", "state": "", "country": "ES", "coord": {"lon": -5.68255, "lat": 42.564072}}, {"id": 6358724, "name": "Valverde-Enrique", "state": "", "country": "ES", "coord": {"lon": -5.28067, "lat": 42.305721}}, {"id": 6358725, "name": "Vallecillo", "state": "", "country": "ES", "coord": {"lon": -5.21421, "lat": 42.353401}}, {"id": 6358726, "name": "Vecilla, La", "state": "", "country": "ES", "coord": {"lon": -5.40771, "lat": 42.82478}}, {"id": 6358727, "name": "Vegacervera", "state": "", "country": "ES", "coord": {"lon": -5.57494, "lat": 42.898781}}, {"id": 6358728, "name": "Vega de Espinareda", "state": "", "country": "ES", "coord": {"lon": -6.73593, "lat": 42.771561}}, {"id": 6358729, "name": "Vega de Infanzones", "state": "", "country": "ES", "coord": {"lon": -5.54297, "lat": 42.487209}}, {"id": 6358730, "name": "Vega de Valcarce", "state": "", "country": "ES", "coord": {"lon": -6.97089, "lat": 42.669479}}, {"id": 6358731, "name": "Vegaquemada", "state": "", "country": "ES", "coord": {"lon": -5.32837, "lat": 42.805069}}, {"id": 6358732, "name": "Vegas del Condado", "state": "", "country": "ES", "coord": {"lon": -5.38523, "lat": 42.684669}}, {"id": 6358733, "name": "Villablino", "state": "", "country": "ES", "coord": {"lon": -6.34327, "lat": 42.977921}}, {"id": 6358734, "name": "Villabraz", "state": "", "country": "ES", "coord": {"lon": -5.442, "lat": 42.255951}}, {"id": 6358735, "name": "Villadangos del P\u00e1ramo", "state": "", "country": "ES", "coord": {"lon": -5.77041, "lat": 42.522709}}, {"id": 6358736, "name": "Toral de los Vados", "state": "", "country": "ES", "coord": {"lon": -6.78703, "lat": 42.548809}}, {"id": 6358737, "name": "Villademor de la Vega", "state": "", "country": "ES", "coord": {"lon": -5.58304, "lat": 42.268639}}, {"id": 6358738, "name": "Villafranca del Bierzo", "state": "", "country": "ES", "coord": {"lon": -6.80945, "lat": 42.685452}}, {"id": 6358739, "name": "Villagat\u00f3n", "state": "", "country": "ES", "coord": {"lon": -6.18864, "lat": 42.64642}}, {"id": 6358740, "name": "Villamandos", "state": "", "country": "ES", "coord": {"lon": -5.59136, "lat": 42.181919}}, {"id": 6358741, "name": "Villama\u00f1\u00e1n", "state": "", "country": "ES", "coord": {"lon": -5.60159, "lat": 42.339649}}, {"id": 6358742, "name": "Villamart\u00edn de Don Sancho", "state": "", "country": "ES", "coord": {"lon": -5.08912, "lat": 42.58345}}, {"id": 6358743, "name": "Villamejil", "state": "", "country": "ES", "coord": {"lon": -6.01456, "lat": 42.567692}}, {"id": 6358744, "name": "Villamol", "state": "", "country": "ES", "coord": {"lon": -5.04995, "lat": 42.450809}}, {"id": 6358745, "name": "Villamont\u00e1n de la Valduerna", "state": "", "country": "ES", "coord": {"lon": -6.00804, "lat": 42.3041}}, {"id": 6358746, "name": "Villamoratiel de las Matas", "state": "", "country": "ES", "coord": {"lon": -5.31187, "lat": 42.400051}}, {"id": 6358747, "name": "Villanueva de las Manzanas", "state": "", "country": "ES", "coord": {"lon": -5.46805, "lat": 42.463001}}, {"id": 6358748, "name": "Villaobispo de Otero", "state": "", "country": "ES", "coord": {"lon": -6.05161, "lat": 42.5028}}, {"id": 6358749, "name": "Villaquejida", "state": "", "country": "ES", "coord": {"lon": -5.58496, "lat": 42.115528}}, {"id": 6358750, "name": "Villaquilambre", "state": "", "country": "ES", "coord": {"lon": -5.52674, "lat": 42.658619}}, {"id": 6358751, "name": "Villarejo de \u00d3rbigo", "state": "", "country": "ES", "coord": {"lon": -5.9126, "lat": 42.43285}}, {"id": 6358752, "name": "Villares de \u00d3rbigo", "state": "", "country": "ES", "coord": {"lon": -5.91635, "lat": 42.4781}}, {"id": 6358753, "name": "Villasabariego", "state": "", "country": "ES", "coord": {"lon": -5.38733, "lat": 42.546051}}, {"id": 6358754, "name": "Villasel\u00e1n", "state": "", "country": "ES", "coord": {"lon": -5.03049, "lat": 42.572559}}, {"id": 6358755, "name": "Villaturiel", "state": "", "country": "ES", "coord": {"lon": -5.52526, "lat": 42.534618}}, {"id": 6358756, "name": "Villazala", "state": "", "country": "ES", "coord": {"lon": -5.84629, "lat": 42.377411}}, {"id": 6358757, "name": "Villazanzo de Valderaduey", "state": "", "country": "ES", "coord": {"lon": -4.95016, "lat": 42.56881}}, {"id": 6358758, "name": "Zotes del P\u00e1ramo", "state": "", "country": "ES", "coord": {"lon": -5.74401, "lat": 42.269421}}, {"id": 6358759, "name": "Villaman\u00edn", "state": "", "country": "ES", "coord": {"lon": -5.70508, "lat": 42.973122}}, {"id": 6358760, "name": "Villaornate y Castro", "state": "", "country": "ES", "coord": {"lon": -5.52289, "lat": 42.198521}}, {"id": 6358762, "name": "\u00c0ger", "state": "", "country": "ES", "coord": {"lon": 0.76296, "lat": 42.011688}}, {"id": 6358763, "name": "Agramunt", "state": "", "country": "ES", "coord": {"lon": 1.07083, "lat": 41.803322}}, {"id": 6358765, "name": "Al\u00e0s i Cerc", "state": "", "country": "ES", "coord": {"lon": 1.52186, "lat": 42.336609}}, {"id": 6358768, "name": "Albesa", "state": "", "country": "ES", "coord": {"lon": 0.66986, "lat": 41.761902}}, {"id": 6358770, "name": "Alcan\u00f3", "state": "", "country": "ES", "coord": {"lon": 0.62721, "lat": 41.4753}}, {"id": 6358771, "name": "Alcarr\u00e0s", "state": "", "country": "ES", "coord": {"lon": 0.46822, "lat": 41.60067}}, {"id": 6358774, "name": "Alf\u00e9s", "state": "", "country": "ES", "coord": {"lon": 0.634, "lat": 41.506512}}, {"id": 6358775, "name": "Algerri", "state": "", "country": "ES", "coord": {"lon": 0.62911, "lat": 41.830959}}, {"id": 6358780, "name": "Almenar", "state": "", "country": "ES", "coord": {"lon": 0.54525, "lat": 41.783649}}, {"id": 6358784, "name": "Naut Aran", "state": "", "country": "ES", "coord": {"lon": 0.90603, "lat": 42.686169}}, {"id": 6358785, "name": "Anglesola", "state": "", "country": "ES", "coord": {"lon": 1.05905, "lat": 41.669151}}, {"id": 6358786, "name": "Arbeca", "state": "", "country": "ES", "coord": {"lon": 0.94218, "lat": 41.54335}}, {"id": 6358787, "name": "el Pont de Bar", "state": "", "country": "ES", "coord": {"lon": 1.62172, "lat": 42.373539}}, {"id": 6358791, "name": "Artesa de Segre", "state": "", "country": "ES", "coord": {"lon": 1.04782, "lat": 41.897041}}, {"id": 6358793, "name": "Aspa", "state": "", "country": "ES", "coord": {"lon": 0.67617, "lat": 41.494141}}, {"id": 6358796, "name": "Baix Pallars", "state": "", "country": "ES", "coord": {"lon": 1.07052, "lat": 42.330799}}, {"id": 6358797, "name": "Balaguer", "state": "", "country": "ES", "coord": {"lon": 0.81691, "lat": 41.78809}}, {"id": 6358799, "name": "la Baronia de Rialb", "state": "", "country": "ES", "coord": {"lon": 1.18712, "lat": 41.934399}}, {"id": 6358800, "name": "la Vall de Bo\u00ed", "state": "", "country": "ES", "coord": {"lon": 0.80415, "lat": 42.503681}}, {"id": 6358801, "name": "Bassella", "state": "", "country": "ES", "coord": {"lon": 1.30797, "lat": 42.00853}}, {"id": 6358807, "name": "Bellpuig", "state": "", "country": "ES", "coord": {"lon": 1.00729, "lat": 41.628731}}, {"id": 6358808, "name": "Bellver de Cerdanya", "state": "", "country": "ES", "coord": {"lon": 1.75848, "lat": 42.377071}}, {"id": 6358809, "name": "Bellv\u00eds", "state": "", "country": "ES", "coord": {"lon": 0.82769, "lat": 41.691002}}, {"id": 6358812, "name": "Bovera", "state": "", "country": "ES", "coord": {"lon": 0.64359, "lat": 41.316391}}, {"id": 6358818, "name": "Camarasa", "state": "", "country": "ES", "coord": {"lon": 0.86379, "lat": 41.947361}}, {"id": 6358822, "name": "Castellnou de Seana", "state": "", "country": "ES", "coord": {"lon": 0.97594, "lat": 41.650982}}, {"id": 6358823, "name": "Castell\u00f3 de Farfanya", "state": "", "country": "ES", "coord": {"lon": 0.72437, "lat": 41.813202}}, {"id": 6358824, "name": "Castellser\u00e0", "state": "", "country": "ES", "coord": {"lon": 0.98425, "lat": 41.75692}}, {"id": 6358828, "name": "Ciutadilla", "state": "", "country": "ES", "coord": {"lon": 1.15462, "lat": 41.537849}}, {"id": 6358830, "name": "el Cogul", "state": "", "country": "ES", "coord": {"lon": 0.69778, "lat": 41.452419}}, {"id": 6358831, "name": "Abella de la Conca", "state": "", "country": "ES", "coord": {"lon": 1.31544, "lat": 42.172691}}, {"id": 6358833, "name": "Cubells", "state": "", "country": "ES", "coord": {"lon": 0.95383, "lat": 41.826981}}, {"id": 6358835, "name": "Espot", "state": "", "country": "ES", "coord": {"lon": 1.04098, "lat": 42.57243}}, {"id": 6358840, "name": "Farrera", "state": "", "country": "ES", "coord": {"lon": 1.30566, "lat": 42.480499}}, {"id": 6358844, "name": "la Fuliola", "state": "", "country": "ES", "coord": {"lon": 0.99821, "lat": 41.720451}}, {"id": 6358845, "name": "Fulleda", "state": "", "country": "ES", "coord": {"lon": 1.03804, "lat": 41.457748}}, {"id": 6358846, "name": "Gavet de la Conca", "state": "", "country": "ES", "coord": {"lon": 0.97131, "lat": 42.078739}}, {"id": 6358847, "name": "Golm\u00e9s", "state": "", "country": "ES", "coord": {"lon": 0.924, "lat": 41.62458}}, {"id": 6358848, "name": "G\u00f3sol", "state": "", "country": "ES", "coord": {"lon": 1.68054, "lat": 42.203739}}, {"id": 6358849, "name": "la Granadella", "state": "", "country": "ES", "coord": {"lon": 0.66146, "lat": 41.349289}}, {"id": 6358850, "name": "la Granja d'Escarp", "state": "", "country": "ES", "coord": {"lon": 0.38404, "lat": 41.40934}}, {"id": 6358854, "name": "Guimer\u00e0", "state": "", "country": "ES", "coord": {"lon": 1.18275, "lat": 41.564091}}, {"id": 6358858, "name": "Ivars d'Urgell", "state": "", "country": "ES", "coord": {"lon": 0.96139, "lat": 41.694069}}, {"id": 6358859, "name": "Ivorra", "state": "", "country": "ES", "coord": {"lon": 1.39405, "lat": 41.77615}}, {"id": 6358860, "name": "Isona i Conca Dell\u00e0", "state": "", "country": "ES", "coord": {"lon": 1.03854, "lat": 42.126282}}, {"id": 6358861, "name": "Juncosa", "state": "", "country": "ES", "coord": {"lon": 0.79553, "lat": 41.37693}}, {"id": 6358862, "name": "Juneda", "state": "", "country": "ES", "coord": {"lon": 0.82853, "lat": 41.54002}}, {"id": 6358863, "name": "Lleida", "state": "", "country": "ES", "coord": {"lon": 0.59561, "lat": 41.630772}}, {"id": 6358864, "name": "Linyola", "state": "", "country": "ES", "coord": {"lon": 0.89025, "lat": 41.70866}}, {"id": 6358869, "name": "Lles de Cerdanya", "state": "", "country": "ES", "coord": {"lon": 1.67113, "lat": 42.43581}}, {"id": 6358870, "name": "Llimiana", "state": "", "country": "ES", "coord": {"lon": 0.94458, "lat": 42.06736}}, {"id": 6358875, "name": "Maials", "state": "", "country": "ES", "coord": {"lon": 0.49764, "lat": 41.334549}}, {"id": 6358877, "name": "Miralcamp", "state": "", "country": "ES", "coord": {"lon": 0.89474, "lat": 41.60207}}, {"id": 6358879, "name": "Mollerussa", "state": "", "country": "ES", "coord": {"lon": 0.88621, "lat": 41.622601}}, {"id": 6358882, "name": "Montferrer i Castellb\u00f2", "state": "", "country": "ES", "coord": {"lon": 1.32756, "lat": 42.39999}}, {"id": 6358886, "name": "Nalec", "state": "", "country": "ES", "coord": {"lon": 1.11569, "lat": 41.546902}}, {"id": 6358891, "name": "Olius", "state": "", "country": "ES", "coord": {"lon": 1.50853, "lat": 41.9897}}, {"id": 6358896, "name": "Os de Balaguer", "state": "", "country": "ES", "coord": {"lon": 0.70195, "lat": 41.892139}}, {"id": 6358897, "name": "Oss\u00f3 de Si\u00f3", "state": "", "country": "ES", "coord": {"lon": 1.14919, "lat": 41.753529}}, {"id": 6358899, "name": "Conca de Dalt", "state": "", "country": "ES", "coord": {"lon": 0.99973, "lat": 42.251331}}, {"id": 6358901, "name": "Penelles", "state": "", "country": "ES", "coord": {"lon": 0.95267, "lat": 41.740528}}, {"id": 6358903, "name": "Pinell de Solson\u00e8s", "state": "", "country": "ES", "coord": {"lon": 1.37391, "lat": 41.953049}}, {"id": 6358905, "name": "el Poal", "state": "", "country": "ES", "coord": {"lon": 0.87979, "lat": 41.6754}}, {"id": 6358910, "name": "el Pont de Suert", "state": "", "country": "ES", "coord": {"lon": 0.74389, "lat": 42.406601}}, {"id": 6358920, "name": "Ribera d'Urgellet", "state": "", "country": "ES", "coord": {"lon": 1.37711, "lat": 42.28133}}, {"id": 6358925, "name": "Sant Guim de Freixenet", "state": "", "country": "ES", "coord": {"lon": 1.40901, "lat": 41.662071}}, {"id": 6358931, "name": "Sarroca de Bellera", "state": "", "country": "ES", "coord": {"lon": 0.89846, "lat": 42.412102}}, {"id": 6358932, "name": "Senterada", "state": "", "country": "ES", "coord": {"lon": 0.9383, "lat": 42.324291}}, {"id": 6358934, "name": "Ser\u00f2s", "state": "", "country": "ES", "coord": {"lon": 0.4135, "lat": 41.398102}}, {"id": 6358935, "name": "Sidamon", "state": "", "country": "ES", "coord": {"lon": 0.83333, "lat": 41.62624}}, {"id": 6358939, "name": "Sort", "state": "", "country": "ES", "coord": {"lon": 1.07684, "lat": 42.45261}}, {"id": 6358942, "name": "Sunyer", "state": "", "country": "ES", "coord": {"lon": 0.59476, "lat": 41.522339}}, {"id": 6358944, "name": "Talavera", "state": "", "country": "ES", "coord": {"lon": 1.35438, "lat": 41.593079}}, {"id": 6358945, "name": "T\u00e0rrega", "state": "", "country": "ES", "coord": {"lon": 1.13588, "lat": 41.646111}}, {"id": 6358948, "name": "T\u00e9rmens", "state": "", "country": "ES", "coord": {"lon": 0.78379, "lat": 41.721458}}, {"id": 6358950, "name": "Tiurana", "state": "", "country": "ES", "coord": {"lon": 1.25399, "lat": 41.9771}}, {"id": 6358951, "name": "Tor\u00e0", "state": "", "country": "ES", "coord": {"lon": 1.43722, "lat": 41.833611}}, {"id": 6358953, "name": "Tornabous", "state": "", "country": "ES", "coord": {"lon": 1.05984, "lat": 41.71748}}, {"id": 6358954, "name": "Torrebesses", "state": "", "country": "ES", "coord": {"lon": 0.60356, "lat": 41.420471}}, {"id": 6358961, "name": "Tremp", "state": "", "country": "ES", "coord": {"lon": 0.89212, "lat": 42.165249}}, {"id": 6358962, "name": "Vallbona de les Monges", "state": "", "country": "ES", "coord": {"lon": 1.08627, "lat": 41.525028}}, {"id": 6358963, "name": "les Valls de Valira", "state": "", "country": "ES", "coord": {"lon": 1.46254, "lat": 42.445229}}, {"id": 6358965, "name": "Verd\u00fa", "state": "", "country": "ES", "coord": {"lon": 1.14086, "lat": 41.609539}}, {"id": 6358966, "name": "Vielha e Mijaran", "state": "", "country": "ES", "coord": {"lon": 0.77263, "lat": 42.68462}}, {"id": 6358970, "name": "Vilanova de Bellpuig", "state": "", "country": "ES", "coord": {"lon": 0.9587, "lat": 41.603481}}, {"id": 6358977, "name": "Vinaixa", "state": "", "country": "ES", "coord": {"lon": 0.98146, "lat": 41.43729}}, {"id": 6358978, "name": "Vall de Card\u00f3s", "state": "", "country": "ES", "coord": {"lon": 1.21745, "lat": 42.59409}}, {"id": 6358982, "name": "Ribera d'Ondara", "state": "", "country": "ES", "coord": {"lon": 1.32431, "lat": 41.62883}}, {"id": 6358984, "name": "Torrefeta i Florejacs", "state": "", "country": "ES", "coord": {"lon": 1.26601, "lat": 41.807571}}, {"id": 6358988, "name": "els Plans de Si\u00f3", "state": "", "country": "ES", "coord": {"lon": 1.20484, "lat": 41.730869}}, {"id": 6358990, "name": "Riu de Cerdanya", "state": "", "country": "ES", "coord": {"lon": 1.82511, "lat": 42.328152}}, {"id": 6358991, "name": "\u00c1balos", "state": "", "country": "ES", "coord": {"lon": -2.70349, "lat": 42.566349}}, {"id": 6358992, "name": "Agoncillo", "state": "", "country": "ES", "coord": {"lon": -2.27884, "lat": 42.436218}}, {"id": 6358993, "name": "Aguilar del R\u00edo Alhama", "state": "", "country": "ES", "coord": {"lon": -1.9926, "lat": 41.953678}}, {"id": 6358994, "name": "Ajamil de Cameros", "state": "", "country": "ES", "coord": {"lon": -2.43759, "lat": 42.163952}}, {"id": 6358995, "name": "Albelda de Iregua", "state": "", "country": "ES", "coord": {"lon": -2.47056, "lat": 42.365211}}, {"id": 6358996, "name": "Alberite", "state": "", "country": "ES", "coord": {"lon": -2.4096, "lat": 42.400101}}, {"id": 6358997, "name": "Alcanadre", "state": "", "country": "ES", "coord": {"lon": -2.15174, "lat": 42.404301}}, {"id": 6358998, "name": "Aldeanueva de Ebro", "state": "", "country": "ES", "coord": {"lon": -1.90955, "lat": 42.229141}}, {"id": 6358999, "name": "Alesanco", "state": "", "country": "ES", "coord": {"lon": -2.81877, "lat": 42.423931}}, {"id": 6359000, "name": "Ales\u00f3n", "state": "", "country": "ES", "coord": {"lon": -2.67069, "lat": 42.407631}}, {"id": 6359001, "name": "Alfaro", "state": "", "country": "ES", "coord": {"lon": -1.82434, "lat": 42.159618}}, {"id": 6359002, "name": "Almarza de Cameros", "state": "", "country": "ES", "coord": {"lon": -2.59055, "lat": 42.226181}}, {"id": 6359003, "name": "Anguciana", "state": "", "country": "ES", "coord": {"lon": -2.90637, "lat": 42.575409}}, {"id": 6359004, "name": "Anguiano", "state": "", "country": "ES", "coord": {"lon": -2.79837, "lat": 42.250969}}, {"id": 6359005, "name": "Arenzana de Abajo", "state": "", "country": "ES", "coord": {"lon": -2.71764, "lat": 42.38089}}, {"id": 6359006, "name": "Arenzana de Arriba", "state": "", "country": "ES", "coord": {"lon": -2.68635, "lat": 42.374241}}, {"id": 6359007, "name": "Arnedillo", "state": "", "country": "ES", "coord": {"lon": -2.23614, "lat": 42.215401}}, {"id": 6359008, "name": "Arnedo", "state": "", "country": "ES", "coord": {"lon": -2.09284, "lat": 42.22147}}, {"id": 6359009, "name": "Arr\u00fabal", "state": "", "country": "ES", "coord": {"lon": -2.25266, "lat": 42.42852}}, {"id": 6359010, "name": "Ausejo", "state": "", "country": "ES", "coord": {"lon": -2.13523, "lat": 42.35247}}, {"id": 6359011, "name": "Autol", "state": "", "country": "ES", "coord": {"lon": -1.97109, "lat": 42.208229}}, {"id": 6359012, "name": "Azofra", "state": "", "country": "ES", "coord": {"lon": -2.79787, "lat": 42.43858}}, {"id": 6359013, "name": "Badar\u00e1n", "state": "", "country": "ES", "coord": {"lon": -2.80209, "lat": 42.361889}}, {"id": 6359014, "name": "Ba\u00f1ares", "state": "", "country": "ES", "coord": {"lon": -2.88833, "lat": 42.473621}}, {"id": 6359015, "name": "Ba\u00f1os de Rioja", "state": "", "country": "ES", "coord": {"lon": -2.94916, "lat": 42.51366}}, {"id": 6359016, "name": "Ba\u00f1os de R\u00edo Tob\u00eda", "state": "", "country": "ES", "coord": {"lon": -2.75647, "lat": 42.34306}}, {"id": 6359017, "name": "Berceo", "state": "", "country": "ES", "coord": {"lon": -2.86954, "lat": 42.329151}}, {"id": 6359018, "name": "Bergasa", "state": "", "country": "ES", "coord": {"lon": -2.15306, "lat": 42.26601}}, {"id": 6359019, "name": "Bergasillas Bajera", "state": "", "country": "ES", "coord": {"lon": -2.16508, "lat": 42.250679}}, {"id": 6359020, "name": "Bezares", "state": "", "country": "ES", "coord": {"lon": -2.66928, "lat": 42.365822}}, {"id": 6359021, "name": "Bobadilla", "state": "", "country": "ES", "coord": {"lon": -2.75675, "lat": 42.318371}}, {"id": 6359022, "name": "Brieva de Cameros", "state": "", "country": "ES", "coord": {"lon": -2.79262, "lat": 42.179401}}, {"id": 6359023, "name": "Bri\u00f1as", "state": "", "country": "ES", "coord": {"lon": -2.8318, "lat": 42.603989}}, {"id": 6359024, "name": "Briones", "state": "", "country": "ES", "coord": {"lon": -2.78598, "lat": 42.524071}}, {"id": 6359025, "name": "Cabez\u00f3n de Cameros", "state": "", "country": "ES", "coord": {"lon": -2.51797, "lat": 42.186459}}, {"id": 6359026, "name": "Calahorra", "state": "", "country": "ES", "coord": {"lon": -1.95262, "lat": 42.307869}}, {"id": 6359028, "name": "Canales de la Sierra", "state": "", "country": "ES", "coord": {"lon": -3.08247, "lat": 42.18182}}, {"id": 6359029, "name": "Canillas de R\u00edo Tuerto", "state": "", "country": "ES", "coord": {"lon": -2.83191, "lat": 42.39756}}, {"id": 6359030, "name": "Ca\u00f1as", "state": "", "country": "ES", "coord": {"lon": -2.85302, "lat": 42.394909}}, {"id": 6359031, "name": "C\u00e1rdenas", "state": "", "country": "ES", "coord": {"lon": -2.76648, "lat": 42.374561}}, {"id": 6359032, "name": "Casalarreina", "state": "", "country": "ES", "coord": {"lon": -2.90537, "lat": 42.547371}}, {"id": 6359033, "name": "Casta\u00f1ares de Rioja", "state": "", "country": "ES", "coord": {"lon": -2.9215, "lat": 42.513229}}, {"id": 6359035, "name": "Cellorigo", "state": "", "country": "ES", "coord": {"lon": -3.00119, "lat": 42.62373}}, {"id": 6359036, "name": "Cenicero", "state": "", "country": "ES", "coord": {"lon": -2.64503, "lat": 42.47934}}, {"id": 6359037, "name": "Cervera del R\u00edo Alhama", "state": "", "country": "ES", "coord": {"lon": -1.96604, "lat": 42.031319}}, {"id": 6359038, "name": "Cidam\u00f3n", "state": "", "country": "ES", "coord": {"lon": -2.85583, "lat": 42.485081}}, {"id": 6359039, "name": "Cihuri", "state": "", "country": "ES", "coord": {"lon": -2.92106, "lat": 42.578751}}, {"id": 6359040, "name": "Cirue\u00f1a", "state": "", "country": "ES", "coord": {"lon": -2.87766, "lat": 42.4245}}, {"id": 6359041, "name": "Clavijo", "state": "", "country": "ES", "coord": {"lon": -2.42845, "lat": 42.350151}}, {"id": 6359042, "name": "Cordov\u00edn", "state": "", "country": "ES", "coord": {"lon": -2.80854, "lat": 42.38839}}, {"id": 6359043, "name": "Corera", "state": "", "country": "ES", "coord": {"lon": -2.21456, "lat": 42.35408}}, {"id": 6359044, "name": "Cornago", "state": "", "country": "ES", "coord": {"lon": -2.10273, "lat": 42.066441}}, {"id": 6359045, "name": "Corporales", "state": "", "country": "ES", "coord": {"lon": -3.00629, "lat": 42.4217}}, {"id": 6359048, "name": "Enciso", "state": "", "country": "ES", "coord": {"lon": -2.24938, "lat": 42.139771}}, {"id": 6359049, "name": "Entrena", "state": "", "country": "ES", "coord": {"lon": -2.51514, "lat": 42.395802}}, {"id": 6359050, "name": "Estollo", "state": "", "country": "ES", "coord": {"lon": -2.84415, "lat": 42.320721}}, {"id": 6359051, "name": "Ezcaray", "state": "", "country": "ES", "coord": {"lon": -3.02384, "lat": 42.263248}}, {"id": 6359052, "name": "Foncea", "state": "", "country": "ES", "coord": {"lon": -3.04224, "lat": 42.611969}}, {"id": 6359053, "name": "Fonzaleche", "state": "", "country": "ES", "coord": {"lon": -3.00067, "lat": 42.58971}}, {"id": 6359054, "name": "Fuenmayor", "state": "", "country": "ES", "coord": {"lon": -2.5842, "lat": 42.474831}}, {"id": 6359055, "name": "Galb\u00e1rruli", "state": "", "country": "ES", "coord": {"lon": -2.95722, "lat": 42.620899}}, {"id": 6359056, "name": "Galilea", "state": "", "country": "ES", "coord": {"lon": -2.23099, "lat": 42.363441}}, {"id": 6359057, "name": "Gallinero de Cameros", "state": "", "country": "ES", "coord": {"lon": -2.61193, "lat": 42.174789}}, {"id": 6359058, "name": "Gimileo", "state": "", "country": "ES", "coord": {"lon": -2.81833, "lat": 42.553509}}, {"id": 6359059, "name": "Gra\u00f1\u00f3n", "state": "", "country": "ES", "coord": {"lon": -3.02002, "lat": 42.43845}}, {"id": 6359060, "name": "Gr\u00e1valos", "state": "", "country": "ES", "coord": {"lon": -1.9858, "lat": 42.113892}}, {"id": 6359061, "name": "Haro", "state": "", "country": "ES", "coord": {"lon": -2.85585, "lat": 42.5877}}, {"id": 6359062, "name": "Herce", "state": "", "country": "ES", "coord": {"lon": -2.17085, "lat": 42.229698}}, {"id": 6359063, "name": "Herram\u00e9lluri", "state": "", "country": "ES", "coord": {"lon": -3.01304, "lat": 42.502941}}, {"id": 6359064, "name": "Herv\u00edas", "state": "", "country": "ES", "coord": {"lon": -2.85565, "lat": 42.450161}}, {"id": 6359065, "name": "Hormilla", "state": "", "country": "ES", "coord": {"lon": -2.77835, "lat": 42.453999}}, {"id": 6359066, "name": "Hormilleja", "state": "", "country": "ES", "coord": {"lon": -2.72942, "lat": 42.46376}}, {"id": 6359067, "name": "Hornillos de Cameros", "state": "", "country": "ES", "coord": {"lon": -2.40323, "lat": 42.212471}}, {"id": 6359068, "name": "Hornos de Moncalvillo", "state": "", "country": "ES", "coord": {"lon": -2.57891, "lat": 42.397339}}, {"id": 6359069, "name": "Hu\u00e9rcanos", "state": "", "country": "ES", "coord": {"lon": -2.66753, "lat": 42.432041}}, {"id": 6359070, "name": "Igea", "state": "", "country": "ES", "coord": {"lon": -2.02636, "lat": 42.05283}}, {"id": 6359071, "name": "Jal\u00f3n de Cameros", "state": "", "country": "ES", "coord": {"lon": -2.49268, "lat": 42.213551}}, {"id": 6359072, "name": "Laguna de Cameros", "state": "", "country": "ES", "coord": {"lon": -2.54024, "lat": 42.163971}}, {"id": 6359073, "name": "Lagunilla del Jubera", "state": "", "country": "ES", "coord": {"lon": -2.34514, "lat": 42.326881}}, {"id": 6359074, "name": "Lardero", "state": "", "country": "ES", "coord": {"lon": -2.47206, "lat": 42.414089}}, {"id": 6359075, "name": "Ledesma de la Cogolla", "state": "", "country": "ES", "coord": {"lon": -2.70427, "lat": 42.318501}}, {"id": 6359076, "name": "Leiva", "state": "", "country": "ES", "coord": {"lon": -3.04404, "lat": 42.508888}}, {"id": 6359077, "name": "Leza de R\u00edo Leza", "state": "", "country": "ES", "coord": {"lon": -2.40813, "lat": 42.336201}}, {"id": 6359078, "name": "Logro\u00f1o", "state": "", "country": "ES", "coord": {"lon": -2.44541, "lat": 42.467121}}, {"id": 6359079, "name": "Lumbreras", "state": "", "country": "ES", "coord": {"lon": -2.58602, "lat": 42.083302}}, {"id": 6359080, "name": "Manjarr\u00e9s", "state": "", "country": "ES", "coord": {"lon": -2.66187, "lat": 42.391628}}, {"id": 6359082, "name": "Manzanares de Rioja", "state": "", "country": "ES", "coord": {"lon": -2.9047, "lat": 42.381962}}, {"id": 6359083, "name": "Matute", "state": "", "country": "ES", "coord": {"lon": -2.79315, "lat": 42.292889}}, {"id": 6359084, "name": "Medrano", "state": "", "country": "ES", "coord": {"lon": -2.55818, "lat": 42.389961}}, {"id": 6359085, "name": "Munilla", "state": "", "country": "ES", "coord": {"lon": -2.32587, "lat": 42.198181}}, {"id": 6359086, "name": "Murillo de R\u00edo Leza", "state": "", "country": "ES", "coord": {"lon": -2.30838, "lat": 42.407429}}, {"id": 6359087, "name": "Muro de Aguas", "state": "", "country": "ES", "coord": {"lon": -2.12295, "lat": 42.129269}}, {"id": 6359088, "name": "Muro en Cameros", "state": "", "country": "ES", "coord": {"lon": -2.53856, "lat": 42.220871}}, {"id": 6359089, "name": "N\u00e1jera", "state": "", "country": "ES", "coord": {"lon": -2.73399, "lat": 42.4244}}, {"id": 6359090, "name": "Nalda", "state": "", "country": "ES", "coord": {"lon": -2.48804, "lat": 42.33231}}, {"id": 6359091, "name": "Navaj\u00fan", "state": "", "country": "ES", "coord": {"lon": -2.08313, "lat": 41.968391}}, {"id": 6359092, "name": "Navarrete", "state": "", "country": "ES", "coord": {"lon": -2.56381, "lat": 42.42812}}, {"id": 6359093, "name": "Nestares", "state": "", "country": "ES", "coord": {"lon": -2.60525, "lat": 42.286221}}, {"id": 6359094, "name": "Nieva de Cameros", "state": "", "country": "ES", "coord": {"lon": -2.6705, "lat": 42.2201}}, {"id": 6359095, "name": "Oc\u00f3n", "state": "", "country": "ES", "coord": {"lon": -2.19728, "lat": 42.305611}}, {"id": 6359096, "name": "Och\u00e1nduri", "state": "", "country": "ES", "coord": {"lon": -3.00094, "lat": 42.52594}}, {"id": 6359097, "name": "Ojacastro", "state": "", "country": "ES", "coord": {"lon": -2.9879, "lat": 42.348461}}, {"id": 6359098, "name": "Ollauri", "state": "", "country": "ES", "coord": {"lon": -2.82808, "lat": 42.541851}}, {"id": 6359100, "name": "Pazuengos", "state": "", "country": "ES", "coord": {"lon": -2.93046, "lat": 42.30349}}, {"id": 6359101, "name": "Pedroso", "state": "", "country": "ES", "coord": {"lon": -2.70019, "lat": 42.294861}}, {"id": 6359102, "name": "Pinillos", "state": "", "country": "ES", "coord": {"lon": -2.5971, "lat": 42.19207}}, {"id": 6359103, "name": "Pradej\u00f3n", "state": "", "country": "ES", "coord": {"lon": -2.04225, "lat": 42.326839}}, {"id": 6359104, "name": "Pradillo", "state": "", "country": "ES", "coord": {"lon": -2.64057, "lat": 42.187111}}, {"id": 6359105, "name": "Pr\u00e9jano", "state": "", "country": "ES", "coord": {"lon": -2.18379, "lat": 42.162621}}, {"id": 6359106, "name": "Quel", "state": "", "country": "ES", "coord": {"lon": -2.04448, "lat": 42.205551}}, {"id": 6359107, "name": "Rabanera", "state": "", "country": "ES", "coord": {"lon": -2.47644, "lat": 42.182949}}, {"id": 6359111, "name": "Rinc\u00f3n de Soto", "state": "", "country": "ES", "coord": {"lon": -1.8477, "lat": 42.237701}}, {"id": 6359112, "name": "Robres del Castillo", "state": "", "country": "ES", "coord": {"lon": -2.29222, "lat": 42.256771}}, {"id": 6359113, "name": "Rodezno", "state": "", "country": "ES", "coord": {"lon": -2.83032, "lat": 42.512821}}, {"id": 6359114, "name": "Sajazarra", "state": "", "country": "ES", "coord": {"lon": -2.94306, "lat": 42.595329}}, {"id": 6359115, "name": "San Asensio", "state": "", "country": "ES", "coord": {"lon": -2.74034, "lat": 42.5075}}, {"id": 6359116, "name": "San Mill\u00e1n de la Cogolla", "state": "", "country": "ES", "coord": {"lon": -2.89312, "lat": 42.305969}}, {"id": 6359117, "name": "San Mill\u00e1n de Y\u00e9cora", "state": "", "country": "ES", "coord": {"lon": -3.09931, "lat": 42.54813}}, {"id": 6359118, "name": "San Rom\u00e1n de Cameros", "state": "", "country": "ES", "coord": {"lon": -2.45687, "lat": 42.217499}}, {"id": 6359119, "name": "Santa Coloma", "state": "", "country": "ES", "coord": {"lon": -2.63682, "lat": 42.358421}}, {"id": 6359121, "name": "Santa Eulalia Bajera", "state": "", "country": "ES", "coord": {"lon": -2.19023, "lat": 42.223412}}, {"id": 6359122, "name": "Santo Domingo de la Calzada", "state": "", "country": "ES", "coord": {"lon": -2.9555, "lat": 42.428471}}, {"id": 6359123, "name": "San Torcuato", "state": "", "country": "ES", "coord": {"lon": -2.85884, "lat": 42.480499}}, {"id": 6359125, "name": "Santurdejo", "state": "", "country": "ES", "coord": {"lon": -2.94265, "lat": 42.363209}}, {"id": 6359126, "name": "San Vicente de la Sonsierra", "state": "", "country": "ES", "coord": {"lon": -2.74685, "lat": 42.561279}}, {"id": 6359127, "name": "Sojuela", "state": "", "country": "ES", "coord": {"lon": -2.55762, "lat": 42.35511}}, {"id": 6359128, "name": "Sorzano", "state": "", "country": "ES", "coord": {"lon": -2.52137, "lat": 42.34621}}, {"id": 6359130, "name": "Soto en Cameros", "state": "", "country": "ES", "coord": {"lon": -2.43121, "lat": 42.276119}}, {"id": 6359131, "name": "Terroba", "state": "", "country": "ES", "coord": {"lon": -2.43053, "lat": 42.256691}}, {"id": 6359132, "name": "Tirgo", "state": "", "country": "ES", "coord": {"lon": -2.9386, "lat": 42.54607}}, {"id": 6359133, "name": "Tob\u00eda", "state": "", "country": "ES", "coord": {"lon": -2.86086, "lat": 42.274879}}, {"id": 6359134, "name": "Tormantos", "state": "", "country": "ES", "coord": {"lon": -3.06639, "lat": 42.500721}}, {"id": 6359135, "name": "Torrecilla en Cameros", "state": "", "country": "ES", "coord": {"lon": -2.61813, "lat": 42.262291}}, {"id": 6359136, "name": "Torrecilla sobre Alesanco", "state": "", "country": "ES", "coord": {"lon": -2.84116, "lat": 42.415649}}, {"id": 6359137, "name": "Torre en Cameros", "state": "", "country": "ES", "coord": {"lon": -2.52332, "lat": 42.245022}}, {"id": 6359138, "name": "Torremontalbo", "state": "", "country": "ES", "coord": {"lon": -2.69738, "lat": 42.486839}}, {"id": 6359139, "name": "Treviana", "state": "", "country": "ES", "coord": {"lon": -3.04556, "lat": 42.558331}}, {"id": 6359140, "name": "Tricio", "state": "", "country": "ES", "coord": {"lon": -2.71, "lat": 42.399399}}, {"id": 6359141, "name": "Tudelilla", "state": "", "country": "ES", "coord": {"lon": -2.11735, "lat": 42.293491}}, {"id": 6359142, "name": "Uru\u00f1uela", "state": "", "country": "ES", "coord": {"lon": -2.69975, "lat": 42.455719}}, {"id": 6359143, "name": "Valdemadera", "state": "", "country": "ES", "coord": {"lon": -2.05915, "lat": 41.987831}}, {"id": 6359144, "name": "Valga\u00f1\u00f3n", "state": "", "country": "ES", "coord": {"lon": -3.07784, "lat": 42.325439}}, {"id": 6359145, "name": "Ventosa", "state": "", "country": "ES", "coord": {"lon": -2.62941, "lat": 42.4035}}, {"id": 6359146, "name": "Ventrosa", "state": "", "country": "ES", "coord": {"lon": -2.83796, "lat": 42.176231}}, {"id": 6359147, "name": "Viguera", "state": "", "country": "ES", "coord": {"lon": -2.53884, "lat": 42.30542}}, {"id": 6359148, "name": "Villalba de Rioja", "state": "", "country": "ES", "coord": {"lon": -2.89411, "lat": 42.61018}}, {"id": 6359149, "name": "Villalobar de Rioja", "state": "", "country": "ES", "coord": {"lon": -2.96744, "lat": 42.490471}}, {"id": 6359150, "name": "Villamediana de Iregua", "state": "", "country": "ES", "coord": {"lon": -2.4078, "lat": 42.433022}}, {"id": 6359151, "name": "Villanueva de Cameros", "state": "", "country": "ES", "coord": {"lon": -2.64154, "lat": 42.156582}}, {"id": 6359153, "name": "Villar de Torre", "state": "", "country": "ES", "coord": {"lon": -2.86595, "lat": 42.366741}}, {"id": 6359154, "name": "Villarejo", "state": "", "country": "ES", "coord": {"lon": -2.89256, "lat": 42.367241}}, {"id": 6359155, "name": "Villarroya", "state": "", "country": "ES", "coord": {"lon": -2.06338, "lat": 42.138378}}, {"id": 6359156, "name": "Villarta-Quintana", "state": "", "country": "ES", "coord": {"lon": -3.05913, "lat": 42.405972}}, {"id": 6359157, "name": "Villavelayo", "state": "", "country": "ES", "coord": {"lon": -2.98772, "lat": 42.1688}}, {"id": 6359158, "name": "Villaverde de Rioja", "state": "", "country": "ES", "coord": {"lon": -2.81371, "lat": 42.321831}}, {"id": 6359159, "name": "Villoslada de Cameros", "state": "", "country": "ES", "coord": {"lon": -2.6995, "lat": 42.0709}}, {"id": 6359160, "name": "Viniegra de Abajo", "state": "", "country": "ES", "coord": {"lon": -2.88111, "lat": 42.125992}}, {"id": 6359161, "name": "Viniegra de Arriba", "state": "", "country": "ES", "coord": {"lon": -2.82467, "lat": 42.081188}}, {"id": 6359162, "name": "Zarrat\u00f3n", "state": "", "country": "ES", "coord": {"lon": -2.87125, "lat": 42.51878}}, {"id": 6359163, "name": "Zarzosa", "state": "", "country": "ES", "coord": {"lon": -2.35782, "lat": 42.179001}}, {"id": 6359164, "name": "Zorraqu\u00edn", "state": "", "country": "ES", "coord": {"lon": -3.04309, "lat": 42.319382}}, {"id": 6359165, "name": "Abad\u00edn", "state": "", "country": "ES", "coord": {"lon": -7.50625, "lat": 43.379799}}, {"id": 6359166, "name": "Baleira", "state": "", "country": "ES", "coord": {"lon": -7.19547, "lat": 43.041561}}, {"id": 6359167, "name": "Barreiros", "state": "", "country": "ES", "coord": {"lon": -7.21842, "lat": 43.527229}}, {"id": 6359168, "name": "Becerre\u00e1", "state": "", "country": "ES", "coord": {"lon": -7.12108, "lat": 42.876968}}, {"id": 6359169, "name": "Begonte", "state": "", "country": "ES", "coord": {"lon": -7.68628, "lat": 43.1647}}, {"id": 6359170, "name": "B\u00f3veda", "state": "", "country": "ES", "coord": {"lon": -7.47561, "lat": 42.629639}}, {"id": 6359171, "name": "Carballedo", "state": "", "country": "ES", "coord": {"lon": -7.81118, "lat": 42.52459}}, {"id": 6359172, "name": "Castro de Rei", "state": "", "country": "ES", "coord": {"lon": -7.45099, "lat": 43.180519}}, {"id": 6359173, "name": "Castroverde", "state": "", "country": "ES", "coord": {"lon": -7.3426, "lat": 43.013409}}, {"id": 6359174, "name": "Cervantes", "state": "", "country": "ES", "coord": {"lon": -6.98393, "lat": 42.84066}}, {"id": 6359175, "name": "Corgo, O", "state": "", "country": "ES", "coord": {"lon": -7.46032, "lat": 42.934029}}, {"id": 6359177, "name": "Chantada", "state": "", "country": "ES", "coord": {"lon": -7.79753, "lat": 42.608742}}, {"id": 6359178, "name": "Folgoso do Courel", "state": "", "country": "ES", "coord": {"lon": -7.15925, "lat": 42.608768}}, {"id": 6359179, "name": "Fonsagrada, A", "state": "", "country": "ES", "coord": {"lon": -7.07969, "lat": 43.149429}}, {"id": 6359181, "name": "Friol", "state": "", "country": "ES", "coord": {"lon": -7.80793, "lat": 43.024342}}, {"id": 6359182, "name": "Xermade", "state": "", "country": "ES", "coord": {"lon": -7.79688, "lat": 43.376991}}, {"id": 6359183, "name": "Guitiriz", "state": "", "country": "ES", "coord": {"lon": -7.8253, "lat": 43.227348}}, {"id": 6359184, "name": "Gunt\u00edn", "state": "", "country": "ES", "coord": {"lon": -7.63227, "lat": 42.878738}}, {"id": 6359185, "name": "Incio, O", "state": "", "country": "ES", "coord": {"lon": -7.36959, "lat": 42.664082}}, {"id": 6359186, "name": "Xove", "state": "", "country": "ES", "coord": {"lon": -7.50398, "lat": 43.693748}}, {"id": 6359187, "name": "L\u00e1ncara", "state": "", "country": "ES", "coord": {"lon": -7.37458, "lat": 42.852428}}, {"id": 6359189, "name": "Lugo", "state": "", "country": "ES", "coord": {"lon": -7.49944, "lat": 43.002628}}, {"id": 6359190, "name": "Meira", "state": "", "country": "ES", "coord": {"lon": -7.25021, "lat": 43.229099}}, {"id": 6359191, "name": "Mondo\u00f1edo", "state": "", "country": "ES", "coord": {"lon": -7.34928, "lat": 43.431568}}, {"id": 6359192, "name": "Monforte de Lemos", "state": "", "country": "ES", "coord": {"lon": -7.49423, "lat": 42.512009}}, {"id": 6359193, "name": "Monterroso", "state": "", "country": "ES", "coord": {"lon": -7.83631, "lat": 42.80035}}, {"id": 6359194, "name": "Muras", "state": "", "country": "ES", "coord": {"lon": -7.68758, "lat": 43.50338}}, {"id": 6359195, "name": "Navia de Suarna", "state": "", "country": "ES", "coord": {"lon": -6.96833, "lat": 42.984901}}, {"id": 6359199, "name": "Outeiro de Rei", "state": "", "country": "ES", "coord": {"lon": -7.60506, "lat": 43.116428}}, {"id": 6359200, "name": "Palas de Rei", "state": "", "country": "ES", "coord": {"lon": -7.90138, "lat": 42.869179}}, {"id": 6359201, "name": "Pant\u00f3n", "state": "", "country": "ES", "coord": {"lon": -7.63756, "lat": 42.5089}}, {"id": 6359202, "name": "Paradela", "state": "", "country": "ES", "coord": {"lon": -7.59008, "lat": 42.753819}}, {"id": 6359203, "name": "Pastoriza, A", "state": "", "country": "ES", "coord": {"lon": -7.33442, "lat": 43.29007}}, {"id": 6359205, "name": "Pol", "state": "", "country": "ES", "coord": {"lon": -7.32137, "lat": 43.155521}}, {"id": 6359206, "name": "Pobra do Broll\u00f3n, A", "state": "", "country": "ES", "coord": {"lon": -7.36756, "lat": 42.55555}}, {"id": 6359207, "name": "Pontenova, A", "state": "", "country": "ES", "coord": {"lon": -7.18214, "lat": 43.328339}}, {"id": 6359208, "name": "Portomar\u00edn", "state": "", "country": "ES", "coord": {"lon": -7.61679, "lat": 42.806801}}, {"id": 6359209, "name": "Quiroga", "state": "", "country": "ES", "coord": {"lon": -7.20928, "lat": 42.48468}}, {"id": 6359210, "name": "Ribadeo", "state": "", "country": "ES", "coord": {"lon": -7.09913, "lat": 43.53249}}, {"id": 6359213, "name": "Riotorto", "state": "", "country": "ES", "coord": {"lon": -7.25803, "lat": 43.317711}}, {"id": 6359214, "name": "Samos", "state": "", "country": "ES", "coord": {"lon": -7.27329, "lat": 42.702339}}, {"id": 6359215, "name": "R\u00e1bade", "state": "", "country": "ES", "coord": {"lon": -7.62086, "lat": 43.123112}}, {"id": 6359216, "name": "Sarria", "state": "", "country": "ES", "coord": {"lon": -7.43856, "lat": 42.771858}}, {"id": 6359217, "name": "Sober", "state": "", "country": "ES", "coord": {"lon": -7.55582, "lat": 42.441719}}, {"id": 6359218, "name": "Taboada", "state": "", "country": "ES", "coord": {"lon": -7.7481, "lat": 42.709911}}, {"id": 6359219, "name": "Trabada", "state": "", "country": "ES", "coord": {"lon": -7.15939, "lat": 43.445271}}, {"id": 6359220, "name": "Triacastela", "state": "", "country": "ES", "coord": {"lon": -7.20527, "lat": 42.759048}}, {"id": 6359223, "name": "Vilalba", "state": "", "country": "ES", "coord": {"lon": -7.65968, "lat": 43.325211}}, {"id": 6359224, "name": "Viveiro", "state": "", "country": "ES", "coord": {"lon": -7.58279, "lat": 43.655499}}, {"id": 6359225, "name": "Baralla", "state": "", "country": "ES", "coord": {"lon": -7.23864, "lat": 42.932079}}, {"id": 6359226, "name": "Burela", "state": "", "country": "ES", "coord": {"lon": -7.36176, "lat": 43.662601}}, {"id": 6359228, "name": "Ajalvir", "state": "", "country": "ES", "coord": {"lon": -3.47658, "lat": 40.529091}}, {"id": 6359229, "name": "Alameda del Valle", "state": "", "country": "ES", "coord": {"lon": -3.84824, "lat": 40.92046}}, {"id": 6359230, "name": "\u00c1lamo, El", "state": "", "country": "ES", "coord": {"lon": -3.9873, "lat": 40.232841}}, {"id": 6359231, "name": "Alcal\u00e1 de Henares", "state": "", "country": "ES", "coord": {"lon": -3.34017, "lat": 40.499401}}, {"id": 6359232, "name": "Alcobendas", "state": "", "country": "ES", "coord": {"lon": -3.62913, "lat": 40.536152}}, {"id": 6359233, "name": "Alcorc\u00f3n", "state": "", "country": "ES", "coord": {"lon": -3.82847, "lat": 40.349232}}, {"id": 6359234, "name": "Aldea del Fresno", "state": "", "country": "ES", "coord": {"lon": -4.21754, "lat": 40.306419}}, {"id": 6359235, "name": "Algete", "state": "", "country": "ES", "coord": {"lon": -3.53328, "lat": 40.614979}}, {"id": 6359236, "name": "Alpedrete", "state": "", "country": "ES", "coord": {"lon": -4.0189, "lat": 40.661911}}, {"id": 6359237, "name": "Ambite", "state": "", "country": "ES", "coord": {"lon": -3.172, "lat": 40.342548}}, {"id": 6359238, "name": "Anchuelo", "state": "", "country": "ES", "coord": {"lon": -3.27659, "lat": 40.46883}}, {"id": 6359239, "name": "Aranjuez", "state": "", "country": "ES", "coord": {"lon": -3.65907, "lat": 40.020199}}, {"id": 6359240, "name": "Arganda del Rey", "state": "", "country": "ES", "coord": {"lon": -3.44945, "lat": 40.296371}}, {"id": 6359243, "name": "Batres", "state": "", "country": "ES", "coord": {"lon": -3.928, "lat": 40.22538}}, {"id": 6359244, "name": "Becerril de la Sierra", "state": "", "country": "ES", "coord": {"lon": -3.93368, "lat": 40.703072}}, {"id": 6359245, "name": "Belmonte de Tajo", "state": "", "country": "ES", "coord": {"lon": -3.33753, "lat": 40.132938}}, {"id": 6359246, "name": "Berzosa del Lozoya", "state": "", "country": "ES", "coord": {"lon": -3.53246, "lat": 40.973598}}, {"id": 6359248, "name": "Boadilla del Monte", "state": "", "country": "ES", "coord": {"lon": -3.8847, "lat": 40.40461}}, {"id": 6359250, "name": "Braojos", "state": "", "country": "ES", "coord": {"lon": -3.65581, "lat": 41.056622}}, {"id": 6359251, "name": "Brea de Tajo", "state": "", "country": "ES", "coord": {"lon": -3.12008, "lat": 40.238682}}, {"id": 6359252, "name": "Brunete", "state": "", "country": "ES", "coord": {"lon": -3.99753, "lat": 40.39957}}, {"id": 6359253, "name": "Buitrago del Lozoya", "state": "", "country": "ES", "coord": {"lon": -3.63538, "lat": 40.99419}},