[{"id": 6440014, "name": "Dallet", "state": "", "country": "FR", "coord": {"lon": 3.23333, "lat": 45.76667}}, {"id": 6440015, "name": "Dauzat-sur-Vodable", "state": "", "country": "FR", "coord": {"lon": 3.1, "lat": 45.48333}}, {"id": 6440016, "name": "Davayat", "state": "", "country": "FR", "coord": {"lon": 3.11667, "lat": 45.950001}}, {"id": 6440019, "name": "Dorat", "state": "", "country": "FR", "coord": {"lon": 3.48333, "lat": 45.883331}}, {"id": 6440020, "name": "Dore-l'\u00c9glise", "state": "", "country": "FR", "coord": {"lon": 3.75, "lat": 45.383331}}, {"id": 6440022, "name": "Durtol", "state": "", "country": "FR", "coord": {"lon": 3.05, "lat": 45.799999}}, {"id": 6440024, "name": "Effiat", "state": "", "country": "FR", "coord": {"lon": 3.25, "lat": 46.033329}}, {"id": 6440025, "name": "\u00c9gliseneuve-d'Entraigues", "state": "", "country": "FR", "coord": {"lon": 2.83333, "lat": 45.416672}}, {"id": 6440028, "name": "\u00c9glisolles", "state": "", "country": "FR", "coord": {"lon": 3.88333, "lat": 45.450001}}, {"id": 6440029, "name": "Ennezat", "state": "", "country": "FR", "coord": {"lon": 3.21667, "lat": 45.900002}}, {"id": 6440031, "name": "Enval", "state": "", "country": "FR", "coord": {"lon": 3.05, "lat": 45.900002}}, {"id": 6440033, "name": "Espirat", "state": "", "country": "FR", "coord": {"lon": 3.33333, "lat": 45.75}}, {"id": 6440035, "name": "Esteil", "state": "", "country": "FR", "coord": {"lon": 3.36667, "lat": 45.450001}}, {"id": 6440040, "name": "Fournols", "state": "", "country": "FR", "coord": {"lon": 3.58333, "lat": 45.51667}}, {"id": 6440041, "name": "Gelles", "state": "", "country": "FR", "coord": {"lon": 2.76667, "lat": 45.76667}}, {"id": 6440042, "name": "Gerzat", "state": "", "country": "FR", "coord": {"lon": 3.15, "lat": 45.833328}}, {"id": 6440043, "name": "Giat", "state": "", "country": "FR", "coord": {"lon": 2.48333, "lat": 45.799999}}, {"id": 6440046, "name": "Glaine-Montaigut", "state": "", "country": "FR", "coord": {"lon": 3.4, "lat": 45.75}}, {"id": 6440047, "name": "Goutti\u00e8res", "state": "", "country": "FR", "coord": {"lon": 2.76667, "lat": 46.066669}}, {"id": 6440049, "name": "Grandrif", "state": "", "country": "FR", "coord": {"lon": 3.81667, "lat": 45.5}}, {"id": 6440051, "name": "Heume-l'\u00c9glise", "state": "", "country": "FR", "coord": {"lon": 2.73333, "lat": 45.716671}}, {"id": 6440052, "name": "Isserteaux", "state": "", "country": "FR", "coord": {"lon": 3.4, "lat": 45.650002}}, {"id": 6440053, "name": "Issoire", "state": "", "country": "FR", "coord": {"lon": 3.25, "lat": 45.549999}}, {"id": 6440055, "name": "Joze", "state": "", "country": "FR", "coord": {"lon": 3.31667, "lat": 45.866669}}, {"id": 6440056, "name": "Jozerand", "state": "", "country": "FR", "coord": {"lon": 3.1, "lat": 46.033329}}, {"id": 6440063, "name": "Laqueuille", "state": "", "country": "FR", "coord": {"lon": 2.73333, "lat": 45.650002}}, {"id": 6440064, "name": "Larodde", "state": "", "country": "FR", "coord": {"lon": 2.55, "lat": 45.533329}}, {"id": 6440065, "name": "Lempty", "state": "", "country": "FR", "coord": {"lon": 3.33333, "lat": 45.833328}}, {"id": 6440066, "name": "Lezoux", "state": "", "country": "FR", "coord": {"lon": 3.37943, "lat": 45.82695}}, {"id": 6440067, "name": "Limons", "state": "", "country": "FR", "coord": {"lon": 3.43333, "lat": 45.966671}}, {"id": 6440069, "name": "Loubeyrat", "state": "", "country": "FR", "coord": {"lon": 3.01667, "lat": 45.933331}}, {"id": 6440070, "name": "Ludesse", "state": "", "country": "FR", "coord": {"lon": 3.11667, "lat": 45.616669}}, {"id": 6440071, "name": "Lussat", "state": "", "country": "FR", "coord": {"lon": 3.23333, "lat": 45.833328}}, {"id": 6440073, "name": "Madriat", "state": "", "country": "FR", "coord": {"lon": 3.2, "lat": 45.433331}}, {"id": 6440074, "name": "Malauzat", "state": "", "country": "FR", "coord": {"lon": 3.05, "lat": 45.849998}}, {"id": 6440075, "name": "Malintrat", "state": "", "country": "FR", "coord": {"lon": 3.2, "lat": 45.816669}}, {"id": 6440076, "name": "Manglieu", "state": "", "country": "FR", "coord": {"lon": 3.35, "lat": 45.616669}}, {"id": 6440077, "name": "Manzat", "state": "", "country": "FR", "coord": {"lon": 2.93333, "lat": 45.966671}}, {"id": 6440080, "name": "Maringues", "state": "", "country": "FR", "coord": {"lon": 3.33333, "lat": 45.916672}}, {"id": 6440081, "name": "Marsac-en-Livradois", "state": "", "country": "FR", "coord": {"lon": 3.73333, "lat": 45.48333}}, {"id": 6440082, "name": "Marsat", "state": "", "country": "FR", "coord": {"lon": 3.08333, "lat": 45.883331}}, {"id": 6440083, "name": "Les Martres-de-Veyre", "state": "", "country": "FR", "coord": {"lon": 3.18985, "lat": 45.684059}}, {"id": 6440084, "name": "Martres-sur-Morge", "state": "", "country": "FR", "coord": {"lon": 3.21667, "lat": 45.933331}}, {"id": 6440085, "name": "Mauzun", "state": "", "country": "FR", "coord": {"lon": 3.43333, "lat": 45.700001}}, {"id": 6440087, "name": "Mazaye", "state": "", "country": "FR", "coord": {"lon": 2.86667, "lat": 45.783329}}, {"id": 6440090, "name": "Meilhaud", "state": "", "country": "FR", "coord": {"lon": 3.16667, "lat": 45.549999}}, {"id": 6440091, "name": "M\u00e9n\u00e9trol", "state": "", "country": "FR", "coord": {"lon": 3.13333, "lat": 45.866669}}, {"id": 6440092, "name": "Messeix", "state": "", "country": "FR", "coord": {"lon": 2.55, "lat": 45.616669}}, {"id": 6440093, "name": "Mur-sur-Allier", "state": "", "country": "FR", "coord": {"lon": 3.23333, "lat": 45.75}}, {"id": 6440094, "name": "Mirefleurs", "state": "", "country": "FR", "coord": {"lon": 3.23333, "lat": 45.700001}}, {"id": 6440096, "name": "Montaigut-le-Blanc", "state": "", "country": "FR", "coord": {"lon": 3.1, "lat": 45.583328}}, {"id": 6440098, "name": "Mont-Dore", "state": "", "country": "FR", "coord": {"lon": 2.81667, "lat": 45.566669}}, {"id": 6440099, "name": "Montel-de-Gelat", "state": "", "country": "FR", "coord": {"lon": 2.58333, "lat": 45.933331}}, {"id": 6440105, "name": "Mozac", "state": "", "country": "FR", "coord": {"lon": 3.0959, "lat": 45.8937}}, {"id": 6440106, "name": "Murat-le-Quaire", "state": "", "country": "FR", "coord": {"lon": 2.73333, "lat": 45.599998}}, {"id": 6440107, "name": "Murol", "state": "", "country": "FR", "coord": {"lon": 2.9438, "lat": 45.573299}}, {"id": 6440108, "name": "N\u00e9bouzat", "state": "", "country": "FR", "coord": {"lon": 2.9, "lat": 45.716671}}, {"id": 6440109, "name": "N\u00e9ronde-sur-Dore", "state": "", "country": "FR", "coord": {"lon": 3.53333, "lat": 45.799999}}, {"id": 6440110, "name": "Neschers", "state": "", "country": "FR", "coord": {"lon": 3.16667, "lat": 45.583328}}, {"id": 6440112, "name": "Noalhat", "state": "", "country": "FR", "coord": {"lon": 3.45, "lat": 45.916672}}, {"id": 6440113, "name": "Nohanent", "state": "", "country": "FR", "coord": {"lon": 3.06667, "lat": 45.816669}}, {"id": 6440114, "name": "Nonette-Orsonnette", "state": "", "country": "FR", "coord": {"lon": 3.28333, "lat": 45.48333}}, {"id": 6440115, "name": "Novacelles", "state": "", "country": "FR", "coord": {"lon": 3.65, "lat": 45.433331}}, {"id": 6440116, "name": "Olby", "state": "", "country": "FR", "coord": {"lon": 2.88333, "lat": 45.75}}, {"id": 6440118, "name": "Olloix", "state": "", "country": "FR", "coord": {"lon": 3.05, "lat": 45.616669}}, {"id": 6440120, "name": "Orcet", "state": "", "country": "FR", "coord": {"lon": 3.18333, "lat": 45.700001}}, {"id": 6440121, "name": "Orcines", "state": "", "country": "FR", "coord": {"lon": 3.01667, "lat": 45.783329}}, {"id": 6440122, "name": "Orl\u00e9at", "state": "", "country": "FR", "coord": {"lon": 3.43333, "lat": 45.866669}}, {"id": 6440123, "name": "Orsonnette", "state": "", "country": "FR", "coord": {"lon": 3.3, "lat": 45.466671}}, {"id": 6440124, "name": "Palladuc", "state": "", "country": "FR", "coord": {"lon": 3.63333, "lat": 45.900002}}, {"id": 6440127, "name": "Pasli\u00e8res", "state": "", "country": "FR", "coord": {"lon": 3.5, "lat": 45.933331}}, {"id": 6440128, "name": "P\u00e9rignat-l\u00e8s-Sarli\u00e8ve", "state": "", "country": "FR", "coord": {"lon": 3.15, "lat": 45.73333}}, {"id": 6440129, "name": "P\u00e9rignat-sur-Allier", "state": "", "country": "FR", "coord": {"lon": 3.25, "lat": 45.73333}}, {"id": 6440130, "name": "Perrier", "state": "", "country": "FR", "coord": {"lon": 3.21667, "lat": 45.549999}}, {"id": 6440131, "name": "Peschadoires", "state": "", "country": "FR", "coord": {"lon": 3.51667, "lat": 45.816669}}, {"id": 6440132, "name": "Pesli\u00e8res", "state": "", "country": "FR", "coord": {"lon": 3.46667, "lat": 45.433331}}, {"id": 6440135, "name": "Pignols", "state": "", "country": "FR", "coord": {"lon": 3.28333, "lat": 45.650002}}, {"id": 6440136, "name": "Plauzat", "state": "", "country": "FR", "coord": {"lon": 3.15, "lat": 45.616669}}, {"id": 6440137, "name": "Pontaumur", "state": "", "country": "FR", "coord": {"lon": 2.68333, "lat": 45.866669}}, {"id": 6440138, "name": "Pont-du-Ch\u00e2teau", "state": "", "country": "FR", "coord": {"lon": 3.25, "lat": 45.799999}}, {"id": 6440140, "name": "Prompsat", "state": "", "country": "FR", "coord": {"lon": 3.06667, "lat": 45.950001}}, {"id": 6440142, "name": "Pulv\u00e9ri\u00e8res", "state": "", "country": "FR", "coord": {"lon": 2.91667, "lat": 45.883331}}, {"id": 6440143, "name": "Puy-Guillaume", "state": "", "country": "FR", "coord": {"lon": 3.4748, "lat": 45.9603}}, {"id": 6440144, "name": "Queuille", "state": "", "country": "FR", "coord": {"lon": 2.85, "lat": 45.966671}}, {"id": 6440146, "name": "Renti\u00e8res", "state": "", "country": "FR", "coord": {"lon": 3.1, "lat": 45.416672}}, {"id": 6440149, "name": "Romagnat", "state": "", "country": "FR", "coord": {"lon": 3.1, "lat": 45.73333}}, {"id": 6440150, "name": "Royat", "state": "", "country": "FR", "coord": {"lon": 3.05, "lat": 45.76667}}, {"id": 6440152, "name": "Saint-Agoulin", "state": "", "country": "FR", "coord": {"lon": 3.13333, "lat": 46.033329}}, {"id": 6440153, "name": "Saint-Alyre-d'Arlanc", "state": "", "country": "FR", "coord": {"lon": 3.63333, "lat": 45.366669}}, {"id": 6440155, "name": "Saint-Amant-Roche-Savine", "state": "", "country": "FR", "coord": {"lon": 3.63333, "lat": 45.566669}}, {"id": 6440156, "name": "Saint-Amant-Tallende", "state": "", "country": "FR", "coord": {"lon": 3.11667, "lat": 45.666672}}, {"id": 6440157, "name": "Saint-Andr\u00e9-le-Coq", "state": "", "country": "FR", "coord": {"lon": 3.31667, "lat": 45.966671}}, {"id": 6440159, "name": "Saint-Avit", "state": "", "country": "FR", "coord": {"lon": 2.53333, "lat": 45.866669}}, {"id": 6440160, "name": "Saint-Babel", "state": "", "country": "FR", "coord": {"lon": 3.3, "lat": 45.599998}}, {"id": 6440161, "name": "Saint-Bonnet-le-Bourg", "state": "", "country": "FR", "coord": {"lon": 3.61667, "lat": 45.433331}}, {"id": 6440162, "name": "Saint-Bonnet-le-Chastel", "state": "", "country": "FR", "coord": {"lon": 3.63333, "lat": 45.450001}}, {"id": 6440165, "name": "Saint-Bonnet-pr\u00e8s-Riom", "state": "", "country": "FR", "coord": {"lon": 3.1, "lat": 45.933331}}, {"id": 6440169, "name": "Saint-Cl\u00e9ment-de-R\u00e9gnat", "state": "", "country": "FR", "coord": {"lon": 3.3, "lat": 46.0}}, {"id": 6440170, "name": "Saint-Denis-Combarnazat", "state": "", "country": "FR", "coord": {"lon": 3.3506, "lat": 45.9828}}, {"id": 6440174, "name": "Saint-\u00c9loy-la-Glaci\u00e8re", "state": "", "country": "FR", "coord": {"lon": 3.56667, "lat": 45.566669}}, {"id": 6440175, "name": "Saint-\u00c9loy-les-Mines", "state": "", "country": "FR", "coord": {"lon": 2.834, "lat": 46.160999}}, {"id": 6440177, "name": "Saint-\u00c9tienne-sur-Usson", "state": "", "country": "FR", "coord": {"lon": 3.41667, "lat": 45.5}}, {"id": 6440178, "name": "Saint-Ferr\u00e9ol-des-C\u00f4tes", "state": "", "country": "FR", "coord": {"lon": 3.71667, "lat": 45.533329}}, {"id": 6440181, "name": "Saint-Gen\u00e8s-Champanelle", "state": "", "country": "FR", "coord": {"lon": 3.01667, "lat": 45.716671}}, {"id": 6440182, "name": "Saint-Gen\u00e8s-Champespe", "state": "", "country": "FR", "coord": {"lon": 2.73333, "lat": 45.416672}}, {"id": 6440184, "name": "Saint-Gen\u00e8s-la-Tourette", "state": "", "country": "FR", "coord": {"lon": 3.48333, "lat": 45.51667}}, {"id": 6440185, "name": "Saint-Georges-de-Mons", "state": "", "country": "FR", "coord": {"lon": 2.83333, "lat": 45.933331}}, {"id": 6440186, "name": "Saint-Georges-sur-Allier", "state": "", "country": "FR", "coord": {"lon": 3.2435, "lat": 45.710098}}, {"id": 6440188, "name": "Saint-Germain-Lembron", "state": "", "country": "FR", "coord": {"lon": 3.25, "lat": 45.450001}}, {"id": 6440190, "name": "Saint-Gervais-d'Auvergne", "state": "", "country": "FR", "coord": {"lon": 2.81667, "lat": 46.033329}}, {"id": 6440191, "name": "Saint-Gervais-sous-Meymont", "state": "", "country": "FR", "coord": {"lon": 3.6, "lat": 45.683331}}, {"id": 6440192, "name": "Saint-Gervazy", "state": "", "country": "FR", "coord": {"lon": 3.23333, "lat": 45.416672}}, {"id": 6440194, "name": "Saint-Hilaire-la-Croix", "state": "", "country": "FR", "coord": {"lon": 3.05, "lat": 46.049999}}, {"id": 6440196, "name": "Saint-Ignat", "state": "", "country": "FR", "coord": {"lon": 3.26667, "lat": 45.916672}}, {"id": 6440197, "name": "Saint-Jacques-d'Ambur", "state": "", "country": "FR", "coord": {"lon": 2.78333, "lat": 45.900002}}, {"id": 6440198, "name": "Saint-Jean-d'Heurs", "state": "", "country": "FR", "coord": {"lon": 3.45, "lat": 45.816669}}, {"id": 6440200, "name": "Saint-Jean-en-Val", "state": "", "country": "FR", "coord": {"lon": 3.36667, "lat": 45.51667}}, {"id": 6440202, "name": "Saint-Julien-de-Coppel", "state": "", "country": "FR", "coord": {"lon": 3.31667, "lat": 45.700001}}, {"id": 6440203, "name": "Saint-Julien-la-Geneste", "state": "", "country": "FR", "coord": {"lon": 2.73333, "lat": 46.049999}}, {"id": 6440204, "name": "Saint-Julien-Puy-Lav\u00e8ze", "state": "", "country": "FR", "coord": {"lon": 2.68333, "lat": 45.666672}}, {"id": 6440205, "name": "Saint-Laure", "state": "", "country": "FR", "coord": {"lon": 3.28333, "lat": 45.900002}}, {"id": 6440207, "name": "Saint-Martin-des-Olmes", "state": "", "country": "FR", "coord": {"lon": 3.8, "lat": 45.533329}}, {"id": 6440210, "name": "Saint-Maurice-pr\u00e8s-Pionsat", "state": "", "country": "FR", "coord": {"lon": 2.6, "lat": 46.066669}}, {"id": 6440211, "name": "Saint-Myon", "state": "", "country": "FR", "coord": {"lon": 3.11667, "lat": 46.0}}, {"id": 6440212, "name": "Saint-Nectaire", "state": "", "country": "FR", "coord": {"lon": 2.9933, "lat": 45.5877}}, {"id": 6440213, "name": "Saint-Ours", "state": "", "country": "FR", "coord": {"lon": 2.9, "lat": 45.849998}}, {"id": 6440215, "name": "Saint-Pierre-la-Bourlhonne", "state": "", "country": "FR", "coord": {"lon": 3.75, "lat": 45.666672}}, {"id": 6440216, "name": "Saint-Pierre-le-Chastel", "state": "", "country": "FR", "coord": {"lon": 2.85, "lat": 45.799999}}, {"id": 6440217, "name": "Saint-Pierre-Roche", "state": "", "country": "FR", "coord": {"lon": 2.83333, "lat": 45.73333}}, {"id": 6440218, "name": "Saint-Priest-Bramefant", "state": "", "country": "FR", "coord": {"lon": 3.43333, "lat": 46.033329}}, {"id": 6440219, "name": "Saint-Priest-des-Champs", "state": "", "country": "FR", "coord": {"lon": 2.76667, "lat": 45.98333}}, {"id": 6440220, "name": "Saint-Quentin-sur-Sauxillanges", "state": "", "country": "FR", "coord": {"lon": 3.4, "lat": 45.549999}}, {"id": 6440221, "name": "Saint-Quintin-sur-Sioule", "state": "", "country": "FR", "coord": {"lon": 3.06667, "lat": 46.099998}}, {"id": 6440223, "name": "Saint-R\u00e9my-de-Chargnat", "state": "", "country": "FR", "coord": {"lon": 3.33333, "lat": 45.51667}}, {"id": 6440224, "name": "Saint-R\u00e9my-sur-Durolle", "state": "", "country": "FR", "coord": {"lon": 3.6, "lat": 45.883331}}, {"id": 6440225, "name": "Saint-Sandoux", "state": "", "country": "FR", "coord": {"lon": 3.11667, "lat": 45.633331}}, {"id": 6440227, "name": "Saint-Sylvestre-Pragoulin", "state": "", "country": "FR", "coord": {"lon": 3.38333, "lat": 46.049999}}, {"id": 6440228, "name": "Saint-Victor-Montvianeix", "state": "", "country": "FR", "coord": {"lon": 3.6, "lat": 45.933331}}, {"id": 6440229, "name": "Saint-Yvoine", "state": "", "country": "FR", "coord": {"lon": 3.23333, "lat": 45.583328}}, {"id": 6440231, "name": "Sardon", "state": "", "country": "FR", "coord": {"lon": 3.21667, "lat": 45.966671}}, {"id": 6440232, "name": "Saulzet-le-Froid", "state": "", "country": "FR", "coord": {"lon": 2.91667, "lat": 45.633331}}, {"id": 6440233, "name": "Sauret-Besserve", "state": "", "country": "FR", "coord": {"lon": 2.81667, "lat": 46.0}}, {"id": 6440235, "name": "Sauvagnat-Sainte-Marthe", "state": "", "country": "FR", "coord": {"lon": 3.21667, "lat": 45.583328}}, {"id": 6440239, "name": "Sayat", "state": "", "country": "FR", "coord": {"lon": 3.06667, "lat": 45.833328}}, {"id": 6440240, "name": "Sermentizon", "state": "", "country": "FR", "coord": {"lon": 3.51667, "lat": 45.76667}}, {"id": 6440247, "name": "Tauves", "state": "", "country": "FR", "coord": {"lon": 2.63333, "lat": 45.566669}}, {"id": 6440248, "name": "Teilh\u00e8de", "state": "", "country": "FR", "coord": {"lon": 3.06667, "lat": 45.950001}}, {"id": 6440249, "name": "Teilhet", "state": "", "country": "FR", "coord": {"lon": 2.81667, "lat": 46.099998}}, {"id": 6440251, "name": "Thiers", "state": "", "country": "FR", "coord": {"lon": 3.56667, "lat": 45.849998}}, {"id": 6440252, "name": "Thioli\u00e8res", "state": "", "country": "FR", "coord": {"lon": 3.7, "lat": 45.583328}}, {"id": 6440253, "name": "Thuret", "state": "", "country": "FR", "coord": {"lon": 3.26667, "lat": 45.966671}}, {"id": 6440254, "name": "Tortebesse", "state": "", "country": "FR", "coord": {"lon": 2.65, "lat": 45.73333}}, {"id": 6440255, "name": "Tours-sur-Meymont", "state": "", "country": "FR", "coord": {"lon": 3.58333, "lat": 45.666672}}, {"id": 6440256, "name": "Tourzel-Ronzi\u00e8res", "state": "", "country": "FR", "coord": {"lon": 3.13333, "lat": 45.533329}}, {"id": 6440260, "name": "Valbeleix", "state": "", "country": "FR", "coord": {"lon": 3.0, "lat": 45.466671}}, {"id": 6440262, "name": "Varennes-sur-Morge", "state": "", "country": "FR", "coord": {"lon": 3.18333, "lat": 45.933331}}, {"id": 6440263, "name": "Varennes-sur-Usson", "state": "", "country": "FR", "coord": {"lon": 3.3, "lat": 45.533329}}, {"id": 6440264, "name": "Vassel", "state": "", "country": "FR", "coord": {"lon": 3.31667, "lat": 45.76667}}, {"id": 6440265, "name": "Vensat", "state": "", "country": "FR", "coord": {"lon": 3.18333, "lat": 46.049999}}, {"id": 6440267, "name": "Le Vernet-Cham\u00e9ane", "state": "", "country": "FR", "coord": {"lon": 3.46667, "lat": 45.466671}}, {"id": 6440269, "name": "Vernines", "state": "", "country": "FR", "coord": {"lon": 2.88333, "lat": 45.666672}}, {"id": 6440270, "name": "Verri\u00e8res", "state": "", "country": "FR", "coord": {"lon": 3.05, "lat": 45.566669}}, {"id": 6440271, "name": "Vertaizon", "state": "", "country": "FR", "coord": {"lon": 3.3, "lat": 45.76667}}, {"id": 6440272, "name": "Vertolaye", "state": "", "country": "FR", "coord": {"lon": 3.7, "lat": 45.650002}}, {"id": 6440273, "name": "Veyre-Monton", "state": "", "country": "FR", "coord": {"lon": 3.16667, "lat": 45.683331}}, {"id": 6440275, "name": "Vic-le-Comte", "state": "", "country": "FR", "coord": {"lon": 3.25, "lat": 45.633331}}, {"id": 6440276, "name": "Viverols", "state": "", "country": "FR", "coord": {"lon": 3.88333, "lat": 45.433331}}, {"id": 6440279, "name": "Vollore-Ville", "state": "", "country": "FR", "coord": {"lon": 3.6, "lat": 45.783329}}, {"id": 6440280, "name": "Volvic", "state": "", "country": "FR", "coord": {"lon": 3.05, "lat": 45.866669}}, {"id": 6440281, "name": "Youx", "state": "", "country": "FR", "coord": {"lon": 2.7998, "lat": 46.144798}}, {"id": 6440282, "name": "Yronde-et-Buron", "state": "", "country": "FR", "coord": {"lon": 3.25, "lat": 45.616669}}, {"id": 6440283, "name": "Yssac-la-Tourette", "state": "", "country": "FR", "coord": {"lon": 3.08333, "lat": 45.933331}}, {"id": 6440284, "name": "Bassussarry", "state": "", "country": "FR", "coord": {"lon": -1.5, "lat": 43.450001}}, {"id": 6440285, "name": "Baudreix", "state": "", "country": "FR", "coord": {"lon": -0.25, "lat": 43.200001}}, {"id": 6440286, "name": "Bayonne", "state": "", "country": "FR", "coord": {"lon": -1.48333, "lat": 43.48333}}, {"id": 6440291, "name": "Bellocq", "state": "", "country": "FR", "coord": {"lon": -0.91667, "lat": 43.51667}}, {"id": 6440292, "name": "B\u00e9n\u00e9jacq", "state": "", "country": "FR", "coord": {"lon": -0.21667, "lat": 43.200001}}, {"id": 6440298, "name": "B\u00e9singrand", "state": "", "country": "FR", "coord": {"lon": -0.56667, "lat": 43.366669}}, {"id": 6440300, "name": "Beuste", "state": "", "country": "FR", "coord": {"lon": -0.23333, "lat": 43.216671}}, {"id": 6440301, "name": "Biarritz", "state": "", "country": "FR", "coord": {"lon": -1.56667, "lat": 43.48333}}, {"id": 6440302, "name": "Bidarray", "state": "", "country": "FR", "coord": {"lon": -1.35, "lat": 43.26667}}, {"id": 6440303, "name": "Bidart", "state": "", "country": "FR", "coord": {"lon": -1.58333, "lat": 43.433331}}, {"id": 6440305, "name": "Bilh\u00e8res", "state": "", "country": "FR", "coord": {"lon": -0.45, "lat": 43.066669}}, {"id": 6440306, "name": "Bill\u00e8re", "state": "", "country": "FR", "coord": {"lon": -0.4, "lat": 43.299999}}, {"id": 6440307, "name": "Biriatou", "state": "", "country": "FR", "coord": {"lon": -1.73333, "lat": 43.333328}}, {"id": 6440308, "name": "Bizanos", "state": "", "country": "FR", "coord": {"lon": -0.35, "lat": 43.283329}}, {"id": 6440309, "name": "Boeil-Bezing", "state": "", "country": "FR", "coord": {"lon": -0.26667, "lat": 43.216671}}, {"id": 6440311, "name": "Bonnut", "state": "", "country": "FR", "coord": {"lon": -0.76667, "lat": 43.549999}}, {"id": 6440313, "name": "Boueilh-Boueilho-Lasque", "state": "", "country": "FR", "coord": {"lon": -0.31667, "lat": 43.549999}}, {"id": 6440314, "name": "Bougarber", "state": "", "country": "FR", "coord": {"lon": -0.46667, "lat": 43.400002}}, {"id": 6440316, "name": "Boumourt", "state": "", "country": "FR", "coord": {"lon": -0.5203, "lat": 43.443901}}, {"id": 6440318, "name": "Bournos", "state": "", "country": "FR", "coord": {"lon": -0.38333, "lat": 43.433331}}, {"id": 6440319, "name": "Bugnein", "state": "", "country": "FR", "coord": {"lon": -0.78333, "lat": 43.349998}}, {"id": 6440322, "name": "Buros", "state": "", "country": "FR", "coord": {"lon": -0.3, "lat": 43.349998}}, {"id": 6440326, "name": "Buziet", "state": "", "country": "FR", "coord": {"lon": -0.46667, "lat": 43.133331}}, {"id": 6440328, "name": "Cabidos", "state": "", "country": "FR", "coord": {"lon": -0.46667, "lat": 43.549999}}, {"id": 6440329, "name": "Cadillon", "state": "", "country": "FR", "coord": {"lon": -0.15, "lat": 43.533329}}, {"id": 6440330, "name": "Cambo-les-Bains", "state": "", "country": "FR", "coord": {"lon": -1.4, "lat": 43.366669}}, {"id": 6440331, "name": "Came", "state": "", "country": "FR", "coord": {"lon": -1.11667, "lat": 43.48333}}, {"id": 6440333, "name": "Cardesse", "state": "", "country": "FR", "coord": {"lon": -0.58333, "lat": 43.26667}}, {"id": 6440335, "name": "Carr\u00e8re", "state": "", "country": "FR", "coord": {"lon": -0.28, "lat": 43.483501}}, {"id": 6440337, "name": "Casteide-Cami", "state": "", "country": "FR", "coord": {"lon": -0.51667, "lat": 43.416672}}, {"id": 6440338, "name": "Casteide-Candau", "state": "", "country": "FR", "coord": {"lon": -0.56667, "lat": 43.51667}}, {"id": 6440339, "name": "Casteide-Doat", "state": "", "country": "FR", "coord": {"lon": -0.0118, "lat": 43.372799}}, {"id": 6440340, "name": "Cast\u00e9ra-Loubix", "state": "", "country": "FR", "coord": {"lon": -0.03333, "lat": 43.400002}}, {"id": 6440341, "name": "Castetbon", "state": "", "country": "FR", "coord": {"lon": -0.78333, "lat": 43.383331}}, {"id": 6440343, "name": "Castetnau-Camblong", "state": "", "country": "FR", "coord": {"lon": -0.78333, "lat": 43.333328}}, {"id": 6440345, "name": "Castetpugon", "state": "", "country": "FR", "coord": {"lon": -0.23333, "lat": 43.566669}}, {"id": 6440346, "name": "Caubios-Loos", "state": "", "country": "FR", "coord": {"lon": -0.4, "lat": 43.416672}}, {"id": 6440348, "name": "Cette-Eygun", "state": "", "country": "FR", "coord": {"lon": -0.58333, "lat": 42.933331}}, {"id": 6440349, "name": "Charre", "state": "", "country": "FR", "coord": {"lon": -0.86667, "lat": 43.316669}}, {"id": 6440350, "name": "Charritte-de-Bas", "state": "", "country": "FR", "coord": {"lon": -0.88333, "lat": 43.299999}}, {"id": 6440352, "name": "Ciboure", "state": "", "country": "FR", "coord": {"lon": -1.66667, "lat": 43.383331}}, {"id": 6440353, "name": "Claracq", "state": "", "country": "FR", "coord": {"lon": -0.2989, "lat": 43.510502}}, {"id": 6440356, "name": "Cosl\u00e9da\u00e0-Lube-Boast", "state": "", "country": "FR", "coord": {"lon": -0.23333, "lat": 43.466671}}, {"id": 6440357, "name": "Coublucq", "state": "", "country": "FR", "coord": {"lon": -0.36667, "lat": 43.533329}}, {"id": 6440358, "name": "Crouseilles", "state": "", "country": "FR", "coord": {"lon": -0.08333, "lat": 43.51667}}, {"id": 6440360, "name": "Denguin", "state": "", "country": "FR", "coord": {"lon": -0.5, "lat": 43.366669}}, {"id": 6440361, "name": "Doazon", "state": "", "country": "FR", "coord": {"lon": -0.55, "lat": 43.450001}}, {"id": 6440363, "name": "Domezain-Berraute", "state": "", "country": "FR", "coord": {"lon": -0.96667, "lat": 43.333328}}, {"id": 6440364, "name": "Eaux-Bonnes", "state": "", "country": "FR", "coord": {"lon": -0.38333, "lat": 42.966671}}, {"id": 6440365, "name": "Escos", "state": "", "country": "FR", "coord": {"lon": -1.0, "lat": 43.450001}}, {"id": 6440366, "name": "Escot", "state": "", "country": "FR", "coord": {"lon": -0.6, "lat": 43.083328}}, {"id": 6440367, "name": "Escou", "state": "", "country": "FR", "coord": {"lon": -0.53333, "lat": 43.183331}}, {"id": 6440371, "name": "Esp\u00e9ch\u00e8de", "state": "", "country": "FR", "coord": {"lon": -0.18333, "lat": 43.316669}}, {"id": 6440372, "name": "Espelette", "state": "", "country": "FR", "coord": {"lon": -1.45, "lat": 43.333328}}, {"id": 6440373, "name": "Espiute", "state": "", "country": "FR", "coord": {"lon": -0.91667, "lat": 43.366669}}, {"id": 6440374, "name": "Espoey", "state": "", "country": "FR", "coord": {"lon": -0.16667, "lat": 43.25}}, {"id": 6440375, "name": "Esquiule", "state": "", "country": "FR", "coord": {"lon": -0.71667, "lat": 43.200001}}, {"id": 6440376, "name": "Estialescq", "state": "", "country": "FR", "coord": {"lon": -0.55, "lat": 43.216671}}, {"id": 6440377, "name": "Estos", "state": "", "country": "FR", "coord": {"lon": -0.61667, "lat": 43.216671}}, {"id": 6440378, "name": "Etcharry", "state": "", "country": "FR", "coord": {"lon": -0.9271, "lat": 43.323299}}, {"id": 6440380, "name": "Etsaut", "state": "", "country": "FR", "coord": {"lon": -0.56667, "lat": 42.916672}}, {"id": 6440381, "name": "Eysus", "state": "", "country": "FR", "coord": {"lon": -0.58333, "lat": 43.133331}}, {"id": 6440382, "name": "Ance F\u00e9as", "state": "", "country": "FR", "coord": {"lon": -0.6886, "lat": 43.155899}}, {"id": 6440386, "name": "Gamarthe", "state": "", "country": "FR", "coord": {"lon": -1.13333, "lat": 43.200001}}, {"id": 6440387, "name": "Gan", "state": "", "country": "FR", "coord": {"lon": -0.38333, "lat": 43.23333}}, {"id": 6440389, "name": "Garl\u00e8de-Mondebat", "state": "", "country": "FR", "coord": {"lon": -0.33333, "lat": 43.5}}, {"id": 6440391, "name": "Garos", "state": "", "country": "FR", "coord": {"lon": -0.46667, "lat": 43.5}}, {"id": 6440393, "name": "Gayon", "state": "", "country": "FR", "coord": {"lon": -0.16667, "lat": 43.48333}}, {"id": 6440395, "name": "Gerderest", "state": "", "country": "FR", "coord": {"lon": -0.18333, "lat": 43.416672}}, {"id": 6440396, "name": "G\u00e9ronce", "state": "", "country": "FR", "coord": {"lon": -0.68333, "lat": 43.23333}}, {"id": 6440400, "name": "Gomer", "state": "", "country": "FR", "coord": {"lon": -0.18333, "lat": 43.25}}, {"id": 6440403, "name": "Guiche", "state": "", "country": "FR", "coord": {"lon": -1.2, "lat": 43.51667}}, {"id": 6440404, "name": "Guinarthe-Parenties", "state": "", "country": "FR", "coord": {"lon": -0.95, "lat": 43.383331}}, {"id": 6440405, "name": "Gurmen\u00e7on", "state": "", "country": "FR", "coord": {"lon": -0.6, "lat": 43.150002}}, {"id": 6440406, "name": "Gurs", "state": "", "country": "FR", "coord": {"lon": -0.75, "lat": 43.283329}}, {"id": 6440407, "name": "Hagetaubin", "state": "", "country": "FR", "coord": {"lon": -0.61667, "lat": 43.51667}}, {"id": 6440408, "name": "Halsou", "state": "", "country": "FR", "coord": {"lon": -1.41667, "lat": 43.366669}}, {"id": 6440409, "name": "Hasparren", "state": "", "country": "FR", "coord": {"lon": -1.3, "lat": 43.383331}}, {"id": 6440410, "name": "Haut-de-Bosdarros", "state": "", "country": "FR", "coord": {"lon": -0.3313, "lat": 43.1712}}, {"id": 6440411, "name": "H\u00e9lette", "state": "", "country": "FR", "coord": {"lon": -1.23333, "lat": 43.299999}}, {"id": 6440412, "name": "Herr\u00e8re", "state": "", "country": "FR", "coord": {"lon": -0.53333, "lat": 43.166672}}, {"id": 6440415, "name": "Hours", "state": "", "country": "FR", "coord": {"lon": -0.16667, "lat": 43.23333}}, {"id": 6440417, "name": "Idaux-Mendy", "state": "", "country": "FR", "coord": {"lon": -0.91667, "lat": 43.183331}}, {"id": 6440418, "name": "Idron", "state": "", "country": "FR", "coord": {"lon": -0.31667, "lat": 43.283329}}, {"id": 6440420, "name": "Ilharre", "state": "", "country": "FR", "coord": {"lon": -1.03333, "lat": 43.383331}}, {"id": 6440421, "name": "Irissarry", "state": "", "country": "FR", "coord": {"lon": -1.23333, "lat": 43.26667}}, {"id": 6440422, "name": "Iroul\u00e9guy", "state": "", "country": "FR", "coord": {"lon": -1.3, "lat": 43.183331}}, {"id": 6440423, "name": "Ispoure", "state": "", "country": "FR", "coord": {"lon": -1.23333, "lat": 43.166672}}, {"id": 6440424, "name": "Issor", "state": "", "country": "FR", "coord": {"lon": -0.66667, "lat": 43.099998}}, {"id": 6440425, "name": "Isturits", "state": "", "country": "FR", "coord": {"lon": -1.2, "lat": 43.366669}}, {"id": 6440426, "name": "Itxassou", "state": "", "country": "FR", "coord": {"lon": -1.405, "lat": 43.329601}}, {"id": 6440428, "name": "Jatxou", "state": "", "country": "FR", "coord": {"lon": -1.43333, "lat": 43.383331}}, {"id": 6440430, "name": "Juran\u00e7on", "state": "", "country": "FR", "coord": {"lon": -0.3871, "lat": 43.2873}}, {"id": 6440432, "name": "Labastide-C\u00e9z\u00e9racq", "state": "", "country": "FR", "coord": {"lon": -0.53333, "lat": 43.383331}}, {"id": 6440433, "name": "Labastide-Villefranche", "state": "", "country": "FR", "coord": {"lon": -1.01667, "lat": 43.450001}}, {"id": 6440434, "name": "Labatmale", "state": "", "country": "FR", "coord": {"lon": -0.15, "lat": 43.183331}}, {"id": 6440435, "name": "Labets-Biscay", "state": "", "country": "FR", "coord": {"lon": -1.05, "lat": 43.383331}}, {"id": 6440436, "name": "Labeyrie", "state": "", "country": "FR", "coord": {"lon": -0.61667, "lat": 43.533329}}, {"id": 6440437, "name": "Lacad\u00e9e", "state": "", "country": "FR", "coord": {"lon": -0.65, "lat": 43.533329}}, {"id": 6440439, "name": "Lacarry-Arhan-Charritte-de-Haut", "state": "", "country": "FR", "coord": {"lon": -0.91667, "lat": 43.083328}}, {"id": 6440440, "name": "Lacommande", "state": "", "country": "FR", "coord": {"lon": -0.5, "lat": 43.283329}}, {"id": 6440441, "name": "Lacq", "state": "", "country": "FR", "coord": {"lon": -0.63333, "lat": 43.416672}}, {"id": 6440442, "name": "Lagor", "state": "", "country": "FR", "coord": {"lon": -0.65, "lat": 43.383331}}, {"id": 6440444, "name": "Laguinge-Restoue", "state": "", "country": "FR", "coord": {"lon": -0.85, "lat": 43.099998}}, {"id": 6440445, "name": "Lahonce", "state": "", "country": "FR", "coord": {"lon": -1.38333, "lat": 43.48333}}, {"id": 6440446, "name": "Lahontan", "state": "", "country": "FR", "coord": {"lon": -0.96667, "lat": 43.533329}}, {"id": 6440447, "name": "Lahourcade", "state": "", "country": "FR", "coord": {"lon": -0.61667, "lat": 43.349998}}, {"id": 6440448, "name": "Lalongue", "state": "", "country": "FR", "coord": {"lon": -0.18333, "lat": 43.48333}}, {"id": 6440449, "name": "Lalonquette", "state": "", "country": "FR", "coord": {"lon": -0.31667, "lat": 43.48333}}, {"id": 6440450, "name": "Lamayou", "state": "", "country": "FR", "coord": {"lon": -0.03333, "lat": 43.383331}}, {"id": 6440451, "name": "Lannecaube", "state": "", "country": "FR", "coord": {"lon": -0.21667, "lat": 43.48333}}, {"id": 6440452, "name": "Lantabat", "state": "", "country": "FR", "coord": {"lon": -1.11667, "lat": 43.25}}, {"id": 6440453, "name": "Larceveau-Arros-Cibits", "state": "", "country": "FR", "coord": {"lon": -1.08333, "lat": 43.23333}}, {"id": 6440456, "name": "Larressore", "state": "", "country": "FR", "coord": {"lon": -1.43333, "lat": 43.366669}}, {"id": 6440459, "name": "Lasclaveries", "state": "", "country": "FR", "coord": {"lon": -0.28333, "lat": 43.433331}}, {"id": 6440460, "name": "Lasse", "state": "", "country": "FR", "coord": {"lon": -1.26667, "lat": 43.150002}}, {"id": 6440462, "name": "Lasseubetat", "state": "", "country": "FR", "coord": {"lon": -0.45, "lat": 43.166672}}, {"id": 6440467, "name": "L\u00e9es-Athas", "state": "", "country": "FR", "coord": {"lon": -0.61667, "lat": 42.966671}}, {"id": 6440468, "name": "L\u00e8me", "state": "", "country": "FR", "coord": {"lon": -0.36667, "lat": 43.5}}, {"id": 6440470, "name": "Lespourcy", "state": "", "country": "FR", "coord": {"lon": -0.15, "lat": 43.366669}}, {"id": 6440471, "name": "Lestelle-B\u00e9tharram", "state": "", "country": "FR", "coord": {"lon": -0.21667, "lat": 43.133331}}, {"id": 6440473, "name": "Lichos", "state": "", "country": "FR", "coord": {"lon": -0.86667, "lat": 43.299999}}, {"id": 6440474, "name": "Licq-Ath\u00e9rey", "state": "", "country": "FR", "coord": {"lon": -0.86667, "lat": 43.066669}}, {"id": 6440475, "name": "Limendous", "state": "", "country": "FR", "coord": {"lon": -0.18333, "lat": 43.283329}}, {"id": 6440477, "name": "Lohitzun-Oyhercq", "state": "", "country": "FR", "coord": {"lon": -0.96667, "lat": 43.283329}}, {"id": 6440481, "name": "Loubieng", "state": "", "country": "FR", "coord": {"lon": -0.75, "lat": 43.433331}}, {"id": 6440482, "name": "Louhossoa", "state": "", "country": "FR", "coord": {"lon": -1.35, "lat": 43.316669}}, {"id": 6440486, "name": "Louvie-Soubiron", "state": "", "country": "FR", "coord": {"lon": -0.41748, "lat": 42.998871}}, {"id": 6440488, "name": "Luc-Armau", "state": "", "country": "FR", "coord": {"lon": -0.06667, "lat": 43.416672}}, {"id": 6440490, "name": "Lucgarier", "state": "", "country": "FR", "coord": {"lon": -0.18333, "lat": 43.23333}}, {"id": 6440491, "name": "Lucq-de-B\u00e9arn", "state": "", "country": "FR", "coord": {"lon": -0.658, "lat": 43.2873}}, {"id": 6440493, "name": "Lussagnet-Lusson", "state": "", "country": "FR", "coord": {"lon": -0.2, "lat": 43.433331}}, {"id": 6440496, "name": "Macaye", "state": "", "country": "FR", "coord": {"lon": -1.31667, "lat": 43.333328}}, {"id": 6440497, "name": "Malaussanne", "state": "", "country": "FR", "coord": {"lon": -0.46667, "lat": 43.566669}}, {"id": 6440498, "name": "Maslacq", "state": "", "country": "FR", "coord": {"lon": -0.7, "lat": 43.433331}}, {"id": 6440499, "name": "Masparraute", "state": "", "country": "FR", "coord": {"lon": -1.08333, "lat": 43.383331}}, {"id": 6440500, "name": "Maspie-Lalonqu\u00e8re-Juillacq", "state": "", "country": "FR", "coord": {"lon": -0.15, "lat": 43.416672}}, {"id": 6440503, "name": "Maz\u00e8res-Lezons", "state": "", "country": "FR", "coord": {"lon": -0.352, "lat": 43.277401}}, {"id": 6440504, "name": "M\u00e9harin", "state": "", "country": "FR", "coord": {"lon": -1.15, "lat": 43.333328}}, {"id": 6440505, "name": "Meillon", "state": "", "country": "FR", "coord": {"lon": -0.31667, "lat": 43.26667}}, {"id": 6440506, "name": "Mendionde", "state": "", "country": "FR", "coord": {"lon": -1.3, "lat": 43.349998}}, {"id": 6440507, "name": "Menditte", "state": "", "country": "FR", "coord": {"lon": -0.9, "lat": 43.166672}}, {"id": 6440508, "name": "Mendive", "state": "", "country": "FR", "coord": {"lon": -1.13333, "lat": 43.133331}}, {"id": 6440509, "name": "M\u00e9racq", "state": "", "country": "FR", "coord": {"lon": -0.38333, "lat": 43.51667}}, {"id": 6440510, "name": "M\u00e9ritein", "state": "", "country": "FR", "coord": {"lon": -0.76667, "lat": 43.333328}}, {"id": 6440511, "name": "Mespl\u00e8de", "state": "", "country": "FR", "coord": {"lon": -0.6589, "lat": 43.494301}}, {"id": 6440513, "name": "Miossens-Lanusse", "state": "", "country": "FR", "coord": {"lon": -0.3, "lat": 43.466671}}, {"id": 6440514, "name": "Momas", "state": "", "country": "FR", "coord": {"lon": -0.43333, "lat": 43.450001}}, {"id": 6440515, "name": "Momy", "state": "", "country": "FR", "coord": {"lon": -0.11667, "lat": 43.400002}}, {"id": 6440516, "name": "Monassut-Audiracq", "state": "", "country": "FR", "coord": {"lon": -0.2, "lat": 43.416672}}, {"id": 6440521, "name": "Montardon", "state": "", "country": "FR", "coord": {"lon": -0.35, "lat": 43.366669}}, {"id": 6440522, "name": "Mont-Disse", "state": "", "country": "FR", "coord": {"lon": -0.15, "lat": 43.566669}}, {"id": 6440523, "name": "Montory", "state": "", "country": "FR", "coord": {"lon": -0.81667, "lat": 43.099998}}, {"id": 6440524, "name": "Morlanne", "state": "", "country": "FR", "coord": {"lon": -0.53333, "lat": 43.51667}}, {"id": 6440525, "name": "Mouguerre", "state": "", "country": "FR", "coord": {"lon": -1.41667, "lat": 43.466671}}, {"id": 6440528, "name": "Mourenx", "state": "", "country": "FR", "coord": {"lon": -0.6, "lat": 43.383331}}, {"id": 6440531, "name": "Narcastet", "state": "", "country": "FR", "coord": {"lon": -0.31667, "lat": 43.25}}, {"id": 6440533, "name": "Navailles-Angos", "state": "", "country": "FR", "coord": {"lon": -0.33333, "lat": 43.416672}}, {"id": 6440535, "name": "Nousty", "state": "", "country": "FR", "coord": {"lon": -0.21667, "lat": 43.26667}}, {"id": 6440536, "name": "Ogenne-Camptort", "state": "", "country": "FR", "coord": {"lon": -0.7, "lat": 43.316669}}, {"id": 6440537, "name": "Ogeu-les-Bains", "state": "", "country": "FR", "coord": {"lon": -0.5, "lat": 43.150002}}, {"id": 6440538, "name": "Oloron-Sainte-Marie", "state": "", "country": "FR", "coord": {"lon": -0.61069, "lat": 43.194408}}, {"id": 6440539, "name": "Ordiarp", "state": "", "country": "FR", "coord": {"lon": -0.93333, "lat": 43.183331}}, {"id": 6440540, "name": "Or\u00e8gue", "state": "", "country": "FR", "coord": {"lon": -1.13333, "lat": 43.400002}}, {"id": 6440542, "name": "Orion", "state": "", "country": "FR", "coord": {"lon": -0.86667, "lat": 43.416672}}, {"id": 6440544, "name": "Orsanco", "state": "", "country": "FR", "coord": {"lon": -1.06667, "lat": 43.299999}}, {"id": 6440545, "name": "Orthez", "state": "", "country": "FR", "coord": {"lon": -0.76667, "lat": 43.48333}}, {"id": 6440546, "name": "Os-Marsillon", "state": "", "country": "FR", "coord": {"lon": -0.61667, "lat": 43.383331}}, {"id": 6440548, "name": "Osse-en-Aspe", "state": "", "country": "FR", "coord": {"lon": -0.61652, "lat": 42.995041}}, {"id": 6440551, "name": "Oss\u00e8s", "state": "", "country": "FR", "coord": {"lon": -1.28333, "lat": 43.23333}}, {"id": 6440552, "name": "Ostabat-Asme", "state": "", "country": "FR", "coord": {"lon": -1.06667, "lat": 43.25}}, {"id": 6440553, "name": "Ouillon", "state": "", "country": "FR", "coord": {"lon": -0.23333, "lat": 43.316669}}, {"id": 6440554, "name": "Pagolle", "state": "", "country": "FR", "coord": {"lon": -0.98333, "lat": 43.23333}}, {"id": 6440555, "name": "Parbayse", "state": "", "country": "FR", "coord": {"lon": -0.55, "lat": 43.333328}}, {"id": 6440556, "name": "Pardies-Pi\u00e9tat", "state": "", "country": "FR", "coord": {"lon": -0.3, "lat": 43.216671}}, {"id": 6440557, "name": "Pau", "state": "", "country": "FR", "coord": {"lon": -0.36667, "lat": 43.299999}}, {"id": 6440559, "name": "Piets-Plasence-Moustrou", "state": "", "country": "FR", "coord": {"lon": -0.5, "lat": 43.51667}}, {"id": 6440560, "name": "Poey-de-Lescar", "state": "", "country": "FR", "coord": {"lon": -0.46667, "lat": 43.349998}}, {"id": 6440562, "name": "Pomps", "state": "", "country": "FR", "coord": {"lon": -0.53333, "lat": 43.5}}, {"id": 6440566, "name": "Pontiacq-Viellepinte", "state": "", "country": "FR", "coord": {"lon": -0.05, "lat": 43.366669}}, {"id": 6440570, "name": "Pr\u00e9chacq-Josbaig", "state": "", "country": "FR", "coord": {"lon": -0.71667, "lat": 43.26667}}, {"id": 6440571, "name": "Pr\u00e9chacq-Navarrenx", "state": "", "country": "FR", "coord": {"lon": -0.71667, "lat": 43.283329}}, {"id": 6440572, "name": "Pr\u00e9cilhon", "state": "", "country": "FR", "coord": {"lon": -0.58333, "lat": 43.200001}}, {"id": 6440573, "name": "Puyo\u00f4", "state": "", "country": "FR", "coord": {"lon": -0.91667, "lat": 43.533329}}, {"id": 6440574, "name": "Ramous", "state": "", "country": "FR", "coord": {"lon": -0.9, "lat": 43.51667}}, {"id": 6440575, "name": "R\u00e9b\u00e9nacq", "state": "", "country": "FR", "coord": {"lon": -0.38333, "lat": 43.166672}}, {"id": 6440580, "name": "Roquiague", "state": "", "country": "FR", "coord": {"lon": -0.83333, "lat": 43.200001}}, {"id": 6440581, "name": "Saint-Abit", "state": "", "country": "FR", "coord": {"lon": -0.3, "lat": 43.200001}}, {"id": 6440582, "name": "Saint-Armou", "state": "", "country": "FR", "coord": {"lon": -0.3, "lat": 43.416672}}, {"id": 6440584, "name": "Saint-Castin", "state": "", "country": "FR", "coord": {"lon": -0.3, "lat": 43.383331}}, {"id": 6440587, "name": "Sainte-Engr\u00e2ce", "state": "", "country": "FR", "coord": {"lon": -0.8533, "lat": 43.013699}}, {"id": 6440588, "name": "Saint-Esteben", "state": "", "country": "FR", "coord": {"lon": -1.21667, "lat": 43.333328}}, {"id": 6440589, "name": "Saint-\u00c9tienne-de-Ba\u00efgorry", "state": "", "country": "FR", "coord": {"lon": -1.35, "lat": 43.166672}}, {"id": 6440590, "name": "Saint-Faust", "state": "", "country": "FR", "coord": {"lon": -0.45, "lat": 43.26667}}, {"id": 6440592, "name": "Saint-Goin", "state": "", "country": "FR", "coord": {"lon": -0.7, "lat": 43.25}}, {"id": 6440594, "name": "Saint-Jean-de-Luz", "state": "", "country": "FR", "coord": {"lon": -1.66667, "lat": 43.383331}}, {"id": 6440596, "name": "Saint-Jean-Pied-de-Port", "state": "", "country": "FR", "coord": {"lon": -1.23333, "lat": 43.166672}}, {"id": 6440600, "name": "Saint-Martin-d'Arberoue", "state": "", "country": "FR", "coord": {"lon": -1.2, "lat": 43.349998}}, {"id": 6440601, "name": "Saint-Martin-d'Arrossa", "state": "", "country": "FR", "coord": {"lon": -1.31667, "lat": 43.23333}}, {"id": 6440602, "name": "Saint-P\u00e9-de-L\u00e9ren", "state": "", "country": "FR", "coord": {"lon": -1.03333, "lat": 43.48333}}, {"id": 6440603, "name": "Saint-P\u00e9e-sur-Nivelle", "state": "", "country": "FR", "coord": {"lon": -1.55, "lat": 43.349998}}, {"id": 6440605, "name": "Salies-de-B\u00e9arn", "state": "", "country": "FR", "coord": {"lon": -0.9253, "lat": 43.470901}}, {"id": 6440606, "name": "Salles-Mongiscard", "state": "", "country": "FR", "coord": {"lon": -0.83333, "lat": 43.5}}, {"id": 6440607, "name": "Sallespisse", "state": "", "country": "FR", "coord": {"lon": -0.71667, "lat": 43.533329}}, {"id": 6440610, "name": "Sare", "state": "", "country": "FR", "coord": {"lon": -1.58333, "lat": 43.316669}}, {"id": 6440612, "name": "Sarrance", "state": "", "country": "FR", "coord": {"lon": -0.60073, "lat": 43.051331}}, {"id": 6440614, "name": "Sauc\u00e8de", "state": "", "country": "FR", "coord": {"lon": -0.68333, "lat": 43.26667}}, {"id": 6440616, "name": "Sault-de-Navailles", "state": "", "country": "FR", "coord": {"lon": -0.66667, "lat": 43.549999}}, {"id": 6440617, "name": "Sauvagnon", "state": "", "country": "FR", "coord": {"lon": -0.38333, "lat": 43.400002}}, {"id": 6440618, "name": "Sauvelade", "state": "", "country": "FR", "coord": {"lon": -0.7, "lat": 43.400002}}, {"id": 6440619, "name": "S\u00e9by", "state": "", "country": "FR", "coord": {"lon": -0.4, "lat": 43.48333}}, {"id": 6440621, "name": "Sedz\u00e8re", "state": "", "country": "FR", "coord": {"lon": -0.16667, "lat": 43.349998}}, {"id": 6440623, "name": "Serres-Castet", "state": "", "country": "FR", "coord": {"lon": -0.35, "lat": 43.383331}}, {"id": 6440624, "name": "Serres-Sainte-Marie", "state": "", "country": "FR", "coord": {"lon": -0.55, "lat": 43.416672}}, {"id": 6440625, "name": "S\u00e9vignacq-Meyracq", "state": "", "country": "FR", "coord": {"lon": -0.41242, "lat": 43.113731}}, {"id": 6440626, "name": "Simacourbe", "state": "", "country": "FR", "coord": {"lon": -0.16667, "lat": 43.450001}}, {"id": 6440628, "name": "Soumoulou", "state": "", "country": "FR", "coord": {"lon": -0.18333, "lat": 43.26667}}, {"id": 6440629, "name": "Soura\u00efde", "state": "", "country": "FR", "coord": {"lon": -1.46667, "lat": 43.349998}}, {"id": 6440630, "name": "Suhescun", "state": "", "country": "FR", "coord": {"lon": -1.2, "lat": 43.23333}}, {"id": 6440635, "name": "Tardets-Sorholus", "state": "", "country": "FR", "coord": {"lon": -0.85, "lat": 43.116669}}, {"id": 6440636, "name": "Taron-Sadirac-Viellenave", "state": "", "country": "FR", "coord": {"lon": -0.25, "lat": 43.51667}}, {"id": 6440637, "name": "Tarsacq", "state": "", "country": "FR", "coord": {"lon": -0.53333, "lat": 43.349998}}, {"id": 6440638, "name": "Trois-Villes", "state": "", "country": "FR", "coord": {"lon": -0.86667, "lat": 43.133331}}, {"id": 6440639, "name": "Uhart-Cize", "state": "", "country": "FR", "coord": {"lon": -1.23333, "lat": 43.166672}}, {"id": 6440641, "name": "Urcuit", "state": "", "country": "FR", "coord": {"lon": -1.33333, "lat": 43.48333}}, {"id": 6440642, "name": "Urd\u00e8s", "state": "", "country": "FR", "coord": {"lon": -0.58333, "lat": 43.450001}}, {"id": 6440643, "name": "Urdos", "state": "", "country": "FR", "coord": {"lon": -0.55, "lat": 42.866669}}, {"id": 6440644, "name": "Urepel", "state": "", "country": "FR", "coord": {"lon": -1.41667, "lat": 43.066669}}, {"id": 6440646, "name": "Urrugne", "state": "", "country": "FR", "coord": {"lon": -1.7, "lat": 43.366669}}, {"id": 6440647, "name": "Urt", "state": "", "country": "FR", "coord": {"lon": -1.28333, "lat": 43.5}}, {"id": 6440648, "name": "Ustaritz", "state": "", "country": "FR", "coord": {"lon": -1.45, "lat": 43.400002}}, {"id": 6440649, "name": "Uzan", "state": "", "country": "FR", "coord": {"lon": -0.5, "lat": 43.48333}}, {"id": 6440650, "name": "Uzein", "state": "", "country": "FR", "coord": {"lon": -0.43333, "lat": 43.400002}}, {"id": 6440651, "name": "Uzos", "state": "", "country": "FR", "coord": {"lon": -0.33333, "lat": 43.26667}}, {"id": 6440652, "name": "Verdets", "state": "", "country": "FR", "coord": {"lon": -0.65, "lat": 43.23333}}, {"id": 6440653, "name": "Vialer", "state": "", "country": "FR", "coord": {"lon": -0.16667, "lat": 43.5}}, {"id": 6440654, "name": "Viellenave-d'Arthez", "state": "", "country": "FR", "coord": {"lon": -0.48333, "lat": 43.416672}}, {"id": 6440656, "name": "Vielles\u00e9gure", "state": "", "country": "FR", "coord": {"lon": -0.68333, "lat": 43.349998}}, {"id": 6440657, "name": "Villefranque", "state": "", "country": "FR", "coord": {"lon": -1.45, "lat": 43.433331}}, {"id": 6440659, "name": "Viven", "state": "", "country": "FR", "coord": {"lon": -0.36667, "lat": 43.466671}}, {"id": 6440811, "name": "Louey", "state": "", "country": "FR", "coord": {"lon": 0.01667, "lat": 43.183331}}, {"id": 6440844, "name": "Odos", "state": "", "country": "FR", "coord": {"lon": 0.05, "lat": 43.200001}}, {"id": 6440853, "name": "Orleix", "state": "", "country": "FR", "coord": {"lon": 0.11667, "lat": 43.283329}}, {"id": 6440861, "name": "Oursbelille", "state": "", "country": "FR", "coord": {"lon": 0.03333, "lat": 43.283329}}, {"id": 6440873, "name": "Pierrefitte-Nestalas", "state": "", "country": "FR", "coord": {"lon": -0.06667, "lat": 42.966671}}, {"id": 6440879, "name": "Pouzac", "state": "", "country": "FR", "coord": {"lon": 0.13333, "lat": 43.083328}}, {"id": 6440883, "name": "Rabastens-de-Bigorre", "state": "", "country": "FR", "coord": {"lon": 0.15, "lat": 43.383331}}, {"id": 6440893, "name": "Saint-Lary-Soulan", "state": "", "country": "FR", "coord": {"lon": 0.32238, "lat": 42.817131}}, {"id": 6440896, "name": "Saint-P\u00e9-de-Bigorre", "state": "", "country": "FR", "coord": {"lon": -0.1585, "lat": 43.101898}}, {"id": 6440898, "name": "Saint-Sever-de-Rustan", "state": "", "country": "FR", "coord": {"lon": 0.23333, "lat": 43.349998}}, {"id": 6440916, "name": "S\u00e9m\u00e9ac", "state": "", "country": "FR", "coord": {"lon": 0.11667, "lat": 43.23333}}, {"id": 6440932, "name": "Soues", "state": "", "country": "FR", "coord": {"lon": 0.1, "lat": 43.200001}}, {"id": 6440938, "name": "Tarbes", "state": "", "country": "FR", "coord": {"lon": 0.08333, "lat": 43.23333}}, {"id": 6440945, "name": "Tournay", "state": "", "country": "FR", "coord": {"lon": 0.25, "lat": 43.183331}}, {"id": 6440978, "name": "Millas", "state": "", "country": "FR", "coord": {"lon": 2.7, "lat": 42.700001}}, {"id": 6440981, "name": "Montescot", "state": "", "country": "FR", "coord": {"lon": 2.93333, "lat": 42.616669}}, {"id": 6440991, "name": "Ortaffa", "state": "", "country": "FR", "coord": {"lon": 2.93333, "lat": 42.583328}}, {"id": 6440992, "name": "Oss\u00e9ja", "state": "", "country": "FR", "coord": {"lon": 1.98192, "lat": 42.41383}}, {"id": 6440994, "name": "Palau-del-Vidre", "state": "", "country": "FR", "coord": {"lon": 2.96667, "lat": 42.566669}}, {"id": 6440996, "name": "Perpignan", "state": "", "country": "FR", "coord": {"lon": 2.89541, "lat": 42.697639}}, {"id": 6440997, "name": "Peyrestortes", "state": "", "country": "FR", "coord": {"lon": 2.85, "lat": 42.75}}, {"id": 6440999, "name": "P\u00e9zilla-la-Rivi\u00e8re", "state": "", "country": "FR", "coord": {"lon": 2.76667, "lat": 42.700001}}, {"id": 6441000, "name": "Pia", "state": "", "country": "FR", "coord": {"lon": 2.91667, "lat": 42.75}}, {"id": 6441002, "name": "Pollestres", "state": "", "country": "FR", "coord": {"lon": 2.86667, "lat": 42.633331}}, {"id": 6441003, "name": "Ponteilla", "state": "", "country": "FR", "coord": {"lon": 2.81667, "lat": 42.633331}}, {"id": 6441006, "name": "Prats-de-Mollo-la-Preste", "state": "", "country": "FR", "coord": {"lon": 2.477, "lat": 42.404949}}, {"id": 6441015, "name": "Reyn\u00e8s", "state": "", "country": "FR", "coord": {"lon": 2.70998, "lat": 42.475311}}, {"id": 6441017, "name": "Rivesaltes", "state": "", "country": "FR", "coord": {"lon": 2.86667, "lat": 42.76667}}, {"id": 6441022, "name": "Saint-Est\u00e8ve", "state": "", "country": "FR", "coord": {"lon": 2.843, "lat": 42.7131}}, {"id": 6441026, "name": "Saint-Laurent-de-la-Salanque", "state": "", "country": "FR", "coord": {"lon": 2.98333, "lat": 42.76667}}, {"id": 6441030, "name": "Saint-Paul-de-Fenouillet", "state": "", "country": "FR", "coord": {"lon": 2.5, "lat": 42.816669}}, {"id": 6441032, "name": "Saleilles", "state": "", "country": "FR", "coord": {"lon": 2.95, "lat": 42.650002}}, {"id": 6441044, "name": "Th\u00e9za", "state": "", "country": "FR", "coord": {"lon": 2.95, "lat": 42.633331}}, {"id": 6441045, "name": "Thuir", "state": "", "country": "FR", "coord": {"lon": 2.75, "lat": 42.633331}}, {"id": 6441047, "name": "Torreilles", "state": "", "country": "FR", "coord": {"lon": 2.98333, "lat": 42.75}}, {"id": 6441048, "name": "Toulouges", "state": "", "country": "FR", "coord": {"lon": 2.83333, "lat": 42.666672}}, {"id": 6441052, "name": "Trouillas", "state": "", "country": "FR", "coord": {"lon": 2.81667, "lat": 42.616669}}, {"id": 6441057, "name": "Vernet-les-Bains", "state": "", "country": "FR", "coord": {"lon": 2.38333, "lat": 42.549999}}, {"id": 6441059, "name": "Villelongue-de-la-Salanque", "state": "", "country": "FR", "coord": {"lon": 2.98333, "lat": 42.73333}}, {"id": 6441060, "name": "Villemolaque", "state": "", "country": "FR", "coord": {"lon": 2.83333, "lat": 42.583328}}, {"id": 6441061, "name": "Villeneuve-de-la-Raho", "state": "", "country": "FR", "coord": {"lon": 2.91667, "lat": 42.633331}}, {"id": 6441062, "name": "Villeneuve-la-Rivi\u00e8re", "state": "", "country": "FR", "coord": {"lon": 2.8, "lat": 42.700001}}, {"id": 6441063, "name": "Vin\u00e7a", "state": "", "country": "FR", "coord": {"lon": 2.53333, "lat": 42.650002}}, {"id": 6441085, "name": "Entzheim", "state": "", "country": "FR", "coord": {"lon": 7.63333, "lat": 48.533329}}, {"id": 6441131, "name": "Haguenau", "state": "", "country": "FR", "coord": {"lon": 7.78913, "lat": 48.815681}}, {"id": 6441162, "name": "Illkirch-Graffenstaden", "state": "", "country": "FR", "coord": {"lon": 7.71661, "lat": 48.529388}}, {"id": 6441200, "name": "Lingolsheim", "state": "", "country": "FR", "coord": {"lon": 7.68253, "lat": 48.55838}}, {"id": 6441209, "name": "Lutzelhouse", "state": "", "country": "FR", "coord": {"lon": 7.28333, "lat": 48.51667}}, {"id": 6441226, "name": "Mittelhausbergen", "state": "", "country": "FR", "coord": {"lon": 7.6894, "lat": 48.614021}}, {"id": 6441230, "name": "Mommenheim", "state": "", "country": "FR", "coord": {"lon": 7.65, "lat": 48.75}}, {"id": 6441231, "name": "Monswiller", "state": "", "country": "FR", "coord": {"lon": 7.37818, "lat": 48.75523}}, {"id": 6441235, "name": "Mundolsheim", "state": "", "country": "FR", "coord": {"lon": 7.71489, "lat": 48.641979}}, {"id": 6441236, "name": "Mussig", "state": "", "country": "FR", "coord": {"lon": 7.51963, "lat": 48.229359}}, {"id": 6441237, "name": "Muttersholtz", "state": "", "country": "FR", "coord": {"lon": 7.53333, "lat": 48.26667}}, {"id": 6441239, "name": "Mutzig", "state": "", "country": "FR", "coord": {"lon": 7.45482, "lat": 48.53957}}, {"id": 6441240, "name": "Natzwiller", "state": "", "country": "FR", "coord": {"lon": 7.25, "lat": 48.433331}}, {"id": 6441244, "name": "Neuwiller-l\u00e8s-Saverne", "state": "", "country": "FR", "coord": {"lon": 7.40418, "lat": 48.824551}}, {"id": 6441245, "name": "Niederbronn-les-Bains", "state": "", "country": "FR", "coord": {"lon": 7.64194, "lat": 48.95137}}, {"id": 6441246, "name": "Niederhaslach", "state": "", "country": "FR", "coord": {"lon": 7.34144, "lat": 48.542519}}, {"id": 6441247, "name": "Niederhausbergen", "state": "", "country": "FR", "coord": {"lon": 7.70133, "lat": 48.623829}}, {"id": 6441250, "name": "Niedernai", "state": "", "country": "FR", "coord": {"lon": 7.51667, "lat": 48.450001}}, {"id": 6441251, "name": "Niederschaeffolsheim", "state": "", "country": "FR", "coord": {"lon": 7.73333, "lat": 48.76667}}, {"id": 6441253, "name": "Niedersteinbach", "state": "", "country": "FR", "coord": {"lon": 7.71667, "lat": 49.033329}}, {"id": 6441255, "name": "Nordhouse", "state": "", "country": "FR", "coord": {"lon": 7.67189, "lat": 48.448109}}, {"id": 6441257, "name": "Obenheim", "state": "", "country": "FR", "coord": {"lon": 7.7, "lat": 48.366669}}, {"id": 6441258, "name": "Oberbronn", "state": "", "country": "FR", "coord": {"lon": 7.60726, "lat": 48.940659}}, {"id": 6441260, "name": "Oberhaslach", "state": "", "country": "FR", "coord": {"lon": 7.33131, "lat": 48.550758}}, {"id": 6441261, "name": "Oberhausbergen", "state": "", "country": "FR", "coord": {"lon": 7.68605, "lat": 48.605389}}, {"id": 6441263, "name": "Oberhoffen-sur-Moder", "state": "", "country": "FR", "coord": {"lon": 7.86667, "lat": 48.783329}}, {"id": 6441265, "name": "Obernai", "state": "", "country": "FR", "coord": {"lon": 7.48392, "lat": 48.463131}}, {"id": 6441266, "name": "Oberschaeffolsheim", "state": "", "country": "FR", "coord": {"lon": 7.64906, "lat": 48.586491}}, {"id": 6441270, "name": "Oermingen", "state": "", "country": "FR", "coord": {"lon": 7.11667, "lat": 49.0}}, {"id": 6441273, "name": "Ohlungen", "state": "", "country": "FR", "coord": {"lon": 7.7, "lat": 48.816669}}, {"id": 6441279, "name": "Ostwald", "state": "", "country": "FR", "coord": {"lon": 7.70966, "lat": 48.54446}}, {"id": 6441281, "name": "Otterswiller", "state": "", "country": "FR", "coord": {"lon": 7.37809, "lat": 48.725281}}, {"id": 6441282, "name": "Ottrott", "state": "", "country": "FR", "coord": {"lon": 7.42504, "lat": 48.456081}}, {"id": 6441285, "name": "Val-de-Moder", "state": "", "country": "FR", "coord": {"lon": 7.61667, "lat": 48.849998}}, {"id": 6441288, "name": "Pfulgriesheim", "state": "", "country": "FR", "coord": {"lon": 7.67035, "lat": 48.643909}}, {"id": 6441289, "name": "Plobsheim", "state": "", "country": "FR", "coord": {"lon": 7.72408, "lat": 48.469849}}, {"id": 6441297, "name": "Reichshoffen", "state": "", "country": "FR", "coord": {"lon": 7.66667, "lat": 48.933331}}, {"id": 6441298, "name": "Reichstett", "state": "", "country": "FR", "coord": {"lon": 7.75352, "lat": 48.648621}}, {"id": 6441304, "name": "Rhinau", "state": "", "country": "FR", "coord": {"lon": 7.7, "lat": 48.316669}}, {"id": 6441313, "name": "Romanswiller", "state": "", "country": "FR", "coord": {"lon": 7.40796, "lat": 48.645439}}, {"id": 6441315, "name": "Rosheim", "state": "", "country": "FR", "coord": {"lon": 7.47216, "lat": 48.497269}}, {"id": 6441318, "name": "Rothau", "state": "", "country": "FR", "coord": {"lon": 7.20832, "lat": 48.456421}}, {"id": 6441323, "name": "Russ", "state": "", "country": "FR", "coord": {"lon": 7.25, "lat": 48.5}}, {"id": 6441335, "name": "Sand", "state": "", "country": "FR", "coord": {"lon": 7.61667, "lat": 48.383331}}, {"id": 6441336, "name": "Sarre-Union", "state": "", "country": "FR", "coord": {"lon": 7.09528, "lat": 48.93784}}, {"id": 6441337, "name": "Sarrewerden", "state": "", "country": "FR", "coord": {"lon": 7.08258, "lat": 48.92318}}, {"id": 6441343, "name": "Scheibenhard", "state": "", "country": "FR", "coord": {"lon": 8.13333, "lat": 48.98333}}, {"id": 6441345, "name": "Scherwiller", "state": "", "country": "FR", "coord": {"lon": 7.42229, "lat": 48.286961}}, {"id": 6441347, "name": "Schiltigheim", "state": "", "country": "FR", "coord": {"lon": 7.7512, "lat": 48.607151}}, {"id": 6441348, "name": "Schirmeck", "state": "", "country": "FR", "coord": {"lon": 7.21667, "lat": 48.48333}}, {"id": 6441352, "name": "Schnersheim", "state": "", "country": "FR", "coord": {"lon": 7.56615, "lat": 48.657349}}, {"id": 6441354, "name": "Schwindratzheim", "state": "", "country": "FR", "coord": {"lon": 7.59855, "lat": 48.75576}}, {"id": 6441356, "name": "S\u00e9lestat", "state": "", "country": "FR", "coord": {"lon": 7.45646, "lat": 48.25983}}, {"id": 6441364, "name": "Souffelweyersheim", "state": "", "country": "FR", "coord": {"lon": 7.74038, "lat": 48.63546}}, {"id": 6441365, "name": "Soufflenheim", "state": "", "country": "FR", "coord": {"lon": 7.96492, "lat": 48.830601}}, {"id": 6441367, "name": "Soultz-sous-For\u00eats", "state": "", "country": "FR", "coord": {"lon": 7.88333, "lat": 48.933331}}, {"id": 6441371, "name": "Steinbourg", "state": "", "country": "FR", "coord": {"lon": 7.41277, "lat": 48.770111}}, {"id": 6441373, "name": "Still", "state": "", "country": "FR", "coord": {"lon": 7.40388, "lat": 48.550018}}, {"id": 6441374, "name": "Stotzheim", "state": "", "country": "FR", "coord": {"lon": 7.48333, "lat": 48.383331}}, {"id": 6441375, "name": "Strasbourg", "state": "", "country": "FR", "coord": {"lon": 7.75, "lat": 48.583328}}, {"id": 6441377, "name": "Sundhouse", "state": "", "country": "FR", "coord": {"lon": 7.6, "lat": 48.25}}, {"id": 6441378, "name": "Surbourg", "state": "", "country": "FR", "coord": {"lon": 7.84887, "lat": 48.909981}}, {"id": 6441384, "name": "Truchtersheim", "state": "", "country": "FR", "coord": {"lon": 7.60614, "lat": 48.66325}}, {"id": 6441385, "name": "Uberach", "state": "", "country": "FR", "coord": {"lon": 7.63333, "lat": 48.849998}}, {"id": 6441389, "name": "Urmatt", "state": "", "country": "FR", "coord": {"lon": 7.32668, "lat": 48.52758}}, {"id": 6441393, "name": "Valff", "state": "", "country": "FR", "coord": {"lon": 7.51667, "lat": 48.416672}}, {"id": 6441394, "name": "Vendenheim", "state": "", "country": "FR", "coord": {"lon": 7.71034, "lat": 48.66914}}, {"id": 6441397, "name": "Walbourg", "state": "", "country": "FR", "coord": {"lon": 7.78965, "lat": 48.88662}}, {"id": 6441403, "name": "Wasselonne", "state": "", "country": "FR", "coord": {"lon": 7.45, "lat": 48.633331}}, {"id": 6441406, "name": "Weitbruch", "state": "", "country": "FR", "coord": {"lon": 7.77849, "lat": 48.754551}}, {"id": 6441408, "name": "Westhoffen", "state": "", "country": "FR", "coord": {"lon": 7.44392, "lat": 48.60318}}, {"id": 6441410, "name": "Weyersheim", "state": "", "country": "FR", "coord": {"lon": 7.8, "lat": 48.716671}}, {"id": 6441414, "name": "Wimmenau", "state": "", "country": "FR", "coord": {"lon": 7.41667, "lat": 48.916672}}, {"id": 6441417, "name": "Wingersheim les Quatre Bans", "state": "", "country": "FR", "coord": {"lon": 7.63395, "lat": 48.721722}}, {"id": 6441421, "name": "Wisches", "state": "", "country": "FR", "coord": {"lon": 7.26917, "lat": 48.50864}}, {"id": 6441424, "name": "Wittisheim", "state": "", "country": "FR", "coord": {"lon": 7.58333, "lat": 48.26667}}, {"id": 6441426, "name": "Wolfisheim", "state": "", "country": "FR", "coord": {"lon": 7.6682, "lat": 48.587109}}, {"id": 6441437, "name": "Geishouse", "state": "", "country": "FR", "coord": {"lon": 7.06667, "lat": 47.883331}}, {"id": 6441452, "name": "Hagenthal-le-Bas", "state": "", "country": "FR", "coord": {"lon": 7.46667, "lat": 47.51667}}, {"id": 6441466, "name": "H\u00e9singue", "state": "", "country": "FR", "coord": {"lon": 7.51667, "lat": 47.583328}}, {"id": 6441471, "name": "Hirtzfelden", "state": "", "country": "FR", "coord": {"lon": 7.45, "lat": 47.916672}}, {"id": 6441484, "name": "Illzach", "state": "", "country": "FR", "coord": {"lon": 7.33333, "lat": 47.783329}}, {"id": 6441536, "name": "Moosch", "state": "", "country": "FR", "coord": {"lon": 7.03333, "lat": 47.866669}}, {"id": 6441537, "name": "Morschwiller-le-Bas", "state": "", "country": "FR", "coord": {"lon": 7.271, "lat": 47.736}}, {"id": 6441541, "name": "Mulhouse", "state": "", "country": "FR", "coord": {"lon": 7.33333, "lat": 47.75}}, {"id": 6441546, "name": "Neuf-Brisach", "state": "", "country": "FR", "coord": {"lon": 7.52838, "lat": 48.017658}}, {"id": 6441554, "name": "Oberhergheim", "state": "", "country": "FR", "coord": {"lon": 7.4, "lat": 47.966671}}, {"id": 6441559, "name": "Oderen", "state": "", "country": "FR", "coord": {"lon": 6.98333, "lat": 47.916672}}, {"id": 6441561, "name": "Orbey", "state": "", "country": "FR", "coord": {"lon": 7.16386, "lat": 48.126968}}, {"id": 6441563, "name": "Ostheim", "state": "", "country": "FR", "coord": {"lon": 7.36667, "lat": 48.150002}}, {"id": 6441564, "name": "Ottmarsheim", "state": "", "country": "FR", "coord": {"lon": 7.5, "lat": 47.783329}}, {"id": 6441566, "name": "Pfaffenheim", "state": "", "country": "FR", "coord": {"lon": 7.28333, "lat": 47.98333}}, {"id": 6441567, "name": "Pfastatt", "state": "", "country": "FR", "coord": {"lon": 7.3025, "lat": 47.769299}}, {"id": 6441568, "name": "Pfetterhouse", "state": "", "country": "FR", "coord": {"lon": 7.16667, "lat": 47.5}}, {"id": 6441569, "name": "Pulversheim", "state": "", "country": "FR", "coord": {"lon": 7.3023, "lat": 47.837929}}, {"id": 6441571, "name": "Raedersheim", "state": "", "country": "FR", "coord": {"lon": 7.28136, "lat": 47.889179}}, {"id": 6441576, "name": "Reiningue", "state": "", "country": "FR", "coord": {"lon": 7.23333, "lat": 47.75}}, {"id": 6441578, "name": "Ribeauvill\u00e9", "state": "", "country": "FR", "coord": {"lon": 7.31853, "lat": 48.195332}}, {"id": 6441579, "name": "Richwiller", "state": "", "country": "FR", "coord": {"lon": 7.28333, "lat": 47.783329}}, {"id": 6441580, "name": "Riedisheim", "state": "", "country": "FR", "coord": {"lon": 7.36667, "lat": 47.75}}, {"id": 6441586, "name": "Riquewihr", "state": "", "country": "FR", "coord": {"lon": 7.2978, "lat": 48.166801}}, {"id": 6441587, "name": "Rixheim", "state": "", "country": "FR", "coord": {"lon": 7.4051, "lat": 47.7486}}, {"id": 6441595, "name": "Rosenau", "state": "", "country": "FR", "coord": {"lon": 7.53333, "lat": 47.633331}}, {"id": 6441596, "name": "Rouffach", "state": "", "country": "FR", "coord": {"lon": 7.2993, "lat": 47.95763}}, {"id": 6441598, "name": "Ruelisheim", "state": "", "country": "FR", "coord": {"lon": 7.3583, "lat": 47.823299}}, {"id": 6441600, "name": "Rumersheim-le-Haut", "state": "", "country": "FR", "coord": {"lon": 7.51667, "lat": 47.849998}}, {"id": 6441601, "name": "Saint-Amarin", "state": "", "country": "FR", "coord": {"lon": 7.0316, "lat": 47.871899}}, {"id": 6441603, "name": "Sainte-Croix-aux-Mines", "state": "", "country": "FR", "coord": {"lon": 7.21667, "lat": 48.26667}}, {"id": 6441604, "name": "Sainte-Croix-en-Plaine", "state": "", "country": "FR", "coord": {"lon": 7.38453, "lat": 48.009048}}, {"id": 6441605, "name": "Saint-Hippolyte", "state": "", "country": "FR", "coord": {"lon": 7.36667, "lat": 48.23333}}, {"id": 6441606, "name": "Saint-Louis", "state": "", "country": "FR", "coord": {"lon": 7.56667, "lat": 47.583328}}, {"id": 6441607, "name": "Sainte-Marie-aux-Mines", "state": "", "country": "FR", "coord": {"lon": 7.18333, "lat": 48.25}}, {"id": 6441609, "name": "Sausheim", "state": "", "country": "FR", "coord": {"lon": 7.36667, "lat": 47.783329}}, {"id": 6441613, "name": "Sentheim", "state": "", "country": "FR", "coord": {"lon": 7.05194, "lat": 47.75589}}, {"id": 6441618, "name": "Sierentz", "state": "", "country": "FR", "coord": {"lon": 7.4564, "lat": 47.655899}}, {"id": 6441619, "name": "Sigolsheim", "state": "", "country": "FR", "coord": {"lon": 7.3, "lat": 48.133331}}, {"id": 6441624, "name": "Soultz-Haut-Rhin", "state": "", "country": "FR", "coord": {"lon": 7.23333, "lat": 47.883331}}, {"id": 6441626, "name": "Soultzeren", "state": "", "country": "FR", "coord": {"lon": 7.1, "lat": 48.066669}}, {"id": 6441627, "name": "Soultzmatt", "state": "", "country": "FR", "coord": {"lon": 7.23639, "lat": 47.962742}}, {"id": 6441630, "name": "Staffelfelden", "state": "", "country": "FR", "coord": {"lon": 7.25166, "lat": 47.826759}}, {"id": 6441631, "name": "Steinbach", "state": "", "country": "FR", "coord": {"lon": 7.15193, "lat": 47.821049}}, {"id": 6441638, "name": "Stosswihr", "state": "", "country": "FR", "coord": {"lon": 7.1, "lat": 48.049999}}, {"id": 6441640, "name": "Sundhoffen", "state": "", "country": "FR", "coord": {"lon": 7.41311, "lat": 48.042568}}, {"id": 6441646, "name": "Turckheim", "state": "", "country": "FR", "coord": {"lon": 7.27776, "lat": 48.087372}}, {"id": 6441649, "name": "Uffholtz", "state": "", "country": "FR", "coord": {"lon": 7.17708, "lat": 47.820419}}, {"id": 6441650, "name": "Ungersheim", "state": "", "country": "FR", "coord": {"lon": 7.30659, "lat": 47.878479}}, {"id": 6441654, "name": "Vieux-Thann", "state": "", "country": "FR", "coord": {"lon": 7.13333, "lat": 47.799999}}, {"id": 6441655, "name": "Village-Neuf", "state": "", "country": "FR", "coord": {"lon": 7.56667, "lat": 47.599998}}, {"id": 6441659, "name": "Waldighofen", "state": "", "country": "FR", "coord": {"lon": 7.31667, "lat": 47.549999}}, {"id": 6441662, "name": "Wattwiller", "state": "", "country": "FR", "coord": {"lon": 7.17708, "lat": 47.836262}}, {"id": 6441668, "name": "Wettolsheim", "state": "", "country": "FR", "coord": {"lon": 7.29784, "lat": 48.05777}}, {"id": 6441670, "name": "Widensolen", "state": "", "country": "FR", "coord": {"lon": 7.48333, "lat": 48.066669}}, {"id": 6441671, "name": "Wihr-au-Val", "state": "", "country": "FR", "coord": {"lon": 7.2, "lat": 48.049999}}, {"id": 6441675, "name": "Wittelsheim", "state": "", "country": "FR", "coord": {"lon": 7.24016, "lat": 47.80941}}, {"id": 6441676, "name": "Wittenheim", "state": "", "country": "FR", "coord": {"lon": 7.33333, "lat": 47.816669}}, {"id": 6441679, "name": "Wolfgantzen", "state": "", "country": "FR", "coord": {"lon": 7.5016, "lat": 48.028221}}, {"id": 6441684, "name": "Zillisheim", "state": "", "country": "FR", "coord": {"lon": 7.2962, "lat": 47.695499}}, {"id": 6441686, "name": "Zimmersheim", "state": "", "country": "FR", "coord": {"lon": 7.38333, "lat": 47.716671}}, {"id": 6441712, "name": "Millery", "state": "", "country": "FR", "coord": {"lon": 4.76667, "lat": 45.633331}}, {"id": 6441716, "name": "Montrottier", "state": "", "country": "FR", "coord": {"lon": 4.46667, "lat": 45.783329}}, {"id": 6441717, "name": "Moranc\u00e9", "state": "", "country": "FR", "coord": {"lon": 4.7, "lat": 45.900002}}, {"id": 6441718, "name": "Mornant", "state": "", "country": "FR", "coord": {"lon": 4.66667, "lat": 45.616669}}, {"id": 6441719, "name": "Neuville-sur-Sa\u00f4ne", "state": "", "country": "FR", "coord": {"lon": 4.85, "lat": 45.866669}}, {"id": 6441723, "name": "Orli\u00e9nas", "state": "", "country": "FR", "coord": {"lon": 4.71667, "lat": 45.666672}}, {"id": 6441724, "name": "Oullins", "state": "", "country": "FR", "coord": {"lon": 4.8, "lat": 45.716671}}, {"id": 6441726, "name": "Pierre-B\u00e9nite", "state": "", "country": "FR", "coord": {"lon": 4.81667, "lat": 45.700001}}, {"id": 6441728, "name": "Pollionnay", "state": "", "country": "FR", "coord": {"lon": 4.65, "lat": 45.76667}}, {"id": 6441730, "name": "Vindry-sur-Turdine", "state": "", "country": "FR", "coord": {"lon": 4.48333, "lat": 45.866669}}, {"id": 6441734, "name": "Quinci\u00e9-en-Beaujolais", "state": "", "country": "FR", "coord": {"lon": 4.6, "lat": 46.116669}}, {"id": 6441739, "name": "Sain-Bel", "state": "", "country": "FR", "coord": {"lon": 4.6, "lat": 45.816669}}, {"id": 6441741, "name": "Soucieu-en-Jarrest", "state": "", "country": "FR", "coord": {"lon": 4.7, "lat": 45.683331}}, {"id": 6441742, "name": "Sourcieux-les-Mines", "state": "", "country": "FR", "coord": {"lon": 4.61667, "lat": 45.799999}}, {"id": 6441744, "name": "Beauvallon", "state": "", "country": "FR", "coord": {"lon": 4.7, "lat": 45.583328}}, {"id": 6441751, "name": "Sainte-Consorce", "state": "", "country": "FR", "coord": {"lon": 4.7, "lat": 45.76667}}, {"id": 6441756, "name": "Saint-Didier-sous-Riverie", "state": "", "country": "FR", "coord": {"lon": 4.6, "lat": 45.599998}}, {"id": 6441760, "name": "Saint-Fons", "state": "", "country": "FR", "coord": {"lon": 4.86667, "lat": 45.700001}}, {"id": 6441761, "name": "Sainte-Foy-l'Argenti\u00e8re", "state": "", "country": "FR", "coord": {"lon": 4.46667, "lat": 45.700001}}, {"id": 6441762, "name": "Sainte-Foy-l\u00e8s-Lyon", "state": "", "country": "FR", "coord": {"lon": 4.8, "lat": 45.73333}}, {"id": 6441764, "name": "Saint-Genis-Laval", "state": "", "country": "FR", "coord": {"lon": 4.7933, "lat": 45.695702}}, {"id": 6441765, "name": "Saint-Genis-les-Olli\u00e8res", "state": "", "country": "FR", "coord": {"lon": 4.73333, "lat": 45.75}}, {"id": 6441766, "name": "Saint-Georges-de-Reneins", "state": "", "country": "FR", "coord": {"lon": 4.71667, "lat": 46.066669}}, {"id": 6441768, "name": "Saint-Germain-Nuelles", "state": "", "country": "FR", "coord": {"lon": 4.6, "lat": 45.849998}}, {"id": 6441778, "name": "Saint-Laurent-de-Chamousset", "state": "", "country": "FR", "coord": {"lon": 4.46667, "lat": 45.73333}}, {"id": 6441784, "name": "Saint-Martin-en-Haut", "state": "", "country": "FR", "coord": {"lon": 4.55, "lat": 45.650002}}, {"id": 6441785, "name": "Chabani\u00e8re", "state": "", "country": "FR", "coord": {"lon": 4.63333, "lat": 45.583328}}, {"id": 6441788, "name": "Saint-Pierre-la-Palud", "state": "", "country": "FR", "coord": {"lon": 4.61667, "lat": 45.783329}}, {"id": 6441790, "name": "Saint-Romain-de-Popey", "state": "", "country": "FR", "coord": {"lon": 4.53333, "lat": 45.849998}}, {"id": 6441795, "name": "Taluyers", "state": "", "country": "FR", "coord": {"lon": 4.7222, "lat": 45.6399}}, {"id": 6441797, "name": "Tarare", "state": "", "country": "FR", "coord": {"lon": 4.43333, "lat": 45.900002}}, {"id": 6441798, "name": "Tassin-la-Demi-Lune", "state": "", "country": "FR", "coord": {"lon": 4.78333, "lat": 45.76667}}, {"id": 6441800, "name": "Theiz\u00e9", "state": "", "country": "FR", "coord": {"lon": 4.61667, "lat": 45.933331}}, {"id": 6441802, "name": "Thurins", "state": "", "country": "FR", "coord": {"lon": 4.63333, "lat": 45.683331}}, {"id": 6441805, "name": "Vaugneray", "state": "", "country": "FR", "coord": {"lon": 4.65, "lat": 45.73333}}, {"id": 6441806, "name": "Vaulx-en-Velin", "state": "", "country": "FR", "coord": {"lon": 4.93333, "lat": 45.783329}}, {"id": 6441809, "name": "V\u00e9nissieux", "state": "", "country": "FR", "coord": {"lon": 4.8869, "lat": 45.697498}}, {"id": 6441811, "name": "Villefranche-sur-Sa\u00f4ne", "state": "", "country": "FR", "coord": {"lon": 4.71667, "lat": 45.98333}}, {"id": 6441813, "name": "Villeurbanne", "state": "", "country": "FR", "coord": {"lon": 4.88333, "lat": 45.76667}}, {"id": 6441814, "name": "Villi\u00e9-Morgon", "state": "", "country": "FR", "coord": {"lon": 4.68333, "lat": 46.166672}}, {"id": 6441815, "name": "Vourles", "state": "", "country": "FR", "coord": {"lon": 4.78333, "lat": 45.666672}}, {"id": 6441821, "name": "D\u00e9cines-Charpieu", "state": "", "country": "FR", "coord": {"lon": 4.9598, "lat": 45.7686}}, {"id": 6441823, "name": "Genas", "state": "", "country": "FR", "coord": {"lon": 5.0, "lat": 45.73333}}, {"id": 6441828, "name": "Meyzieu", "state": "", "country": "FR", "coord": {"lon": 5.0, "lat": 45.76667}}, {"id": 6441829, "name": "Mions", "state": "", "country": "FR", "coord": {"lon": 4.95, "lat": 45.666672}}, {"id": 6441830, "name": "Montanay", "state": "", "country": "FR", "coord": {"lon": 4.85, "lat": 45.883331}}, {"id": 6441831, "name": "Pusignan", "state": "", "country": "FR", "coord": {"lon": 5.06667, "lat": 45.75}}, {"id": 6441832, "name": "Saint-Bonnet-de-Mure", "state": "", "country": "FR", "coord": {"lon": 5.03333, "lat": 45.683331}}, {"id": 6441833, "name": "Saint-Laurent-de-Mure", "state": "", "country": "FR", "coord": {"lon": 5.03333, "lat": 45.683331}}, {"id": 6441834, "name": "Saint-Pierre-de-Chandieu", "state": "", "country": "FR", "coord": {"lon": 5.01667, "lat": 45.650002}}, {"id": 6441836, "name": "Sathonay-Camp", "state": "", "country": "FR", "coord": {"lon": 4.86667, "lat": 45.816669}}, {"id": 6441837, "name": "Sathonay-Village", "state": "", "country": "FR", "coord": {"lon": 4.88333, "lat": 45.833328}}, {"id": 6441838, "name": "S\u00e9r\u00e9zin-du-Rh\u00f4ne", "state": "", "country": "FR", "coord": {"lon": 4.83333, "lat": 45.633331}}, {"id": 6441839, "name": "Simandres", "state": "", "country": "FR", "coord": {"lon": 4.86667, "lat": 45.616669}}, {"id": 6441840, "name": "Toussieu", "state": "", "country": "FR", "coord": {"lon": 4.98333, "lat": 45.650002}}, {"id": 6441892, "name": "Corbenay", "state": "", "country": "FR", "coord": {"lon": 6.33333, "lat": 47.900002}}, {"id": 6442037, "name": "Navenne", "state": "", "country": "FR", "coord": {"lon": 6.16667, "lat": 47.599998}}, {"id": 6442043, "name": "Noidans-l\u00e8s-Vesoul", "state": "", "country": "FR", "coord": {"lon": 6.13333, "lat": 47.616669}}, {"id": 6442051, "name": "Ormenans", "state": "", "country": "FR", "coord": {"lon": 6.2, "lat": 47.450001}}, {"id": 6442064, "name": "Plancher-Bas", "state": "", "country": "FR", "coord": {"lon": 6.73333, "lat": 47.716671}}, {"id": 6442065, "name": "Plancher-les-Mines", "state": "", "country": "FR", "coord": {"lon": 6.75, "lat": 47.76667}}, {"id": 6442071, "name": "Port-sur-Sa\u00f4ne", "state": "", "country": "FR", "coord": {"lon": 6.05, "lat": 47.683331}}, {"id": 6442075, "name": "Pusey", "state": "", "country": "FR", "coord": {"lon": 6.13333, "lat": 47.650002}}, {"id": 6442078, "name": "Quincey", "state": "", "country": "FR", "coord": {"lon": 6.18333, "lat": 47.616669}}, {"id": 6442090, "name": "Ronchamp", "state": "", "country": "FR", "coord": {"lon": 6.65, "lat": 47.700001}}, {"id": 6442093, "name": "Roye", "state": "", "country": "FR", "coord": {"lon": 6.55, "lat": 47.666672}}, {"id": 6442102, "name": "Saint-Loup-sur-Semouse", "state": "", "country": "FR", "coord": {"lon": 6.26667, "lat": 47.883331}}, {"id": 6442111, "name": "Scey-sur-Sa\u00f4ne-et-Saint-Albin", "state": "", "country": "FR", "coord": {"lon": 5.96667, "lat": 47.666672}}, {"id": 6442131, "name": "Vaivre-et-Montoille", "state": "", "country": "FR", "coord": {"lon": 6.1, "lat": 47.633331}}, {"id": 6442165, "name": "Villersexel", "state": "", "country": "FR", "coord": {"lon": 6.43333, "lat": 47.549999}}, {"id": 6442263, "name": "Frontenaud", "state": "", "country": "FR", "coord": {"lon": 5.3, "lat": 46.549999}}, {"id": 6442317, "name": "Mellecey", "state": "", "country": "FR", "coord": {"lon": 4.73333, "lat": 46.816669}}, {"id": 6442326, "name": "Montceau-les-Mines", "state": "", "country": "FR", "coord": {"lon": 4.36667, "lat": 46.666672}}, {"id": 6442329, "name": "Montcenis", "state": "", "country": "FR", "coord": {"lon": 4.38333, "lat": 46.783329}}, {"id": 6442330, "name": "Montchanin", "state": "", "country": "FR", "coord": {"lon": 4.45, "lat": 46.75}}, {"id": 6442331, "name": "Montcony", "state": "", "country": "FR", "coord": {"lon": 5.3, "lat": 46.700001}}, {"id": 6442338, "name": "Montpont-en-Bresse", "state": "", "country": "FR", "coord": {"lon": 5.15, "lat": 46.549999}}, {"id": 6442350, "name": "Ouroux-sur-Sa\u00f4ne", "state": "", "country": "FR", "coord": {"lon": 4.95, "lat": 46.716671}}, {"id": 6442354, "name": "Palinges", "state": "", "country": "FR", "coord": {"lon": 4.21667, "lat": 46.549999}}, {"id": 6442356, "name": "Paray-le-Monial", "state": "", "country": "FR", "coord": {"lon": 4.11667, "lat": 46.450001}}, {"id": 6442358, "name": "Perrecy-les-Forges", "state": "", "country": "FR", "coord": {"lon": 4.2, "lat": 46.616669}}, {"id": 6442368, "name": "Priss\u00e9", "state": "", "country": "FR", "coord": {"lon": 4.75, "lat": 46.316669}}, {"id": 6442377, "name": "Roman\u00e8che-Thorins", "state": "", "country": "FR", "coord": {"lon": 4.73333, "lat": 46.183331}}, {"id": 6442381, "name": "Rully", "state": "", "country": "FR", "coord": {"lon": 4.75, "lat": 46.866669}}, {"id": 6442382, "name": "Sagy", "state": "", "country": "FR", "coord": {"lon": 5.31667, "lat": 46.599998}}, {"id": 6442383, "name": "Saillenard", "state": "", "country": "FR", "coord": {"lon": 5.36667, "lat": 46.683331}}, {"id": 6442392, "name": "Saint-Berain-sous-Sanvignes", "state": "", "country": "FR", "coord": {"lon": 4.3, "lat": 46.700001}}, {"id": 6442412, "name": "Saint-Eus\u00e8be", "state": "", "country": "FR", "coord": {"lon": 4.46667, "lat": 46.716671}}, {"id": 6442415, "name": "Saint-Gengoux-le-National", "state": "", "country": "FR", "coord": {"lon": 4.65, "lat": 46.616669}}, {"id": 6442416, "name": "Saint-Germain-du-Bois", "state": "", "country": "FR", "coord": {"lon": 5.25, "lat": 46.75}}, {"id": 6442417, "name": "Saint-Germain-du-Plain", "state": "", "country": "FR", "coord": {"lon": 4.96667, "lat": 46.700001}}, {"id": 6442430, "name": "Saint-Laurent-d'Andenay", "state": "", "country": "FR", "coord": {"lon": 4.51667, "lat": 46.73333}}, {"id": 6442435, "name": "Saint-L\u00e9ger-sur-Dheune", "state": "", "country": "FR", "coord": {"lon": 4.63333, "lat": 46.849998}}, {"id": 6442438, "name": "Saint-Martin-Belle-Roche", "state": "", "country": "FR", "coord": {"lon": 4.85, "lat": 46.383331}}, {"id": 6442445, "name": "Saint-Martin-en-Bresse", "state": "", "country": "FR", "coord": {"lon": 5.06667, "lat": 46.816669}}, {"id": 6442463, "name": "Saint-Sernin-du-Bois", "state": "", "country": "FR", "coord": {"lon": 4.43333, "lat": 46.833328}}, {"id": 6442467, "name": "Saint-Usuge", "state": "", "country": "FR", "coord": {"lon": 5.25, "lat": 46.683331}}, {"id": 6442469, "name": "Saint-Vallier", "state": "", "country": "FR", "coord": {"lon": 4.36667, "lat": 46.633331}}, {"id": 6442472, "name": "Saint-Yan", "state": "", "country": "FR", "coord": {"lon": 4.03333, "lat": 46.416672}}, {"id": 6442477, "name": "Sanc\u00e9", "state": "", "country": "FR", "coord": {"lon": 4.83333, "lat": 46.333328}}, {"id": 6442479, "name": "Sanvignes-les-Mines", "state": "", "country": "FR", "coord": {"lon": 4.3, "lat": 46.666672}}, {"id": 6442481, "name": "Sassenay", "state": "", "country": "FR", "coord": {"lon": 4.93333, "lat": 46.833328}}, {"id": 6442488, "name": "Sennecey-le-Grand", "state": "", "country": "FR", "coord": {"lon": 4.86667, "lat": 46.650002}}, {"id": 6442495, "name": "Sevrey", "state": "", "country": "FR", "coord": {"lon": 4.85, "lat": 46.73333}}, {"id": 6442497, "name": "Simandre", "state": "", "country": "FR", "coord": {"lon": 4.9886, "lat": 46.6227}}, {"id": 6442503, "name": "Sornay", "state": "", "country": "FR", "coord": {"lon": 5.18333, "lat": 46.633331}}, {"id": 6442512, "name": "Toulon-sur-Arroux", "state": "", "country": "FR", "coord": {"lon": 4.13333, "lat": 46.683331}}, {"id": 6442513, "name": "Tournus", "state": "", "country": "FR", "coord": {"lon": 4.9, "lat": 46.566669}}, {"id": 6442522, "name": "Varennes-le-Grand", "state": "", "country": "FR", "coord": {"lon": 4.88333, "lat": 46.716671}}, {"id": 6442524, "name": "Varennes-Saint-Sauveur", "state": "", "country": "FR", "coord": {"lon": 5.25, "lat": 46.48333}}, {"id": 6442530, "name": "Verdun-sur-le-Doubs", "state": "", "country": "FR", "coord": {"lon": 5.01667, "lat": 46.900002}}, {"id": 6442572, "name": "Val d'\u00c9tangson", "state": "", "country": "FR", "coord": {"lon": 0.63333, "lat": 47.900002}}, {"id": 6442589, "name": "Lamnay", "state": "", "country": "FR", "coord": {"lon": 0.71667, "lat": 48.116669}}, {"id": 6442609, "name": "Mamers", "state": "", "country": "FR", "coord": {"lon": 0.38333, "lat": 48.349998}}, {"id": 6442623, "name": "Monc\u00e9-en-Belin", "state": "", "country": "FR", "coord": {"lon": 0.2, "lat": 47.900002}}, {"id": 6442628, "name": "Montbizot", "state": "", "country": "FR", "coord": {"lon": 0.2, "lat": 48.150002}}, {"id": 6442631, "name": "Montreuil-le-Ch\u00e9tif", "state": "", "country": "FR", "coord": {"lon": -0.03333, "lat": 48.25}}, {"id": 6442635, "name": "Mulsanne", "state": "", "country": "FR", "coord": {"lon": 0.2501, "lat": 47.911499}}, {"id": 6442639, "name": "Neuville-sur-Sarthe", "state": "", "country": "FR", "coord": {"lon": 0.2, "lat": 48.066669}}, {"id": 6442645, "name": "Noyen-sur-Sarthe", "state": "", "country": "FR", "coord": {"lon": -0.1, "lat": 47.866669}}, {"id": 6442650, "name": "Parc\u00e9-sur-Sarthe", "state": "", "country": "FR", "coord": {"lon": -0.2, "lat": 47.849998}}, {"id": 6442652, "name": "Parign\u00e9-le-P\u00f4lin", "state": "", "country": "FR", "coord": {"lon": 0.11667, "lat": 47.849998}}, {"id": 6442661, "name": "Pontvallain", "state": "", "country": "FR", "coord": {"lon": 0.2, "lat": 47.75}}, {"id": 6442662, "name": "Pr\u00e9cign\u00e9", "state": "", "country": "FR", "coord": {"lon": -0.31667, "lat": 47.76667}}, {"id": 6442665, "name": "Pruill\u00e9-le-Ch\u00e9tif", "state": "", "country": "FR", "coord": {"lon": 0.11667, "lat": 48.0}}, {"id": 6442669, "name": "Requeil", "state": "", "country": "FR", "coord": {"lon": 0.16667, "lat": 47.783329}}, {"id": 6442670, "name": "Ro\u00e9z\u00e9-sur-Sarthe", "state": "", "country": "FR", "coord": {"lon": 0.06667, "lat": 47.900002}}, {"id": 6442673, "name": "Rouillon", "state": "", "country": "FR", "coord": {"lon": 0.13333, "lat": 48.0}}, {"id": 6442676, "name": "Ruaudin", "state": "", "country": "FR", "coord": {"lon": 0.26667, "lat": 47.950001}}, {"id": 6442678, "name": "Loir en Vall\u00e9e", "state": "", "country": "FR", "coord": {"lon": 0.61667, "lat": 47.75}}, {"id": 6442679, "name": "Sabl\u00e9-sur-Sarthe", "state": "", "country": "FR", "coord": {"lon": -0.33294, "lat": 47.83765}}, {"id": 6442695, "name": "Saint-Germain-sur-Sarthe", "state": "", "country": "FR", "coord": {"lon": 0.1, "lat": 48.283329}}, {"id": 6442697, "name": "Saint-Gervais-en-Belin", "state": "", "country": "FR", "coord": {"lon": 0.21667, "lat": 47.883331}}, {"id": 6442699, "name": "Sainte-Jamme-sur-Sarthe", "state": "", "country": "FR", "coord": {"lon": 0.18333, "lat": 48.150002}}, {"id": 6442709, "name": "Saint-Mars-la-Bri\u00e8re", "state": "", "country": "FR", "coord": {"lon": 0.38333, "lat": 48.033329}}, {"id": 6442715, "name": "Saint-Ouen-en-Belin", "state": "", "country": "FR", "coord": {"lon": 0.21667, "lat": 47.833328}}, {"id": 6442717, "name": "Saint-Paterne - Le Chevain", "state": "", "country": "FR", "coord": {"lon": 0.1124, "lat": 48.415501}}, {"id": 6442723, "name": "Saint-R\u00e9my-de-Sill\u00e9", "state": "", "country": "FR", "coord": {"lon": -0.08333, "lat": 48.183331}}, {"id": 6442738, "name": "Sill\u00e9-le-Guillaume", "state": "", "country": "FR", "coord": {"lon": -0.1288, "lat": 48.1833}}, {"id": 6442740, "name": "Solesmes", "state": "", "country": "FR", "coord": {"lon": -0.3, "lat": 47.849998}}, {"id": 6442744, "name": "Soulign\u00e9-sous-Ballon", "state": "", "country": "FR", "coord": {"lon": 0.23333, "lat": 48.133331}}, {"id": 6442748, "name": "Spay", "state": "", "country": "FR", "coord": {"lon": 0.15, "lat": 47.916672}}, {"id": 6442752, "name": "Teloch\u00e9", "state": "", "country": "FR", "coord": {"lon": 0.26667, "lat": 47.883331}}, {"id": 6442753, "name": "Tennie", "state": "", "country": "FR", "coord": {"lon": -0.06667, "lat": 48.116669}}, {"id": 6442760, "name": "Thorign\u00e9-sur-Du\u00e9", "state": "", "country": "FR", "coord": {"lon": 0.53333, "lat": 48.033329}}, {"id": 6442762, "name": "Trang\u00e9", "state": "", "country": "FR", "coord": {"lon": 0.11667, "lat": 48.033329}}, {"id": 6442764, "name": "Tuff\u00e9 Val de la Ch\u00e9ronne", "state": "", "country": "FR", "coord": {"lon": 0.51667, "lat": 48.116669}}, {"id": 6442765, "name": "Vaas", "state": "", "country": "FR", "coord": {"lon": 0.31667, "lat": 47.666672}}, {"id": 6442771, "name": "Vibraye", "state": "", "country": "FR", "coord": {"lon": 0.73333, "lat": 48.049999}}, {"id": 6442776, "name": "Vion", "state": "", "country": "FR", "coord": {"lon": -0.23333, "lat": 47.816669}}, {"id": 6442783, "name": "Yvr\u00e9-le-P\u00f4lin", "state": "", "country": "FR", "coord": {"lon": 0.15, "lat": 47.816669}}, {"id": 6442804, "name": "Gr\u00e9sy-sur-Is\u00e8re", "state": "", "country": "FR", "coord": {"lon": 6.25, "lat": 45.599998}}, {"id": 6442816, "name": "Lescheraines", "state": "", "country": "FR", "coord": {"lon": 6.1, "lat": 45.700001}}, {"id": 6442822, "name": "Modane", "state": "", "country": "FR", "coord": {"lon": 6.66667, "lat": 45.200001}}, {"id": 6442832, "name": "Montm\u00e9lian", "state": "", "country": "FR", "coord": {"lon": 6.06667, "lat": 45.5}}, {"id": 6442836, "name": "Mouxy", "state": "", "country": "FR", "coord": {"lon": 5.93333, "lat": 45.683331}}, {"id": 6442843, "name": "Novalaise", "state": "", "country": "FR", "coord": {"lon": 5.76667, "lat": 45.599998}}, {"id": 6442854, "name": "Queige", "state": "", "country": "FR", "coord": {"lon": 6.46667, "lat": 45.716671}}, {"id": 6442862, "name": "Saint-Baldoph", "state": "", "country": "FR", "coord": {"lon": 5.95, "lat": 45.533329}}, {"id": 6442863, "name": "Saint-B\u00e9ron", "state": "", "country": "FR", "coord": {"lon": 5.71667, "lat": 45.5}}, {"id": 6442864, "name": "Courchevel", "state": "", "country": "FR", "coord": {"lon": 6.63656, "lat": 45.43412}}, {"id": 6442870, "name": "Saint-Genix-les-Villages", "state": "", "country": "FR", "coord": {"lon": 5.63333, "lat": 45.599998}}, {"id": 6442875, "name": "Sainte-H\u00e9l\u00e8ne-sur-Is\u00e8re", "state": "", "country": "FR", "coord": {"lon": 6.31667, "lat": 45.616669}}, {"id": 6442880, "name": "Saint-Jean-de-Couz", "state": "", "country": "FR", "coord": {"lon": 5.81667, "lat": 45.466671}}, {"id": 6442882, "name": "Saint-Jean-de-Maurienne", "state": "", "country": "FR", "coord": {"lon": 6.35, "lat": 45.283329}}, {"id": 6442887, "name": "Les Belleville", "state": "", "country": "FR", "coord": {"lon": 6.50532, "lat": 45.381088}}, {"id": 6442890, "name": "Saint-Michel-de-Maurienne", "state": "", "country": "FR", "coord": {"lon": 6.46667, "lat": 45.216671}}, {"id": 6442906, "name": "Salins-Fontaine", "state": "", "country": "FR", "coord": {"lon": 6.52914, "lat": 45.47163}}, {"id": 6442909, "name": "Sonnaz", "state": "", "country": "FR", "coord": {"lon": 5.91667, "lat": 45.616669}}, {"id": 6442912, "name": "Tignes", "state": "", "country": "FR", "coord": {"lon": 6.9137, "lat": 45.4725}}, {"id": 6442915, "name": "Tresserve", "state": "", "country": "FR", "coord": {"lon": 5.9, "lat": 45.666672}}, {"id": 6442917, "name": "Ugine", "state": "", "country": "FR", "coord": {"lon": 6.41667, "lat": 45.75}}, {"id": 6442929, "name": "Villargondran", "state": "", "country": "FR", "coord": {"lon": 6.36667, "lat": 45.26667}}, {"id": 6442933, "name": "Vimines", "state": "", "country": "FR", "coord": {"lon": 5.86667, "lat": 45.549999}}, {"id": 6442935, "name": "Voglans", "state": "", "country": "FR", "coord": {"lon": 5.9, "lat": 45.633331}}, {"id": 6442978, "name": "Manigod", "state": "", "country": "FR", "coord": {"lon": 6.36667, "lat": 45.866669}}, {"id": 6442995, "name": "Metz-Tessy", "state": "", "country": "FR", "coord": {"lon": 6.1, "lat": 45.933331}}, {"id": 6442999, "name": "Monnetier-Mornex", "state": "", "country": "FR", "coord": {"lon": 6.21663, "lat": 46.159}}, {"id": 6443003, "name": "Mont-Saxonnex", "state": "", "country": "FR", "coord": {"lon": 6.48333, "lat": 46.049999}}, {"id": 6443005, "name": "Morzine", "state": "", "country": "FR", "coord": {"lon": 6.70732, "lat": 46.181492}}, {"id": 6443006, "name": "Moye", "state": "", "country": "FR", "coord": {"lon": 5.91667, "lat": 45.866669}}, {"id": 6443010, "name": "Nangy", "state": "", "country": "FR", "coord": {"lon": 6.3, "lat": 46.150002}}, {"id": 6443013, "name": "Neuvecelle", "state": "", "country": "FR", "coord": {"lon": 6.61368, "lat": 46.39537}}, {"id": 6443014, "name": "Neydens", "state": "", "country": "FR", "coord": {"lon": 6.10333, "lat": 46.121861}}, {"id": 6443017, "name": "Onnion", "state": "", "country": "FR", "coord": {"lon": 6.4799, "lat": 46.171799}}, {"id": 6443019, "name": "Passy", "state": "", "country": "FR", "coord": {"lon": 6.68333, "lat": 45.916672}}, {"id": 6443020, "name": "Peillonnex", "state": "", "country": "FR", "coord": {"lon": 6.38333, "lat": 46.133331}}, {"id": 6443021, "name": "Perrignier", "state": "", "country": "FR", "coord": {"lon": 6.45, "lat": 46.299999}}, {"id": 6443022, "name": "Pers-Jussy", "state": "", "country": "FR", "coord": {"lon": 6.28333, "lat": 46.116669}}, {"id": 6443023, "name": "Poisy", "state": "", "country": "FR", "coord": {"lon": 6.06667, "lat": 45.916672}}, {"id": 6443026, "name": "Pringy", "state": "", "country": "FR", "coord": {"lon": 6.11667, "lat": 45.950001}}, {"id": 6443027, "name": "Publier", "state": "", "country": "FR", "coord": {"lon": 6.55, "lat": 46.383331}}, {"id": 6443029, "name": "Reignier-\u00c9sery", "state": "", "country": "FR", "coord": {"lon": 6.26667, "lat": 46.133331}}, {"id": 6443032, "name": "Saint-Cergues", "state": "", "country": "FR", "coord": {"lon": 6.31667, "lat": 46.23333}}, {"id": 6443036, "name": "Saint-Gervais-les-Bains", "state": "", "country": "FR", "coord": {"lon": 6.71667, "lat": 45.900002}}, {"id": 6443039, "name": "Saint-Jean-de-Sixt", "state": "", "country": "FR", "coord": {"lon": 6.4, "lat": 45.916672}}, {"id": 6443041, "name": "Saint-Jorioz", "state": "", "country": "FR", "coord": {"lon": 6.16667, "lat": 45.833328}}, {"id": 6443042, "name": "Saint-Julien-en-Genevois", "state": "", "country": "FR", "coord": {"lon": 6.0848, "lat": 46.143902}}, {"id": 6443043, "name": "Saint-Martin-Bellevue", "state": "", "country": "FR", "coord": {"lon": 6.1496, "lat": 45.962101}}, {"id": 6443044, "name": "Saint-Paul-en-Chablais", "state": "", "country": "FR", "coord": {"lon": 6.63333, "lat": 46.383331}}, {"id": 6443046, "name": "Sallanches", "state": "", "country": "FR", "coord": {"lon": 6.63162, "lat": 45.944229}}, {"id": 6443048, "name": "Samo\u00ebns", "state": "", "country": "FR", "coord": {"lon": 6.72685, "lat": 46.08279}}, {"id": 6443050, "name": "Scientrier", "state": "", "country": "FR", "coord": {"lon": 6.33333, "lat": 46.116669}}, {"id": 6443051, "name": "Sciez", "state": "", "country": "FR", "coord": {"lon": 6.38333, "lat": 46.333328}}, {"id": 6443052, "name": "Scionzier", "state": "", "country": "FR", "coord": {"lon": 6.56667, "lat": 46.049999}}, {"id": 6443055, "name": "Sevrier", "state": "", "country": "FR", "coord": {"lon": 6.13333, "lat": 45.866669}}, {"id": 6443056, "name": "Seynod", "state": "", "country": "FR", "coord": {"lon": 6.08333, "lat": 45.883331}}, {"id": 6443059, "name": "Talloires-Montmin", "state": "", "country": "FR", "coord": {"lon": 6.21667, "lat": 45.849998}}, {"id": 6443060, "name": "Taninges", "state": "", "country": "FR", "coord": {"lon": 6.59077, "lat": 46.108471}}, {"id": 6443061, "name": "Thyez", "state": "", "country": "FR", "coord": {"lon": 6.53841, "lat": 46.082401}}, {"id": 6443062, "name": "Thonon-les-Bains", "state": "", "country": "FR", "coord": {"lon": 6.48333, "lat": 46.366669}}, {"id": 6443063, "name": "Filli\u00e8re", "state": "", "country": "FR", "coord": {"lon": 6.2477, "lat": 45.9972}}, {"id": 6443069, "name": "Valli\u00e8res-sur-Fier", "state": "", "country": "FR", "coord": {"lon": 5.93333, "lat": 45.900002}}, {"id": 6443073, "name": "Verchaix", "state": "", "country": "FR", "coord": {"lon": 6.68333, "lat": 46.099998}}, {"id": 6443074, "name": "V\u00e9traz-Monthoux", "state": "", "country": "FR", "coord": {"lon": 6.25912, "lat": 46.17424}}, {"id": 6443075, "name": "Veyrier-du-Lac", "state": "", "country": "FR", "coord": {"lon": 6.16667, "lat": 45.883331}}, {"id": 6443076, "name": "Villaz", "state": "", "country": "FR", "coord": {"lon": 6.18333, "lat": 45.950001}}, {"id": 6443078, "name": "Ville-la-Grand", "state": "", "country": "FR", "coord": {"lon": 6.25, "lat": 46.200001}}, {"id": 6443082, "name": "Viuz-la-Chi\u00e9saz", "state": "", "country": "FR", "coord": {"lon": 6.0623, "lat": 45.810902}}, {"id": 6443083, "name": "Viuz-en-Sallaz", "state": "", "country": "FR", "coord": {"lon": 6.41667, "lat": 46.150002}}, {"id": 6443130, "name": "Canteleu", "state": "", "country": "FR", "coord": {"lon": 1.03333, "lat": 49.450001}}, {"id": 6443216, "name": "Fontaine-sous-Pr\u00e9aux", "state": "", "country": "FR", "coord": {"lon": 1.16806, "lat": 49.48444}}, {"id": 6443217, "name": "Forges-les-Eaux", "state": "", "country": "FR", "coord": {"lon": 1.55, "lat": 49.616669}}, {"id": 6443286, "name": "Houppeville", "state": "", "country": "FR", "coord": {"lon": 1.07944, "lat": 49.512501}}, {"id": 6443348, "name": "Montivilliers", "state": "", "country": "FR", "coord": {"lon": 0.2, "lat": 49.549999}}, {"id": 6443349, "name": "Montmain", "state": "", "country": "FR", "coord": {"lon": 1.25, "lat": 49.416672}}, {"id": 6443351, "name": "Mont-Saint-Aignan", "state": "", "country": "FR", "coord": {"lon": 1.08333, "lat": 49.466671}}, {"id": 6443359, "name": "Neufch\u00e2tel-en-Bray", "state": "", "country": "FR", "coord": {"lon": 1.45, "lat": 49.73333}}, {"id": 6443361, "name": "N\u00e9ville", "state": "", "country": "FR", "coord": {"lon": 0.71667, "lat": 49.816669}}, {"id": 6443362, "name": "Nointot", "state": "", "country": "FR", "coord": {"lon": 0.48333, "lat": 49.599998}}, {"id": 6443367, "name": "Notre-Dame-de-Bondeville", "state": "", "country": "FR", "coord": {"lon": 1.05, "lat": 49.48333}}, {"id": 6443368, "name": "Port-J\u00e9r\u00f4me-sur-Seine", "state": "", "country": "FR", "coord": {"lon": 0.58333, "lat": 49.48333}}, {"id": 6443373, "name": "Octeville-sur-Mer", "state": "", "country": "FR", "coord": {"lon": 0.11667, "lat": 49.549999}}, {"id": 6443374, "name": "Offranville", "state": "", "country": "FR", "coord": {"lon": 1.05, "lat": 49.866669}}, {"id": 6443376, "name": "Oissel", "state": "", "country": "FR", "coord": {"lon": 1.1, "lat": 49.333328}}, {"id": 6443380, "name": "Ourville-en-Caux", "state": "", "country": "FR", "coord": {"lon": 0.6, "lat": 49.73333}}, {"id": 6443386, "name": "Petiville", "state": "", "country": "FR", "coord": {"lon": 0.58333, "lat": 49.466671}}, {"id": 6443390, "name": "Pissy-P\u00f4ville", "state": "", "country": "FR", "coord": {"lon": 1.0, "lat": 49.533329}}, {"id": 6443400, "name": "Quincampoix", "state": "", "country": "FR", "coord": {"lon": 1.18333, "lat": 49.533329}}, {"id": 6443412, "name": "Rogerville", "state": "", "country": "FR", "coord": {"lon": 0.26667, "lat": 49.5}}, {"id": 6443413, "name": "Rolleville", "state": "", "country": "FR", "coord": {"lon": 0.21667, "lat": 49.583328}}, {"id": 6443415, "name": "Roumare", "state": "", "country": "FR", "coord": {"lon": 0.96667, "lat": 49.51667}}, {"id": 6443417, "name": "Rouxmesnil-Bouteilles", "state": "", "country": "FR", "coord": {"lon": 1.08333, "lat": 49.900002}}, {"id": 6443420, "name": "Sahurs", "state": "", "country": "FR", "coord": {"lon": 0.93333, "lat": 49.349998}}, {"id": 6443422, "name": "Sainte-Adresse", "state": "", "country": "FR", "coord": {"lon": 0.08333, "lat": 49.5}}, {"id": 6443427, "name": "Saint-Arnoult", "state": "", "country": "FR", "coord": {"lon": 0.66667, "lat": 49.533329}}, {"id": 6443430, "name": "Saint-Aubin-l\u00e8s-Elbeuf", "state": "", "country": "FR", "coord": {"lon": 1.01667, "lat": 49.299999}}, {"id": 6443432, "name": "Saint-Aubin-Routot", "state": "", "country": "FR", "coord": {"lon": 0.33333, "lat": 49.51667}}, {"id": 6443434, "name": "Saint-Aubin-sur-Scie", "state": "", "country": "FR", "coord": {"lon": 1.06667, "lat": 49.866669}}, {"id": 6443443, "name": "Saint-\u00c9tienne-du-Rouvray", "state": "", "country": "FR", "coord": {"lon": 1.1, "lat": 49.383331}}, {"id": 6443444, "name": "Saint-Eustache-la-For\u00eat", "state": "", "country": "FR", "coord": {"lon": 0.46667, "lat": 49.549999}}, {"id": 6443454, "name": "Saint-Hellier", "state": "", "country": "FR", "coord": {"lon": 1.18333, "lat": 49.73333}}, {"id": 6443457, "name": "Saint-Jacques-sur-Darn\u00e9tal", "state": "", "country": "FR", "coord": {"lon": 1.2, "lat": 49.433331}}, {"id": 6443460, "name": "Saint-Jean-du-Cardonnay", "state": "", "country": "FR", "coord": {"lon": 1.01667, "lat": 49.5}}, {"id": 6443461, "name": "Saint-Jouin-Bruneval", "state": "", "country": "FR", "coord": {"lon": 0.16667, "lat": 49.650002}}, {"id": 6443464, "name": "Saint-L\u00e9ger-du-Bourg-Denis", "state": "", "country": "FR", "coord": {"lon": 1.15, "lat": 49.433331}}, {"id": 6443465, "name": "Saint-L\u00e9onard", "state": "", "country": "FR", "coord": {"lon": 0.36667, "lat": 49.75}}, {"id": 6443470, "name": "Sainte-Marguerite-sur-Duclair", "state": "", "country": "FR", "coord": {"lon": 0.85, "lat": 49.51667}}, {"id": 6443472, "name": "Sainte-Marie-des-Champs", "state": "", "country": "FR", "coord": {"lon": 0.78333, "lat": 49.616669}}, {"id": 6443475, "name": "Saint-Martin-de-Boscherville", "state": "", "country": "FR", "coord": {"lon": 0.96667, "lat": 49.450001}}, {"id": 6443477, "name": "Saint-Martin-du-Manoir", "state": "", "country": "FR", "coord": {"lon": 0.23333, "lat": 49.533329}}, {"id": 6443478, "name": "Saint-Martin-du-Vivier", "state": "", "country": "FR", "coord": {"lon": 1.16667, "lat": 49.466671}}, {"id": 6443479, "name": "Petit-Caux", "state": "", "country": "FR", "coord": {"lon": 1.23333, "lat": 49.950001}}, {"id": 6443482, "name": "Saint-Martin-Osmonville", "state": "", "country": "FR", "coord": {"lon": 1.3, "lat": 49.633331}}, {"id": 6443485, "name": "Saint-Nicolas-d'Aliermont", "state": "", "country": "FR", "coord": {"lon": 1.21667, "lat": 49.883331}}, {"id": 6443488, "name": "Saint-Nicolas-de-la-Taille", "state": "", "country": "FR", "coord": {"lon": 0.46667, "lat": 49.51667}}, {"id": 6443495, "name": "Saint-Pierre-de-Varengeville", "state": "", "country": "FR", "coord": {"lon": 0.93333, "lat": 49.5}}, {"id": 6443497, "name": "Saint-Pierre-en-Val", "state": "", "country": "FR", "coord": {"lon": 1.45, "lat": 50.01667}}, {"id": 6443506, "name": "Saint-Romain-de-Colbosc", "state": "", "country": "FR", "coord": {"lon": 0.36667, "lat": 49.533329}},