[{"id": 6552436, "name": "Barver", "state": "", "country": "DE", "coord": {"lon": 8.6, "lat": 52.616699}}, {"id": 6552437, "name": "Borstel", "state": "", "country": "DE", "coord": {"lon": 9.0201, "lat": 52.6646}}, {"id": 6552438, "name": "Brockum", "state": "", "country": "DE", "coord": {"lon": 8.41667, "lat": 52.466702}}, {"id": 6552439, "name": "Dickel", "state": "", "country": "DE", "coord": {"lon": 8.48333, "lat": 52.650002}}, {"id": 6552441, "name": "Trogen", "state": "", "country": "DE", "coord": {"lon": 11.9479, "lat": 50.3629}}, {"id": 6552442, "name": "Drentwede", "state": "", "country": "DE", "coord": {"lon": 8.56667, "lat": 52.733299}}, {"id": 6552443, "name": "Ehrenburg", "state": "", "country": "DE", "coord": {"lon": 8.7, "lat": 52.75}}, {"id": 6552444, "name": "Engeln", "state": "", "country": "DE", "coord": {"lon": 8.91667, "lat": 52.799999}}, {"id": 6552445, "name": "Eydelstedt", "state": "", "country": "DE", "coord": {"lon": 8.55, "lat": 52.700001}}, {"id": 6552446, "name": "Hemsloh", "state": "", "country": "DE", "coord": {"lon": 8.51667, "lat": 52.599998}}, {"id": 6552448, "name": "Kirchdorf", "state": "", "country": "DE", "coord": {"lon": 8.8224, "lat": 52.579601}}, {"id": 6552449, "name": "Lembruch", "state": "", "country": "DE", "coord": {"lon": 8.35, "lat": 52.533298}}, {"id": 6552450, "name": "Maasen", "state": "", "country": "DE", "coord": {"lon": 8.88333, "lat": 52.700001}}, {"id": 6552451, "name": "Marl", "state": "", "country": "DE", "coord": {"lon": 8.36667, "lat": 52.483299}}, {"id": 6552452, "name": "Martfeld", "state": "", "country": "DE", "coord": {"lon": 9.06667, "lat": 52.866699}}, {"id": 6552453, "name": "Mellinghausen", "state": "", "country": "DE", "coord": {"lon": 8.9, "lat": 52.700001}}, {"id": 6552454, "name": "Neuenkirchen", "state": "", "country": "DE", "coord": {"lon": 8.73333, "lat": 52.766701}}, {"id": 6552455, "name": "Quernheim", "state": "", "country": "DE", "coord": {"lon": 8.4, "lat": 52.466702}}, {"id": 6552456, "name": "Rehden", "state": "", "country": "DE", "coord": {"lon": 8.48333, "lat": 52.616699}}, {"id": 6552457, "name": "Scholen", "state": "", "country": "DE", "coord": {"lon": 8.76667, "lat": 52.733299}}, {"id": 6552458, "name": "Schwaf\u00f6rden", "state": "", "country": "DE", "coord": {"lon": 8.816, "lat": 52.727901}}, {"id": 6552459, "name": "Schwarme", "state": "", "country": "DE", "coord": {"lon": 9.01667, "lat": 52.900002}}, {"id": 6552460, "name": "Staffhorst", "state": "", "country": "DE", "coord": {"lon": 8.96667, "lat": 52.716702}}, {"id": 6552461, "name": "Stemshorn", "state": "", "country": "DE", "coord": {"lon": 8.36667, "lat": 52.450001}}, {"id": 6552462, "name": "Stuhr", "state": "", "country": "DE", "coord": {"lon": 8.7656, "lat": 53.020279}}, {"id": 6552463, "name": "Sudwalde", "state": "", "country": "DE", "coord": {"lon": 8.85, "lat": 52.799999}}, {"id": 6552464, "name": "S\u00fcstedt", "state": "", "country": "DE", "coord": {"lon": 8.91667, "lat": 52.866699}}, {"id": 6552465, "name": "Varrel", "state": "", "country": "DE", "coord": {"lon": 8.73333, "lat": 52.616699}}, {"id": 6552466, "name": "Wehrbleck", "state": "", "country": "DE", "coord": {"lon": 8.7, "lat": 52.633301}}, {"id": 6552467, "name": "Wetschen", "state": "", "country": "DE", "coord": {"lon": 8.45, "lat": 52.616699}}, {"id": 6552469, "name": "Adenstedt", "state": "", "country": "DE", "coord": {"lon": 9.93333, "lat": 52.0}}, {"id": 6552470, "name": "Algermissen", "state": "", "country": "DE", "coord": {"lon": 9.96667, "lat": 52.25}}, {"id": 6552471, "name": "Almstedt", "state": "", "country": "DE", "coord": {"lon": 9.96667, "lat": 52.049999}}, {"id": 6552472, "name": "Banteln", "state": "", "country": "DE", "coord": {"lon": 9.75, "lat": 52.0667}}, {"id": 6552473, "name": "Betheln", "state": "", "country": "DE", "coord": {"lon": 9.8, "lat": 52.116699}}, {"id": 6552475, "name": "Br\u00fcggen", "state": "", "country": "DE", "coord": {"lon": 9.7774, "lat": 52.040199}}, {"id": 6552476, "name": "Diekholzen", "state": "", "country": "DE", "coord": {"lon": 9.93333, "lat": 52.099998}}, {"id": 6552477, "name": "Eberholzen", "state": "", "country": "DE", "coord": {"lon": 9.85, "lat": 52.049999}}, {"id": 6552478, "name": "Everode", "state": "", "country": "DE", "coord": {"lon": 9.91667, "lat": 51.950001}}, {"id": 6552480, "name": "Giesen", "state": "", "country": "DE", "coord": {"lon": 9.9, "lat": 52.200001}}, {"id": 6552481, "name": "Harbarnsen", "state": "", "country": "DE", "coord": {"lon": 9.96667, "lat": 51.983299}}, {"id": 6552482, "name": "Harsum", "state": "", "country": "DE", "coord": {"lon": 9.96667, "lat": 52.216702}}, {"id": 6552483, "name": "Holle", "state": "", "country": "DE", "coord": {"lon": 10.15, "lat": 52.083302}}, {"id": 6552484, "name": "Neuhof", "state": "", "country": "DE", "coord": {"lon": 10.05, "lat": 51.983299}}, {"id": 6552485, "name": "Nordstemmen", "state": "", "country": "DE", "coord": {"lon": 9.7817, "lat": 52.157902}}, {"id": 6552486, "name": "Rheden", "state": "", "country": "DE", "coord": {"lon": 9.78333, "lat": 52.0667}}, {"id": 6552487, "name": "Schellerten", "state": "", "country": "DE", "coord": {"lon": 10.0979, "lat": 52.176498}}, {"id": 6552488, "name": "Sehlem", "state": "", "country": "DE", "coord": {"lon": 9.96667, "lat": 52.016701}}, {"id": 6552489, "name": "Sibbesse", "state": "", "country": "DE", "coord": {"lon": 9.9, "lat": 52.049999}}, {"id": 6552490, "name": "S\u00f6hlde", "state": "", "country": "DE", "coord": {"lon": 10.2333, "lat": 52.200001}}, {"id": 6552491, "name": "Westfeld", "state": "", "country": "DE", "coord": {"lon": 9.91667, "lat": 52.049999}}, {"id": 6552492, "name": "Winzenburg", "state": "", "country": "DE", "coord": {"lon": 9.93333, "lat": 51.9333}}, {"id": 6552493, "name": "Coppengrave", "state": "", "country": "DE", "coord": {"lon": 9.73333, "lat": 51.983299}}, {"id": 6552494, "name": "Hoyershausen", "state": "", "country": "DE", "coord": {"lon": 9.75, "lat": 52.033298}}, {"id": 6552495, "name": "Marienhagen", "state": "", "country": "DE", "coord": {"lon": 9.68333, "lat": 52.049999}}, {"id": 6552496, "name": "Weenzen", "state": "", "country": "DE", "coord": {"lon": 9.66667, "lat": 52.033298}}, {"id": 6552497, "name": "Arholzen", "state": "", "country": "DE", "coord": {"lon": 9.56667, "lat": 51.866699}}, {"id": 6552498, "name": "Boffzen", "state": "", "country": "DE", "coord": {"lon": 9.38333, "lat": 51.75}}, {"id": 6552499, "name": "Brev\u00f6rde", "state": "", "country": "DE", "coord": {"lon": 9.41667, "lat": 51.916698}}, {"id": 6552500, "name": "Deensen", "state": "", "country": "DE", "coord": {"lon": 9.58333, "lat": 51.866699}}, {"id": 6552501, "name": "Derental", "state": "", "country": "DE", "coord": {"lon": 9.43333, "lat": 51.700001}}, {"id": 6552502, "name": "Dielmissen", "state": "", "country": "DE", "coord": {"lon": 9.61667, "lat": 51.966702}}, {"id": 6552503, "name": "Eimen", "state": "", "country": "DE", "coord": {"lon": 9.78333, "lat": 51.883301}}, {"id": 6552504, "name": "F\u00fcrstenberg", "state": "", "country": "DE", "coord": {"lon": 9.4, "lat": 51.733299}}, {"id": 6552505, "name": "Golmbach", "state": "", "country": "DE", "coord": {"lon": 9.55, "lat": 51.900002}}, {"id": 6552506, "name": "Halle", "state": "", "country": "DE", "coord": {"lon": 9.56667, "lat": 51.983299}}, {"id": 6552507, "name": "Hehlen", "state": "", "country": "DE", "coord": {"lon": 9.4673, "lat": 51.9842}}, {"id": 6552508, "name": "Heinade", "state": "", "country": "DE", "coord": {"lon": 9.63333, "lat": 51.833302}}, {"id": 6552509, "name": "Heinsen", "state": "", "country": "DE", "coord": {"lon": 9.43333, "lat": 51.883301}}, {"id": 6552510, "name": "Heyen", "state": "", "country": "DE", "coord": {"lon": 9.51667, "lat": 52.016701}}, {"id": 6552511, "name": "Holenberg", "state": "", "country": "DE", "coord": {"lon": 9.58333, "lat": 51.916698}}, {"id": 6552512, "name": "Holzen", "state": "", "country": "DE", "coord": {"lon": 9.66667, "lat": 51.9333}}, {"id": 6552513, "name": "Kirchbrak", "state": "", "country": "DE", "coord": {"lon": 9.58333, "lat": 51.966702}}, {"id": 6552514, "name": "Lenne", "state": "", "country": "DE", "coord": {"lon": 9.68333, "lat": 51.900002}}, {"id": 6552515, "name": "L\u00fcerdissen", "state": "", "country": "DE", "coord": {"lon": 9.61667, "lat": 51.950001}}, {"id": 6552516, "name": "Negenborn", "state": "", "country": "DE", "coord": {"lon": 9.56667, "lat": 51.883301}}, {"id": 6552517, "name": "Pegestorf", "state": "", "country": "DE", "coord": {"lon": 9.5, "lat": 51.9333}}, {"id": 6552518, "name": "Vahlbruch", "state": "", "country": "DE", "coord": {"lon": 9.35, "lat": 51.916698}}, {"id": 6552519, "name": "Wangelnstedt", "state": "", "country": "DE", "coord": {"lon": 9.68333, "lat": 51.866699}}, {"id": 6552520, "name": "Balge", "state": "", "country": "DE", "coord": {"lon": 9.18648, "lat": 52.718399}}, {"id": 6552521, "name": "Binnen", "state": "", "country": "DE", "coord": {"lon": 9.13327, "lat": 52.619099}}, {"id": 6552522, "name": "Eystrup", "state": "", "country": "DE", "coord": {"lon": 9.21298, "lat": 52.779251}}, {"id": 6552523, "name": "Gandesbergen", "state": "", "country": "DE", "coord": {"lon": 9.2227, "lat": 52.760201}}, {"id": 6552524, "name": "H\u00e4melhausen", "state": "", "country": "DE", "coord": {"lon": 9.28035, "lat": 52.780399}}, {"id": 6552526, "name": "Ha\u00dfbergen", "state": "", "country": "DE", "coord": {"lon": 9.23009, "lat": 52.729599}}, {"id": 6552527, "name": "Hilgermissen", "state": "", "country": "DE", "coord": {"lon": 9.15605, "lat": 52.8442}}, {"id": 6552528, "name": "Hoyerhagen", "state": "", "country": "DE", "coord": {"lon": 9.08564, "lat": 52.828899}}, {"id": 6552529, "name": "Husum", "state": "", "country": "DE", "coord": {"lon": 9.25335, "lat": 52.565201}}, {"id": 6552530, "name": "Leese", "state": "", "country": "DE", "coord": {"lon": 9.11428, "lat": 52.504101}}, {"id": 6552531, "name": "Linsburg", "state": "", "country": "DE", "coord": {"lon": 9.30339, "lat": 52.592999}}, {"id": 6552532, "name": "Marklohe", "state": "", "country": "DE", "coord": {"lon": 9.1406, "lat": 52.6422}}, {"id": 6552533, "name": "Pennigsehl", "state": "", "country": "DE", "coord": {"lon": 9.02979, "lat": 52.6478}}, {"id": 6552534, "name": "Raddestorf", "state": "", "country": "DE", "coord": {"lon": 8.96346, "lat": 52.4552}}, {"id": 6552536, "name": "St\u00f6ckse", "state": "", "country": "DE", "coord": {"lon": 9.33874, "lat": 52.6357}}, {"id": 6552537, "name": "Warmsen", "state": "", "country": "DE", "coord": {"lon": 8.85097, "lat": 52.4548}}, {"id": 6552538, "name": "Warpe", "state": "", "country": "DE", "coord": {"lon": 9.10518, "lat": 52.740398}}, {"id": 6552539, "name": "Wietzen", "state": "", "country": "DE", "coord": {"lon": 9.0734, "lat": 52.7103}}, {"id": 6552540, "name": "Ahnsen", "state": "", "country": "DE", "coord": {"lon": 9.0967, "lat": 52.256199}}, {"id": 6552541, "name": "Bad Eilsen", "state": "", "country": "DE", "coord": {"lon": 9.10255, "lat": 52.241402}}, {"id": 6552542, "name": "Beckedorf", "state": "", "country": "DE", "coord": {"lon": 9.31673, "lat": 52.344299}}, {"id": 6552543, "name": "Buchholz", "state": "", "country": "DE", "coord": {"lon": 9.12375, "lat": 52.226101}}, {"id": 6552544, "name": "Hee\u00dfen", "state": "", "country": "DE", "coord": {"lon": 9.10694, "lat": 52.2346}}, {"id": 6552545, "name": "Niedernw\u00f6hren", "state": "", "country": "DE", "coord": {"lon": 9.13805, "lat": 52.351379}}, {"id": 6552546, "name": "Nordsehl", "state": "", "country": "DE", "coord": {"lon": 9.18223, "lat": 52.355499}}, {"id": 6552547, "name": "Pohle", "state": "", "country": "DE", "coord": {"lon": 9.34012, "lat": 52.263802}}, {"id": 6552548, "name": "Pollhagen", "state": "", "country": "DE", "coord": {"lon": 9.18808, "lat": 52.376598}}, {"id": 6552549, "name": "Adelheidsdorf", "state": "", "country": "DE", "coord": {"lon": 10.05, "lat": 52.549999}}, {"id": 6552550, "name": "Ahnsbeck", "state": "", "country": "DE", "coord": {"lon": 10.3, "lat": 52.616699}}, {"id": 6552551, "name": "Beedenbostel", "state": "", "country": "DE", "coord": {"lon": 10.25, "lat": 52.650002}}, {"id": 6552552, "name": "Br\u00f6ckel", "state": "", "country": "DE", "coord": {"lon": 10.2167, "lat": 52.516701}}, {"id": 6552553, "name": "Eicklingen", "state": "", "country": "DE", "coord": {"lon": 10.1867, "lat": 52.5462}}, {"id": 6552554, "name": "Eldingen", "state": "", "country": "DE", "coord": {"lon": 10.3333, "lat": 52.6833}}, {"id": 6552555, "name": "Eschede", "state": "", "country": "DE", "coord": {"lon": 10.25, "lat": 52.733299}}, {"id": 6552556, "name": "Fa\u00dfberg", "state": "", "country": "DE", "coord": {"lon": 10.1643, "lat": 52.897099}}, {"id": 6552557, "name": "Habighorst", "state": "", "country": "DE", "coord": {"lon": 10.2333, "lat": 52.700001}}, {"id": 6552558, "name": "Hamb\u00fchren", "state": "", "country": "DE", "coord": {"lon": 9.98333, "lat": 52.633301}}, {"id": 6552559, "name": "Hermannsburg", "state": "", "country": "DE", "coord": {"lon": 10.0833, "lat": 52.833302}}, {"id": 6552560, "name": "H\u00f6fer", "state": "", "country": "DE", "coord": {"lon": 10.25, "lat": 52.6833}}, {"id": 6552561, "name": "Hohne", "state": "", "country": "DE", "coord": {"lon": 10.3667, "lat": 52.583302}}, {"id": 6552562, "name": "Lachendorf", "state": "", "country": "DE", "coord": {"lon": 10.25, "lat": 52.616699}}, {"id": 6552563, "name": "Langlingen", "state": "", "country": "DE", "coord": {"lon": 10.2833, "lat": 52.549999}}, {"id": 6552564, "name": "Nienhagen", "state": "", "country": "DE", "coord": {"lon": 10.1, "lat": 52.549999}}, {"id": 6552565, "name": "Scharnhorst", "state": "", "country": "DE", "coord": {"lon": 10.2833, "lat": 52.716702}}, {"id": 6552566, "name": "Unterl\u00fc\u00df", "state": "", "country": "DE", "coord": {"lon": 10.2743, "lat": 52.8381}}, {"id": 6552567, "name": "Wathlingen", "state": "", "country": "DE", "coord": {"lon": 10.1315, "lat": 52.542099}}, {"id": 6552568, "name": "Wienhausen", "state": "", "country": "DE", "coord": {"lon": 10.1833, "lat": 52.583302}}, {"id": 6552569, "name": "Wietze", "state": "", "country": "DE", "coord": {"lon": 9.8348, "lat": 52.656399}}, {"id": 6552570, "name": "Winsen (Aller)", "state": "", "country": "DE", "coord": {"lon": 9.9087, "lat": 52.679298}}, {"id": 6552571, "name": "Appeln", "state": "", "country": "DE", "coord": {"lon": 8.9, "lat": 53.450001}}, {"id": 6552572, "name": "Armstorf", "state": "", "country": "DE", "coord": {"lon": 9.06667, "lat": 53.599998}}, {"id": 6552573, "name": "Belum", "state": "", "country": "DE", "coord": {"lon": 9.0, "lat": 53.8167}}, {"id": 6552574, "name": "Bokel", "state": "", "country": "DE", "coord": {"lon": 8.76667, "lat": 53.383301}}, {"id": 6552575, "name": "Bramstedt", "state": "", "country": "DE", "coord": {"lon": 8.6863, "lat": 53.364399}}, {"id": 6552576, "name": "B\u00fclkau", "state": "", "country": "DE", "coord": {"lon": 8.96667, "lat": 53.75}}, {"id": 6552577, "name": "Cadenberge", "state": "", "country": "DE", "coord": {"lon": 9.0679, "lat": 53.764999}}, {"id": 6552578, "name": "Cappel", "state": "", "country": "DE", "coord": {"lon": 8.58333, "lat": 53.733299}}, {"id": 6552579, "name": "Dorum", "state": "", "country": "DE", "coord": {"lon": 8.56667, "lat": 53.6833}}, {"id": 6552580, "name": "Drangstedt", "state": "", "country": "DE", "coord": {"lon": 8.76667, "lat": 53.616699}}, {"id": 6552581, "name": "Driftsethe", "state": "", "country": "DE", "coord": {"lon": 8.61667, "lat": 53.383301}}, {"id": 6552582, "name": "Elmlohe", "state": "", "country": "DE", "coord": {"lon": 8.74254, "lat": 53.586029}}, {"id": 6552583, "name": "Fl\u00f6geln", "state": "", "country": "DE", "coord": {"lon": 8.81667, "lat": 53.666698}}, {"id": 6552584, "name": "Frelsdorf", "state": "", "country": "DE", "coord": {"lon": 8.9, "lat": 53.483299}}, {"id": 6552585, "name": "Geversdorf", "state": "", "country": "DE", "coord": {"lon": 9.08333, "lat": 53.799999}}, {"id": 6552586, "name": "Hagen im Bremischen", "state": "", "country": "DE", "coord": {"lon": 8.65, "lat": 53.366699}}, {"id": 6552587, "name": "Hechthausen", "state": "", "country": "DE", "coord": {"lon": 9.24053, "lat": 53.639961}}, {"id": 6552588, "name": "Heerstedt", "state": "", "country": "DE", "coord": {"lon": 8.75, "lat": 53.466702}}, {"id": 6552589, "name": "Hollen", "state": "", "country": "DE", "coord": {"lon": 8.7, "lat": 53.4333}}, {"id": 6552590, "name": "Hollnseth", "state": "", "country": "DE", "coord": {"lon": 9.1, "lat": 53.583302}}, {"id": 6552591, "name": "Ihlienworth", "state": "", "country": "DE", "coord": {"lon": 8.91667, "lat": 53.733299}}, {"id": 6552592, "name": "Kirchwistedt", "state": "", "country": "DE", "coord": {"lon": 8.9, "lat": 53.416698}}, {"id": 6552593, "name": "K\u00f6hlen", "state": "", "country": "DE", "coord": {"lon": 8.87635, "lat": 53.54031}}, {"id": 6552594, "name": "K\u00fchrstedt", "state": "", "country": "DE", "coord": {"lon": 8.8, "lat": 53.5667}}, {"id": 6552595, "name": "Lamstedt", "state": "", "country": "DE", "coord": {"lon": 9.09719, "lat": 53.633701}}, {"id": 6552596, "name": "Lintig", "state": "", "country": "DE", "coord": {"lon": 8.88333, "lat": 53.599998}}, {"id": 6552597, "name": "Loxstedt", "state": "", "country": "DE", "coord": {"lon": 8.65, "lat": 53.466702}}, {"id": 6552598, "name": "Lunestedt", "state": "", "country": "DE", "coord": {"lon": 8.75, "lat": 53.4333}}, {"id": 6552599, "name": "Midlum", "state": "", "country": "DE", "coord": {"lon": 8.63333, "lat": 53.733299}}, {"id": 6552600, "name": "Misselwarden", "state": "", "country": "DE", "coord": {"lon": 8.51667, "lat": 53.666698}}, {"id": 6552601, "name": "Mittelstenahe", "state": "", "country": "DE", "coord": {"lon": 9.03333, "lat": 53.650002}}, {"id": 6552602, "name": "Mulsum", "state": "", "country": "DE", "coord": {"lon": 8.55, "lat": 53.666698}}, {"id": 6552603, "name": "Neuenkirchen", "state": "", "country": "DE", "coord": {"lon": 8.9, "lat": 53.766701}}, {"id": 6552604, "name": "Nordholz", "state": "", "country": "DE", "coord": {"lon": 8.6318, "lat": 53.761398}}, {"id": 6552605, "name": "Nordleda", "state": "", "country": "DE", "coord": {"lon": 8.83333, "lat": 53.766701}}, {"id": 6552606, "name": "Oberndorf", "state": "", "country": "DE", "coord": {"lon": 9.15, "lat": 53.75}}, {"id": 6552607, "name": "Odisheim", "state": "", "country": "DE", "coord": {"lon": 8.93333, "lat": 53.6833}}, {"id": 6552608, "name": "Osten", "state": "", "country": "DE", "coord": {"lon": 9.2, "lat": 53.700001}}, {"id": 6552609, "name": "Osterbruch", "state": "", "country": "DE", "coord": {"lon": 8.95, "lat": 53.783298}}, {"id": 6552610, "name": "Ringstedt", "state": "", "country": "DE", "coord": {"lon": 8.85, "lat": 53.5667}}, {"id": 6552611, "name": "Sandstedt", "state": "", "country": "DE", "coord": {"lon": 8.53333, "lat": 53.366699}}, {"id": 6552612, "name": "Schiffdorf", "state": "", "country": "DE", "coord": {"lon": 8.65, "lat": 53.533298}}, {"id": 6552613, "name": "Steinau", "state": "", "country": "DE", "coord": {"lon": 8.88333, "lat": 53.6833}}, {"id": 6552614, "name": "Stinstedt", "state": "", "country": "DE", "coord": {"lon": 8.96667, "lat": 53.666698}}, {"id": 6552615, "name": "Stubben", "state": "", "country": "DE", "coord": {"lon": 8.78333, "lat": 53.400002}}, {"id": 6552616, "name": "Uthlede", "state": "", "country": "DE", "coord": {"lon": 8.58333, "lat": 53.3167}}, {"id": 6552617, "name": "Wanna", "state": "", "country": "DE", "coord": {"lon": 8.8, "lat": 53.75}}, {"id": 6552618, "name": "Wremen", "state": "", "country": "DE", "coord": {"lon": 8.51667, "lat": 53.650002}}, {"id": 6552619, "name": "Wulsb\u00fcttel", "state": "", "country": "DE", "coord": {"lon": 8.6971, "lat": 53.310501}}, {"id": 6552620, "name": "Appel", "state": "", "country": "DE", "coord": {"lon": 9.75, "lat": 53.383301}}, {"id": 6552621, "name": "Asendorf", "state": "", "country": "DE", "coord": {"lon": 9.979, "lat": 53.289902}}, {"id": 6552622, "name": "Bendestorf", "state": "", "country": "DE", "coord": {"lon": 9.9843, "lat": 53.335602}}, {"id": 6552623, "name": "Brackel", "state": "", "country": "DE", "coord": {"lon": 10.0333, "lat": 53.299999}}, {"id": 6552624, "name": "Dohren", "state": "", "country": "DE", "coord": {"lon": 9.7, "lat": 53.299999}}, {"id": 6552625, "name": "Drage", "state": "", "country": "DE", "coord": {"lon": 10.2667, "lat": 53.416698}}, {"id": 6552626, "name": "Drestedt", "state": "", "country": "DE", "coord": {"lon": 9.76667, "lat": 53.333302}}, {"id": 6552627, "name": "Egestorf", "state": "", "country": "DE", "coord": {"lon": 10.063, "lat": 53.193001}}, {"id": 6552628, "name": "Eyendorf", "state": "", "country": "DE", "coord": {"lon": 10.15, "lat": 53.200001}}, {"id": 6552629, "name": "Garlstorf", "state": "", "country": "DE", "coord": {"lon": 10.10137, "lat": 53.237282}}, {"id": 6552630, "name": "Garstedt", "state": "", "country": "DE", "coord": {"lon": 10.16137, "lat": 53.284672}}, {"id": 6552631, "name": "G\u00f6denstorf", "state": "", "country": "DE", "coord": {"lon": 10.12349, "lat": 53.22855}}, {"id": 6552632, "name": "Halvesbostel", "state": "", "country": "DE", "coord": {"lon": 9.6, "lat": 53.349998}}, {"id": 6552633, "name": "Handeloh", "state": "", "country": "DE", "coord": {"lon": 9.83923, "lat": 53.245628}}, {"id": 6552634, "name": "Hanstedt", "state": "", "country": "DE", "coord": {"lon": 10.0167, "lat": 53.266701}}, {"id": 6552635, "name": "Harmstorf", "state": "", "country": "DE", "coord": {"lon": 9.98333, "lat": 53.349998}}, {"id": 6552636, "name": "Heidenau", "state": "", "country": "DE", "coord": {"lon": 9.66667, "lat": 53.3167}}, {"id": 6552637, "name": "Hollenstedt", "state": "", "country": "DE", "coord": {"lon": 9.71667, "lat": 53.366699}}, {"id": 6552638, "name": "Jesteburg", "state": "", "country": "DE", "coord": {"lon": 9.96667, "lat": 53.299999}}, {"id": 6552639, "name": "Kakenstorf", "state": "", "country": "DE", "coord": {"lon": 9.76667, "lat": 53.3167}}, {"id": 6552640, "name": "Burk", "state": "", "country": "DE", "coord": {"lon": 10.4667, "lat": 49.133301}}, {"id": 6552641, "name": "K\u00f6nigsmoor", "state": "", "country": "DE", "coord": {"lon": 9.65, "lat": 53.233299}}, {"id": 6552642, "name": "Marschacht", "state": "", "country": "DE", "coord": {"lon": 10.37524, "lat": 53.415199}}, {"id": 6552643, "name": "Marxen", "state": "", "country": "DE", "coord": {"lon": 10.0167, "lat": 53.3167}}, {"id": 6552644, "name": "Moisburg", "state": "", "country": "DE", "coord": {"lon": 9.7, "lat": 53.400002}}, {"id": 6552645, "name": "Neu Wulmstorf", "state": "", "country": "DE", "coord": {"lon": 9.7896, "lat": 53.422699}}, {"id": 6552646, "name": "Otter", "state": "", "country": "DE", "coord": {"lon": 9.73333, "lat": 53.233299}}, {"id": 6552647, "name": "Regesbostel", "state": "", "country": "DE", "coord": {"lon": 9.65, "lat": 53.383301}}, {"id": 6552648, "name": "Salzhausen", "state": "", "country": "DE", "coord": {"lon": 10.1667, "lat": 53.233299}}, {"id": 6552649, "name": "Seevetal", "state": "", "country": "DE", "coord": {"lon": 9.97915, "lat": 53.3815}}, {"id": 6552650, "name": "Stelle", "state": "", "country": "DE", "coord": {"lon": 10.11138, "lat": 53.384159}}, {"id": 6552651, "name": "Tespe", "state": "", "country": "DE", "coord": {"lon": 10.41084, "lat": 53.3964}}, {"id": 6552652, "name": "Toppenstedt", "state": "", "country": "DE", "coord": {"lon": 10.1145, "lat": 53.264301}}, {"id": 6552653, "name": "Tostedt", "state": "", "country": "DE", "coord": {"lon": 9.7114, "lat": 53.2771}}, {"id": 6552654, "name": "Undeloh", "state": "", "country": "DE", "coord": {"lon": 9.97574, "lat": 53.197109}}, {"id": 6552655, "name": "Vierh\u00f6fen", "state": "", "country": "DE", "coord": {"lon": 10.2167, "lat": 53.266701}}, {"id": 6552656, "name": "Welle", "state": "", "country": "DE", "coord": {"lon": 9.8053, "lat": 53.230202}}, {"id": 6552657, "name": "Wenzendorf", "state": "", "country": "DE", "coord": {"lon": 9.76667, "lat": 53.349998}}, {"id": 6552658, "name": "Wistedt", "state": "", "country": "DE", "coord": {"lon": 9.68333, "lat": 53.266701}}, {"id": 6552659, "name": "Wulfsen", "state": "", "country": "DE", "coord": {"lon": 10.15, "lat": 53.299999}}, {"id": 6552660, "name": "Langendorf", "state": "", "country": "DE", "coord": {"lon": 11.25, "lat": 53.099998}}, {"id": 6552661, "name": "L\u00fcbbow", "state": "", "country": "DE", "coord": {"lon": 11.1833, "lat": 52.916698}}, {"id": 6552662, "name": "Neu Darchau", "state": "", "country": "DE", "coord": {"lon": 10.88529, "lat": 53.229012}}, {"id": 6552663, "name": "Prezelle", "state": "", "country": "DE", "coord": {"lon": 11.4, "lat": 52.966702}}, {"id": 6552664, "name": "Woltersdorf", "state": "", "country": "DE", "coord": {"lon": 11.2167, "lat": 52.950001}}, {"id": 6552665, "name": "Zernien", "state": "", "country": "DE", "coord": {"lon": 10.8833, "lat": 53.0667}}, {"id": 6552666, "name": "Adendorf", "state": "", "country": "DE", "coord": {"lon": 10.45, "lat": 53.283298}}, {"id": 6552667, "name": "Amelinghausen", "state": "", "country": "DE", "coord": {"lon": 10.21274, "lat": 53.12397}}, {"id": 6552668, "name": "Barendorf", "state": "", "country": "DE", "coord": {"lon": 10.52157, "lat": 53.228958}}, {"id": 6552669, "name": "Barnstedt", "state": "", "country": "DE", "coord": {"lon": 10.3667, "lat": 53.133301}}, {"id": 6552670, "name": "Barum", "state": "", "country": "DE", "coord": {"lon": 10.4, "lat": 53.349998}}, {"id": 6552671, "name": "Betzendorf", "state": "", "country": "DE", "coord": {"lon": 10.3167, "lat": 53.133301}}, {"id": 6552672, "name": "Boitze", "state": "", "country": "DE", "coord": {"lon": 10.75, "lat": 53.150002}}, {"id": 6552673, "name": "Brietlingen", "state": "", "country": "DE", "coord": {"lon": 10.45, "lat": 53.333302}}, {"id": 6552674, "name": "Deutsch Evern", "state": "", "country": "DE", "coord": {"lon": 10.4333, "lat": 53.200001}}, {"id": 6552675, "name": "Echem", "state": "", "country": "DE", "coord": {"lon": 10.5333, "lat": 53.333302}}, {"id": 6552676, "name": "Embsen", "state": "", "country": "DE", "coord": {"lon": 10.3481, "lat": 53.179501}}, {"id": 6552677, "name": "Handorf", "state": "", "country": "DE", "coord": {"lon": 10.35, "lat": 53.349998}}, {"id": 6552678, "name": "Hittbergen", "state": "", "country": "DE", "coord": {"lon": 10.58914, "lat": 53.344501}}, {"id": 6552680, "name": "Kirchgellersen", "state": "", "country": "DE", "coord": {"lon": 10.3, "lat": 53.233299}}, {"id": 6552681, "name": "L\u00fcdersburg", "state": "", "country": "DE", "coord": {"lon": 10.5667, "lat": 53.3167}}, {"id": 6552682, "name": "Mechtersen", "state": "", "country": "DE", "coord": {"lon": 10.3167, "lat": 53.283298}}, {"id": 6552683, "name": "Melbeck", "state": "", "country": "DE", "coord": {"lon": 10.4267, "lat": 53.169899}}, {"id": 6552684, "name": "Nahrendorf", "state": "", "country": "DE", "coord": {"lon": 10.81381, "lat": 53.173889}}, {"id": 6552685, "name": "Neetze", "state": "", "country": "DE", "coord": {"lon": 10.62134, "lat": 53.265202}}, {"id": 6552687, "name": "Radbruch", "state": "", "country": "DE", "coord": {"lon": 10.2833, "lat": 53.3167}}, {"id": 6552688, "name": "Rehlingen", "state": "", "country": "DE", "coord": {"lon": 10.22092, "lat": 53.105721}}, {"id": 6552689, "name": "Reinstorf", "state": "", "country": "DE", "coord": {"lon": 10.5667, "lat": 53.233299}}, {"id": 6552690, "name": "Reppenstedt", "state": "", "country": "DE", "coord": {"lon": 10.35, "lat": 53.25}}, {"id": 6552691, "name": "Rullstorf", "state": "", "country": "DE", "coord": {"lon": 10.52971, "lat": 53.286449}}, {"id": 6552692, "name": "Scharnebeck", "state": "", "country": "DE", "coord": {"lon": 10.5167, "lat": 53.299999}}, {"id": 6552693, "name": "Soderstorf", "state": "", "country": "DE", "coord": {"lon": 10.14807, "lat": 53.14275}}, {"id": 6552694, "name": "S\u00fcdergellersen", "state": "", "country": "DE", "coord": {"lon": 10.3, "lat": 53.216702}}, {"id": 6552695, "name": "Thomasburg", "state": "", "country": "DE", "coord": {"lon": 10.6667, "lat": 53.233299}}, {"id": 6552696, "name": "Tosterglope", "state": "", "country": "DE", "coord": {"lon": 10.8193, "lat": 53.209839}}, {"id": 6552697, "name": "Vastorf", "state": "", "country": "DE", "coord": {"lon": 10.55, "lat": 53.200001}}, {"id": 6552698, "name": "V\u00f6gelsen", "state": "", "country": "DE", "coord": {"lon": 10.35, "lat": 53.283298}}, {"id": 6552699, "name": "Wendisch Evern", "state": "", "country": "DE", "coord": {"lon": 10.4667, "lat": 53.216702}}, {"id": 6552700, "name": "Westergellersen", "state": "", "country": "DE", "coord": {"lon": 10.25, "lat": 53.233299}}, {"id": 6552701, "name": "Wittorf", "state": "", "country": "DE", "coord": {"lon": 10.3833, "lat": 53.333302}}, {"id": 6552703, "name": "Axstedt", "state": "", "country": "DE", "coord": {"lon": 8.76667, "lat": 53.349998}}, {"id": 6552704, "name": "Grasberg", "state": "", "country": "DE", "coord": {"lon": 9.0162, "lat": 53.185398}}, {"id": 6552705, "name": "Hambergen", "state": "", "country": "DE", "coord": {"lon": 8.83333, "lat": 53.3167}}, {"id": 6552706, "name": "Lilienthal", "state": "", "country": "DE", "coord": {"lon": 8.92932, "lat": 53.165699}}, {"id": 6552707, "name": "L\u00fcbberstedt", "state": "", "country": "DE", "coord": {"lon": 8.8, "lat": 53.333302}}, {"id": 6552708, "name": "Ritterhude", "state": "", "country": "DE", "coord": {"lon": 8.7216, "lat": 53.181149}}, {"id": 6552709, "name": "Schwanewede", "state": "", "country": "DE", "coord": {"lon": 8.54075, "lat": 53.232101}}, {"id": 6552710, "name": "Vollersode", "state": "", "country": "DE", "coord": {"lon": 8.91667, "lat": 53.333302}}, {"id": 6552711, "name": "Worpswede", "state": "", "country": "DE", "coord": {"lon": 8.9345, "lat": 53.219299}}, {"id": 6552712, "name": "Ahausen", "state": "", "country": "DE", "coord": {"lon": 9.31667, "lat": 53.0667}}, {"id": 6552713, "name": "Alfstedt", "state": "", "country": "DE", "coord": {"lon": 9.0657, "lat": 53.5471}}, {"id": 6552714, "name": "Anderlingen", "state": "", "country": "DE", "coord": {"lon": 9.3, "lat": 53.366699}}, {"id": 6552715, "name": "Basdahl", "state": "", "country": "DE", "coord": {"lon": 9.0, "lat": 53.450001}}, {"id": 6552716, "name": "B\u00f6tersen", "state": "", "country": "DE", "coord": {"lon": 9.31667, "lat": 53.133301}}, {"id": 6552717, "name": "Bothel", "state": "", "country": "DE", "coord": {"lon": 9.5, "lat": 53.0667}}, {"id": 6552718, "name": "Breddorf", "state": "", "country": "DE", "coord": {"lon": 9.08333, "lat": 53.299999}}, {"id": 6552719, "name": "Brockel", "state": "", "country": "DE", "coord": {"lon": 9.51667, "lat": 53.099998}}, {"id": 6552720, "name": "Deinstedt", "state": "", "country": "DE", "coord": {"lon": 9.23333, "lat": 53.416698}}, {"id": 6552721, "name": "Ebersdorf", "state": "", "country": "DE", "coord": {"lon": 9.06667, "lat": 53.516701}}, {"id": 6552722, "name": "Elsdorf", "state": "", "country": "DE", "coord": {"lon": 9.35, "lat": 53.233299}}, {"id": 6552723, "name": "Farven", "state": "", "country": "DE", "coord": {"lon": 9.31667, "lat": 53.4333}}, {"id": 6552724, "name": "Fintel", "state": "", "country": "DE", "coord": {"lon": 9.68333, "lat": 53.166698}}, {"id": 6552725, "name": "Gnarrenburg", "state": "", "country": "DE", "coord": {"lon": 9.0, "lat": 53.383301}}, {"id": 6552726, "name": "Gro\u00df Meckelsen", "state": "", "country": "DE", "coord": {"lon": 9.45, "lat": 53.283298}}, {"id": 6552727, "name": "Gyhum", "state": "", "country": "DE", "coord": {"lon": 9.31667, "lat": 53.216702}}, {"id": 6552728, "name": "Hamersen", "state": "", "country": "DE", "coord": {"lon": 9.48333, "lat": 53.25}}, {"id": 6552729, "name": "Hassendorf", "state": "", "country": "DE", "coord": {"lon": 9.26667, "lat": 53.116699}}, {"id": 6552730, "name": "Heeslingen", "state": "", "country": "DE", "coord": {"lon": 9.33333, "lat": 53.3167}}, {"id": 6552731, "name": "Hellwege", "state": "", "country": "DE", "coord": {"lon": 9.23333, "lat": 53.0667}}, {"id": 6552732, "name": "Helvesiek", "state": "", "country": "DE", "coord": {"lon": 9.5, "lat": 53.216702}}, {"id": 6552733, "name": "Hemsb\u00fcnde", "state": "", "country": "DE", "coord": {"lon": 9.46667, "lat": 53.099998}}, {"id": 6552734, "name": "Hemslingen", "state": "", "country": "DE", "coord": {"lon": 9.6, "lat": 53.083302}}, {"id": 6552735, "name": "Hepstedt", "state": "", "country": "DE", "coord": {"lon": 9.08449, "lat": 53.258949}}, {"id": 6552736, "name": "Hipstedt", "state": "", "country": "DE", "coord": {"lon": 8.96667, "lat": 53.483299}}, {"id": 6552737, "name": "Horstedt", "state": "", "country": "DE", "coord": {"lon": 9.23333, "lat": 53.1833}}, {"id": 6552738, "name": "Kalbe", "state": "", "country": "DE", "coord": {"lon": 9.55, "lat": 53.299999}}, {"id": 6552739, "name": "Kirchtimke", "state": "", "country": "DE", "coord": {"lon": 9.15, "lat": 53.25}}, {"id": 6552740, "name": "Kirchwalsede", "state": "", "country": "DE", "coord": {"lon": 9.4, "lat": 53.016701}}, {"id": 6552741, "name": "Klein Meckelsen", "state": "", "country": "DE", "coord": {"lon": 9.45, "lat": 53.299999}}, {"id": 6552742, "name": "Lauenbr\u00fcck", "state": "", "country": "DE", "coord": {"lon": 9.56667, "lat": 53.200001}}, {"id": 6552743, "name": "Lengenbostel", "state": "", "country": "DE", "coord": {"lon": 9.51667, "lat": 53.299999}}, {"id": 6552744, "name": "Oerel", "state": "", "country": "DE", "coord": {"lon": 9.05, "lat": 53.483299}}, {"id": 6552745, "name": "Ostereistedt", "state": "", "country": "DE", "coord": {"lon": 9.16667, "lat": 53.299999}}, {"id": 6552746, "name": "Ree\u00dfum", "state": "", "country": "DE", "coord": {"lon": 9.21667, "lat": 53.133301}}, {"id": 6552747, "name": "Rhade", "state": "", "country": "DE", "coord": {"lon": 9.11667, "lat": 53.333302}}, {"id": 6552748, "name": "Sandbostel", "state": "", "country": "DE", "coord": {"lon": 9.13333, "lat": 53.416698}}, {"id": 6552749, "name": "Schee\u00dfel", "state": "", "country": "DE", "coord": {"lon": 9.4767, "lat": 53.163799}}, {"id": 6552750, "name": "Seedorf", "state": "", "country": "DE", "coord": {"lon": 9.23333, "lat": 53.349998}}, {"id": 6552751, "name": "Selsingen", "state": "", "country": "DE", "coord": {"lon": 9.2167, "lat": 53.376202}}, {"id": 6552752, "name": "Sittensen", "state": "", "country": "DE", "coord": {"lon": 9.50227, "lat": 53.2985}}, {"id": 6552753, "name": "Sottrum", "state": "", "country": "DE", "coord": {"lon": 9.2614, "lat": 53.115501}}, {"id": 6552754, "name": "Stemmen", "state": "", "country": "DE", "coord": {"lon": 9.55, "lat": 53.216702}}, {"id": 6552755, "name": "Tarmstedt", "state": "", "country": "DE", "coord": {"lon": 9.07951, "lat": 53.224739}}, {"id": 6552756, "name": "Tiste", "state": "", "country": "DE", "coord": {"lon": 9.53333, "lat": 53.283298}}, {"id": 6552757, "name": "Vahlde", "state": "", "country": "DE", "coord": {"lon": 9.63333, "lat": 53.1833}}, {"id": 6552758, "name": "Vierden", "state": "", "country": "DE", "coord": {"lon": 9.5, "lat": 53.333302}}, {"id": 6552759, "name": "Vorwerk", "state": "", "country": "DE", "coord": {"lon": 9.15, "lat": 53.1833}}, {"id": 6552760, "name": "Westertimke", "state": "", "country": "DE", "coord": {"lon": 9.13153, "lat": 53.238201}}, {"id": 6552761, "name": "Westerwalsede", "state": "", "country": "DE", "coord": {"lon": 9.36667, "lat": 53.033298}}, {"id": 6552762, "name": "Wilstedt", "state": "", "country": "DE", "coord": {"lon": 9.1, "lat": 53.1833}}, {"id": 6552763, "name": "Wohnste", "state": "", "country": "DE", "coord": {"lon": 9.53333, "lat": 53.349998}}, {"id": 6552764, "name": "Bispingen", "state": "", "country": "DE", "coord": {"lon": 9.99772, "lat": 53.083118}}, {"id": 6552765, "name": "B\u00f6hme", "state": "", "country": "DE", "coord": {"lon": 9.46667, "lat": 52.783298}}, {"id": 6552766, "name": "Bomlitz", "state": "", "country": "DE", "coord": {"lon": 9.6417, "lat": 52.8811}}, {"id": 6552768, "name": "Eickeloh", "state": "", "country": "DE", "coord": {"lon": 9.6, "lat": 52.733299}}, {"id": 6552769, "name": "Essel", "state": "", "country": "DE", "coord": {"lon": 9.6458, "lat": 52.679298}}, {"id": 6552770, "name": "Frankenfeld", "state": "", "country": "DE", "coord": {"lon": 9.41667, "lat": 52.766701}}, {"id": 6552771, "name": "Gilten", "state": "", "country": "DE", "coord": {"lon": 9.58333, "lat": 52.700001}}, {"id": 6552772, "name": "Grethem", "state": "", "country": "DE", "coord": {"lon": 9.58333, "lat": 52.716702}}, {"id": 6552773, "name": "Hademstorf", "state": "", "country": "DE", "coord": {"lon": 9.63333, "lat": 52.716702}}, {"id": 6552774, "name": "H\u00e4uslingen", "state": "", "country": "DE", "coord": {"lon": 9.38333, "lat": 52.799999}}, {"id": 6552775, "name": "Hodenhagen", "state": "", "country": "DE", "coord": {"lon": 9.58333, "lat": 52.75}}, {"id": 6552776, "name": "Lindwedel", "state": "", "country": "DE", "coord": {"lon": 9.68333, "lat": 52.616699}}, {"id": 6552777, "name": "Neuenkirchen", "state": "", "country": "DE", "coord": {"lon": 9.71667, "lat": 53.033298}}, {"id": 6552778, "name": "Schwarmstedt", "state": "", "country": "DE", "coord": {"lon": 9.6254, "lat": 52.68}}, {"id": 6552779, "name": "Wietzendorf", "state": "", "country": "DE", "coord": {"lon": 9.98333, "lat": 52.916698}}, {"id": 6552780, "name": "Agathenburg", "state": "", "country": "DE", "coord": {"lon": 9.53333, "lat": 53.5667}}, {"id": 6552781, "name": "Ahlerstedt", "state": "", "country": "DE", "coord": {"lon": 9.45, "lat": 53.400002}}, {"id": 6552782, "name": "Apensen", "state": "", "country": "DE", "coord": {"lon": 9.61355, "lat": 53.431702}}, {"id": 6552783, "name": "Balje", "state": "", "country": "DE", "coord": {"lon": 9.13333, "lat": 53.833302}}, {"id": 6552784, "name": "Bargstedt", "state": "", "country": "DE", "coord": {"lon": 9.45, "lat": 53.466702}}, {"id": 6552785, "name": "Beckdorf", "state": "", "country": "DE", "coord": {"lon": 9.61667, "lat": 53.416698}}, {"id": 6552786, "name": "Bliedersdorf", "state": "", "country": "DE", "coord": {"lon": 9.56667, "lat": 53.483299}}, {"id": 6552787, "name": "Brest", "state": "", "country": "DE", "coord": {"lon": 9.38333, "lat": 53.450001}}, {"id": 6552788, "name": "Burweg", "state": "", "country": "DE", "coord": {"lon": 9.26636, "lat": 53.624748}}, {"id": 6552789, "name": "Deinste", "state": "", "country": "DE", "coord": {"lon": 9.43333, "lat": 53.533298}}, {"id": 6552790, "name": "Dollern", "state": "", "country": "DE", "coord": {"lon": 9.5497, "lat": 53.535099}}, {"id": 6552791, "name": "Drochtersen", "state": "", "country": "DE", "coord": {"lon": 9.38463, "lat": 53.710152}}, {"id": 6552792, "name": "D\u00fcdenb\u00fcttel", "state": "", "country": "DE", "coord": {"lon": 9.35, "lat": 53.583302}}, {"id": 6552793, "name": "Engelschoff", "state": "", "country": "DE", "coord": {"lon": 9.33333, "lat": 53.666698}}, {"id": 6552794, "name": "Estorf", "state": "", "country": "DE", "coord": {"lon": 9.2, "lat": 53.583302}}, {"id": 6552796, "name": "Gro\u00dfenw\u00f6rden", "state": "", "country": "DE", "coord": {"lon": 9.26667, "lat": 53.6833}}, {"id": 6552797, "name": "Gr\u00fcnendeich", "state": "", "country": "DE", "coord": {"lon": 9.61217, "lat": 53.569519}}, {"id": 6552798, "name": "Guderhandviertel", "state": "", "country": "DE", "coord": {"lon": 9.61667, "lat": 53.533298}}, {"id": 6552799, "name": "Hammah", "state": "", "country": "DE", "coord": {"lon": 9.36667, "lat": 53.616699}}, {"id": 6552801, "name": "Himmelpforten", "state": "", "country": "DE", "coord": {"lon": 9.30517, "lat": 53.614128}}, {"id": 6552803, "name": "Jork", "state": "", "country": "DE", "coord": {"lon": 9.68333, "lat": 53.533298}}, {"id": 6552804, "name": "Kranenburg", "state": "", "country": "DE", "coord": {"lon": 9.2, "lat": 53.599998}}, {"id": 6552805, "name": "Krummendeich", "state": "", "country": "DE", "coord": {"lon": 9.21667, "lat": 53.833302}}, {"id": 6552806, "name": "Kutenholz", "state": "", "country": "DE", "coord": {"lon": 9.33333, "lat": 53.483299}}, {"id": 6552807, "name": "Mittelnkirchen", "state": "", "country": "DE", "coord": {"lon": 9.62319, "lat": 53.542252}}, {"id": 6552808, "name": "Neuenkirchen", "state": "", "country": "DE", "coord": {"lon": 9.6, "lat": 53.516701}}, {"id": 6552809, "name": "Nottensdorf", "state": "", "country": "DE", "coord": {"lon": 9.6, "lat": 53.483299}}, {"id": 6552810, "name": "Oederquart", "state": "", "country": "DE", "coord": {"lon": 9.23681, "lat": 53.80267}}, {"id": 6552811, "name": "Oldendorf", "state": "", "country": "DE", "coord": {"lon": 9.25, "lat": 53.583302}}, {"id": 6552812, "name": "Sauensiek", "state": "", "country": "DE", "coord": {"lon": 9.6, "lat": 53.383301}}, {"id": 6552813, "name": "Steinkirchen", "state": "", "country": "DE", "coord": {"lon": 9.6025, "lat": 53.579102}}, {"id": 6552814, "name": "Wischhafen", "state": "", "country": "DE", "coord": {"lon": 9.31667, "lat": 53.783298}}, {"id": 6552815, "name": "Altenmedingen", "state": "", "country": "DE", "coord": {"lon": 10.6, "lat": 53.133301}}, {"id": 6552816, "name": "Barum", "state": "", "country": "DE", "coord": {"lon": 10.5167, "lat": 53.049999}}, {"id": 6552817, "name": "Bienenb\u00fcttel", "state": "", "country": "DE", "coord": {"lon": 10.4833, "lat": 53.133301}}, {"id": 6552818, "name": "Eimke", "state": "", "country": "DE", "coord": {"lon": 10.3167, "lat": 52.966702}}, {"id": 6552819, "name": "Emmendorf", "state": "", "country": "DE", "coord": {"lon": 10.5667, "lat": 53.016701}}, {"id": 6552820, "name": "Gerdau", "state": "", "country": "DE", "coord": {"lon": 10.4167, "lat": 52.966702}}, {"id": 6552822, "name": "Himbergen", "state": "", "country": "DE", "coord": {"lon": 10.7333, "lat": 53.099998}}, {"id": 6552823, "name": "Jelmstorf", "state": "", "country": "DE", "coord": {"lon": 10.5333, "lat": 53.099998}}, {"id": 6552824, "name": "L\u00fcder", "state": "", "country": "DE", "coord": {"lon": 10.6667, "lat": 52.8167}}, {"id": 6552825, "name": "Natendorf", "state": "", "country": "DE", "coord": {"lon": 10.4667, "lat": 53.083302}}, {"id": 6552826, "name": "Oetzen", "state": "", "country": "DE", "coord": {"lon": 10.6833, "lat": 53.016701}}, {"id": 6552827, "name": "R\u00e4tzlingen", "state": "", "country": "DE", "coord": {"lon": 10.6833, "lat": 52.983299}}, {"id": 6552828, "name": "R\u00f6mstedt", "state": "", "country": "DE", "coord": {"lon": 10.65, "lat": 53.099998}}, {"id": 6552829, "name": "Rosche", "state": "", "country": "DE", "coord": {"lon": 10.75, "lat": 52.983299}}, {"id": 6552830, "name": "Schwienau", "state": "", "country": "DE", "coord": {"lon": 10.45, "lat": 53.0}}, {"id": 6552831, "name": "Soltendieck", "state": "", "country": "DE", "coord": {"lon": 10.7667, "lat": 52.866699}}, {"id": 6552832, "name": "Stadensen", "state": "", "country": "DE", "coord": {"lon": 10.55, "lat": 52.883301}}, {"id": 6552833, "name": "Stoetze", "state": "", "country": "DE", "coord": {"lon": 10.7833, "lat": 53.0667}}, {"id": 6552834, "name": "Suderburg", "state": "", "country": "DE", "coord": {"lon": 10.4667, "lat": 52.900002}}, {"id": 6552835, "name": "Suhlendorf", "state": "", "country": "DE", "coord": {"lon": 10.7667, "lat": 52.9333}}, {"id": 6552836, "name": "Weste", "state": "", "country": "DE", "coord": {"lon": 10.7, "lat": 53.0667}}, {"id": 6552837, "name": "Wieren", "state": "", "country": "DE", "coord": {"lon": 10.65, "lat": 52.883301}}, {"id": 6552838, "name": "Wrestedt", "state": "", "country": "DE", "coord": {"lon": 10.5833, "lat": 52.900002}}, {"id": 6552839, "name": "Wriedel", "state": "", "country": "DE", "coord": {"lon": 10.3167, "lat": 53.033298}}, {"id": 6552840, "name": "Blender", "state": "", "country": "DE", "coord": {"lon": 9.1011, "lat": 52.915298}}, {"id": 6552841, "name": "D\u00f6rverden", "state": "", "country": "DE", "coord": {"lon": 9.2711, "lat": 52.845901}}, {"id": 6552842, "name": "Emtinghausen", "state": "", "country": "DE", "coord": {"lon": 8.96667, "lat": 52.9333}}, {"id": 6552843, "name": "Kirchlinteln", "state": "", "country": "DE", "coord": {"lon": 9.2907, "lat": 52.936298}}, {"id": 6552845, "name": "Oyten", "state": "", "country": "DE", "coord": {"lon": 9.0297, "lat": 53.053799}}, {"id": 6552846, "name": "Riede", "state": "", "country": "DE", "coord": {"lon": 8.95, "lat": 52.966702}}, {"id": 6552847, "name": "Thedinghausen", "state": "", "country": "DE", "coord": {"lon": 8.9993, "lat": 52.95295}}, {"id": 6552852, "name": "Wilhelmshaven", "state": "", "country": "DE", "coord": {"lon": 8.10746, "lat": 53.523441}}, {"id": 6552853, "name": "Apen", "state": "", "country": "DE", "coord": {"lon": 7.7489, "lat": 53.2262}}, {"id": 6552854, "name": "Bad Zwischenahn", "state": "", "country": "DE", "coord": {"lon": 8.04142, "lat": 53.1717}}, {"id": 6552856, "name": "Rastede", "state": "", "country": "DE", "coord": {"lon": 8.2, "lat": 53.25}}, {"id": 6552857, "name": "Wiefelstede", "state": "", "country": "DE", "coord": {"lon": 8.1159, "lat": 53.257351}}, {"id": 6552858, "name": "Baltrum", "state": "", "country": "DE", "coord": {"lon": 7.36965, "lat": 53.727798}}, {"id": 6552859, "name": "Berumbur", "state": "", "country": "DE", "coord": {"lon": 7.31121, "lat": 53.589298}}, {"id": 6552860, "name": "Hagermarsch", "state": "", "country": "DE", "coord": {"lon": 7.29459, "lat": 53.646198}}, {"id": 6552861, "name": "Halbemond", "state": "", "country": "DE", "coord": {"lon": 7.28478, "lat": 53.5676}}, {"id": 6552862, "name": "Juist", "state": "", "country": "DE", "coord": {"lon": 6.99253, "lat": 53.6768}}, {"id": 6552863, "name": "Leezdorf", "state": "", "country": "DE", "coord": {"lon": 7.30442, "lat": 53.545399}}, {"id": 6552864, "name": "L\u00fctetsburg", "state": "", "country": "DE", "coord": {"lon": 7.24816, "lat": 53.600201}}, {"id": 6552865, "name": "Osteel", "state": "", "country": "DE", "coord": {"lon": 7.25306, "lat": 53.540501}}, {"id": 6552866, "name": "Rechtsupweg", "state": "", "country": "DE", "coord": {"lon": 7.32481, "lat": 53.527802}}, {"id": 6552867, "name": "Upgant-Schott", "state": "", "country": "DE", "coord": {"lon": 7.27572, "lat": 53.515999}}, {"id": 6552868, "name": "Wirdum", "state": "", "country": "DE", "coord": {"lon": 7.20473, "lat": 53.4776}}, {"id": 6552869, "name": "Bar\u00dfel", "state": "", "country": "DE", "coord": {"lon": 7.7451, "lat": 53.168598}}, {"id": 6552870, "name": "B\u00f6sel", "state": "", "country": "DE", "coord": {"lon": 7.95, "lat": 53.0}}, {"id": 6552872, "name": "Emstek", "state": "", "country": "DE", "coord": {"lon": 8.165, "lat": 52.832401}}, {"id": 6552874, "name": "Garrel", "state": "", "country": "DE", "coord": {"lon": 8.01667, "lat": 52.950001}}, {"id": 6552875, "name": "Lastrup", "state": "", "country": "DE", "coord": {"lon": 7.8961, "lat": 52.794102}}, {"id": 6552877, "name": "Molbergen", "state": "", "country": "DE", "coord": {"lon": 7.9716, "lat": 52.8512}}, {"id": 6552879, "name": "Bawinkel", "state": "", "country": "DE", "coord": {"lon": 7.4, "lat": 52.599998}}, {"id": 6552880, "name": "Beesten", "state": "", "country": "DE", "coord": {"lon": 7.5, "lat": 52.4333}}, {"id": 6552881, "name": "Bockhorst", "state": "", "country": "DE", "coord": {"lon": 7.58333, "lat": 53.033298}}, {"id": 6552882, "name": "B\u00f6rger", "state": "", "country": "DE", "coord": {"lon": 7.51667, "lat": 52.900002}}, {"id": 6552883, "name": "Breddenberg", "state": "", "country": "DE", "coord": {"lon": 7.6, "lat": 52.950001}}, {"id": 6552884, "name": "Dersum", "state": "", "country": "DE", "coord": {"lon": 7.28333, "lat": 52.966702}}, {"id": 6552885, "name": "D\u00f6rpen", "state": "", "country": "DE", "coord": {"lon": 7.3438, "lat": 52.961399}}, {"id": 6552886, "name": "Dohren", "state": "", "country": "DE", "coord": {"lon": 7.58333, "lat": 52.650002}}, {"id": 6552887, "name": "Emsb\u00fcren", "state": "", "country": "DE", "coord": {"lon": 7.3, "lat": 52.400002}}, {"id": 6552888, "name": "Esterwegen", "state": "", "country": "DE", "coord": {"lon": 7.61667, "lat": 52.983299}}, {"id": 6552889, "name": "Fresenburg", "state": "", "country": "DE", "coord": {"lon": 7.3, "lat": 52.883301}}, {"id": 6552890, "name": "Geeste", "state": "", "country": "DE", "coord": {"lon": 7.26667, "lat": 52.599998}}, {"id": 6552891, "name": "Gersten", "state": "", "country": "DE", "coord": {"lon": 7.51667, "lat": 52.583302}}, {"id": 6552892, "name": "Gro\u00df Ber\u00dfen", "state": "", "country": "DE", "coord": {"lon": 7.5, "lat": 52.766701}}, {"id": 6552893, "name": "Handrup", "state": "", "country": "DE", "coord": {"lon": 7.58333, "lat": 52.5667}}, {"id": 6552894, "name": "Heede", "state": "", "country": "DE", "coord": {"lon": 7.3, "lat": 53.0}}, {"id": 6552895, "name": "Herzlake", "state": "", "country": "DE", "coord": {"lon": 7.6, "lat": 52.700001}}, {"id": 6552896, "name": "Hilkenbrook", "state": "", "country": "DE", "coord": {"lon": 7.7, "lat": 52.983299}}, {"id": 6552897, "name": "H\u00fcven", "state": "", "country": "DE", "coord": {"lon": 7.51667, "lat": 52.783298}}, {"id": 6552898, "name": "Klein Ber\u00dfen", "state": "", "country": "DE", "coord": {"lon": 7.45, "lat": 52.766701}}, {"id": 6552899, "name": "Kluse", "state": "", "country": "DE", "coord": {"lon": 7.33333, "lat": 52.916698}}, {"id": 6552900, "name": "L\u00e4hden", "state": "", "country": "DE", "coord": {"lon": 7.56667, "lat": 52.75}}, {"id": 6552901, "name": "Lahn", "state": "", "country": "DE", "coord": {"lon": 7.61667, "lat": 52.8167}}, {"id": 6552902, "name": "Langen", "state": "", "country": "DE", "coord": {"lon": 7.46667, "lat": 52.533298}}, {"id": 6552903, "name": "Graben", "state": "", "country": "DE", "coord": {"lon": 10.8167, "lat": 48.200001}}, {"id": 6552904, "name": "Lathen", "state": "", "country": "DE", "coord": {"lon": 7.31667, "lat": 52.866669}}, {"id": 6552905, "name": "Lehe", "state": "", "country": "DE", "coord": {"lon": 7.33333, "lat": 53.0}}, {"id": 6552906, "name": "Lengerich", "state": "", "country": "DE", "coord": {"lon": 7.51667, "lat": 52.549999}}, {"id": 6552907, "name": "Lorup", "state": "", "country": "DE", "coord": {"lon": 7.65, "lat": 52.9333}}, {"id": 6552908, "name": "L\u00fcnne", "state": "", "country": "DE", "coord": {"lon": 7.43333, "lat": 52.4333}}, {"id": 6552909, "name": "Messingen", "state": "", "country": "DE", "coord": {"lon": 7.46667, "lat": 52.466702}}, {"id": 6552910, "name": "Neub\u00f6rger", "state": "", "country": "DE", "coord": {"lon": 7.45, "lat": 52.966702}}, {"id": 6552911, "name": "Neulehe", "state": "", "country": "DE", "coord": {"lon": 7.4, "lat": 53.0}}, {"id": 6552912, "name": "Niederlangen", "state": "", "country": "DE", "coord": {"lon": 7.28333, "lat": 52.849998}}, {"id": 6552913, "name": "Oberlangen", "state": "", "country": "DE", "coord": {"lon": 7.26667, "lat": 52.849998}}, {"id": 6552914, "name": "Rastdorf", "state": "", "country": "DE", "coord": {"lon": 7.7, "lat": 52.900002}}, {"id": 6552915, "name": "Renkenberge", "state": "", "country": "DE", "coord": {"lon": 7.38333, "lat": 52.900002}}, {"id": 6552916, "name": "Salzbergen", "state": "", "country": "DE", "coord": {"lon": 7.4305, "lat": 52.3256}}, {"id": 6552917, "name": "Schapen", "state": "", "country": "DE", "coord": {"lon": 7.56667, "lat": 52.400002}}, {"id": 6552918, "name": "S\u00f6gel", "state": "", "country": "DE", "coord": {"lon": 7.51667, "lat": 52.849998}}, {"id": 6552919, "name": "Spelle", "state": "", "country": "DE", "coord": {"lon": 7.46667, "lat": 52.366699}}, {"id": 6552921, "name": "Surwold", "state": "", "country": "DE", "coord": {"lon": 7.51667, "lat": 52.950001}}, {"id": 6552922, "name": "Sustrum", "state": "", "country": "DE", "coord": {"lon": 7.28333, "lat": 52.916698}}, {"id": 6552923, "name": "Thuine", "state": "", "country": "DE", "coord": {"lon": 7.4933, "lat": 52.498901}}, {"id": 6552924, "name": "Twist", "state": "", "country": "DE", "coord": {"lon": 7.1057, "lat": 52.656101}}, {"id": 6552925, "name": "Vrees", "state": "", "country": "DE", "coord": {"lon": 7.76667, "lat": 52.883301}}, {"id": 6552926, "name": "Walchum", "state": "", "country": "DE", "coord": {"lon": 7.28333, "lat": 52.9333}}, {"id": 6552927, "name": "Werlte", "state": "", "country": "DE", "coord": {"lon": 7.6939, "lat": 52.856098}}, {"id": 6552928, "name": "Werpeloh", "state": "", "country": "DE", "coord": {"lon": 7.5, "lat": 52.883301}}, {"id": 6552929, "name": "Wettrup", "state": "", "country": "DE", "coord": {"lon": 7.6, "lat": 52.583302}}, {"id": 6552930, "name": "Wippingen", "state": "", "country": "DE", "coord": {"lon": 7.41667, "lat": 52.916698}}, {"id": 6552931, "name": "Emlichheim", "state": "", "country": "DE", "coord": {"lon": 6.85, "lat": 52.616699}}, {"id": 6552932, "name": "Engden", "state": "", "country": "DE", "coord": {"lon": 7.18333, "lat": 52.400002}}, {"id": 6552933, "name": "Esche", "state": "", "country": "DE", "coord": {"lon": 6.96667, "lat": 52.533298}}, {"id": 6552934, "name": "Georgsdorf", "state": "", "country": "DE", "coord": {"lon": 7.08333, "lat": 52.5667}}, {"id": 6552935, "name": "Getelo", "state": "", "country": "DE", "coord": {"lon": 6.85, "lat": 52.466702}}, {"id": 6552936, "name": "G\u00f6lenkamp", "state": "", "country": "DE", "coord": {"lon": 6.91667, "lat": 52.516701}}, {"id": 6552937, "name": "Isterberg", "state": "", "country": "DE", "coord": {"lon": 7.15, "lat": 52.349998}}, {"id": 6552938, "name": "Itterbeck", "state": "", "country": "DE", "coord": {"lon": 6.8, "lat": 52.5}}, {"id": 6552939, "name": "Laar", "state": "", "country": "DE", "coord": {"lon": 6.73333, "lat": 52.616699}}, {"id": 6552940, "name": "Lage", "state": "", "country": "DE", "coord": {"lon": 6.96667, "lat": 52.466702}}, {"id": 6552941, "name": "Ohne", "state": "", "country": "DE", "coord": {"lon": 7.28333, "lat": 52.266701}}, {"id": 6552942, "name": "Quendorf", "state": "", "country": "DE", "coord": {"lon": 7.18333, "lat": 52.333302}}, {"id": 6552944, "name": "Suddendorf", "state": "", "country": "DE", "coord": {"lon": 7.21667, "lat": 52.299999}}, {"id": 6552945, "name": "Uelsen", "state": "", "country": "DE", "coord": {"lon": 6.88333, "lat": 52.5}}, {"id": 6552946, "name": "Wietmarschen", "state": "", "country": "DE", "coord": {"lon": 7.13333, "lat": 52.533298}}, {"id": 6552947, "name": "Wilsum", "state": "", "country": "DE", "coord": {"lon": 6.85, "lat": 52.533298}}, {"id": 6552948, "name": "Brinkum", "state": "", "country": "DE", "coord": {"lon": 7.56667, "lat": 53.266701}}, {"id": 6552949, "name": "Filsum", "state": "", "country": "DE", "coord": {"lon": 7.63333, "lat": 53.233299}}, {"id": 6552950, "name": "Firrel", "state": "", "country": "DE", "coord": {"lon": 7.66667, "lat": 53.333302}}, {"id": 6552951, "name": "Hesel", "state": "", "country": "DE", "coord": {"lon": 7.6, "lat": 53.299999}}, {"id": 6552952, "name": "Holtland", "state": "", "country": "DE", "coord": {"lon": 7.58333, "lat": 53.283298}}, {"id": 6552953, "name": "Jemgum", "state": "", "country": "DE", "coord": {"lon": 7.38333, "lat": 53.266701}}, {"id": 6552955, "name": "Neukamperfehn", "state": "", "country": "DE", "coord": {"lon": 7.55, "lat": 53.333302}}, {"id": 6552956, "name": "Nortmoor", "state": "", "country": "DE", "coord": {"lon": 7.56667, "lat": 53.233299}}, {"id": 6552957, "name": "Ostrhauderfehn", "state": "", "country": "DE", "coord": {"lon": 7.61667, "lat": 53.133301}}, {"id": 6552959, "name": "Schwerinsdorf", "state": "", "country": "DE", "coord": {"lon": 7.68333, "lat": 53.3167}}, {"id": 6552960, "name": "Bunde", "state": "", "country": "DE", "coord": {"lon": 7.26667, "lat": 53.1833}}, {"id": 6552961, "name": "Beckeln", "state": "", "country": "DE", "coord": {"lon": 8.58333, "lat": 52.866699}}, {"id": 6552962, "name": "Colnrade", "state": "", "country": "DE", "coord": {"lon": 8.48333, "lat": 52.833302}}, {"id": 6552963, "name": "D\u00f6tlingen", "state": "", "country": "DE", "coord": {"lon": 8.38333, "lat": 52.9333}}, {"id": 6552964, "name": "D\u00fcnsen", "state": "", "country": "DE", "coord": {"lon": 8.63333, "lat": 52.916698}}, {"id": 6552965, "name": "Ganderkesee", "state": "", "country": "DE", "coord": {"lon": 8.55566, "lat": 53.06348}}, {"id": 6552966, "name": "Gro\u00df Ippener", "state": "", "country": "DE", "coord": {"lon": 8.61667, "lat": 52.966702}}, {"id": 6552967, "name": "Gro\u00dfenkneten", "state": "", "country": "DE", "coord": {"lon": 8.2237, "lat": 52.920399}}, {"id": 6552968, "name": "Hatten", "state": "", "country": "DE", "coord": {"lon": 8.35, "lat": 53.016701}}, {"id": 6552970, "name": "Kirchseelte", "state": "", "country": "DE", "coord": {"lon": 8.68333, "lat": 52.950001}}, {"id": 6552971, "name": "Prinzh\u00f6fte", "state": "", "country": "DE", "coord": {"lon": 8.56667, "lat": 52.950001}}, {"id": 6552972, "name": "Winkelsett", "state": "", "country": "DE", "coord": {"lon": 8.53333, "lat": 52.866699}}, {"id": 6552973, "name": "Alfhausen", "state": "", "country": "DE", "coord": {"lon": 7.95, "lat": 52.5}}, {"id": 6552974, "name": "Ankum", "state": "", "country": "DE", "coord": {"lon": 7.9027, "lat": 52.549599}}, {"id": 6552975, "name": "Bad Essen", "state": "", "country": "DE", "coord": {"lon": 8.413, "lat": 52.317501}}, {"id": 6552976, "name": "Bad Laer", "state": "", "country": "DE", "coord": {"lon": 8.08333, "lat": 52.099998}}, {"id": 6552977, "name": "Bad Rothenfelde", "state": "", "country": "DE", "coord": {"lon": 8.16667, "lat": 52.116699}}, {"id": 6552978, "name": "Badbergen", "state": "", "country": "DE", "coord": {"lon": 7.98333, "lat": 52.633301}}, {"id": 6552979, "name": "Belm", "state": "", "country": "DE", "coord": {"lon": 8.13333, "lat": 52.299999}}, {"id": 6552980, "name": "Berge", "state": "", "country": "DE", "coord": {"lon": 7.75, "lat": 52.616699}}, {"id": 6552981, "name": "Bippen", "state": "", "country": "DE", "coord": {"lon": 7.73333, "lat": 52.583302}}, {"id": 6552982, "name": "Bissendorf", "state": "", "country": "DE", "coord": {"lon": 8.16667, "lat": 52.233299}}, {"id": 6552983, "name": "Bohmte", "state": "", "country": "DE", "coord": {"lon": 8.3046, "lat": 52.358501}}, {"id": 6552984, "name": "Eggerm\u00fchlen", "state": "", "country": "DE", "coord": {"lon": 7.81667, "lat": 52.5667}}, {"id": 6552985, "name": "Gehrde", "state": "", "country": "DE", "coord": {"lon": 8.01667, "lat": 52.5667}}, {"id": 6552987, "name": "Hasbergen", "state": "", "country": "DE", "coord": {"lon": 7.93333, "lat": 52.233299}}, {"id": 6552989, "name": "Kettenkamp", "state": "", "country": "DE", "coord": {"lon": 7.83333, "lat": 52.583302}}, {"id": 6552990, "name": "Menslage", "state": "", "country": "DE", "coord": {"lon": 7.81667, "lat": 52.6833}}, {"id": 6552991, "name": "Neuenkirchen", "state": "", "country": "DE", "coord": {"lon": 7.85, "lat": 52.416698}}, {"id": 6552992, "name": "Nortrup", "state": "", "country": "DE", "coord": {"lon": 7.88333, "lat": 52.599998}}, {"id": 6552993, "name": "Ostercappeln", "state": "", "country": "DE", "coord": {"lon": 8.23333, "lat": 52.349998}}, {"id": 6552994, "name": "Rieste", "state": "", "country": "DE", "coord": {"lon": 8.01667, "lat": 52.483299}}, {"id": 6552995, "name": "Voltlage", "state": "", "country": "DE", "coord": {"lon": 7.75, "lat": 52.4333}}, {"id": 6552996, "name": "Wallenhorst", "state": "", "country": "DE", "coord": {"lon": 8.0115, "lat": 52.348598}}, {"id": 6552997, "name": "Glandorf", "state": "", "country": "DE", "coord": {"lon": 7.9819, "lat": 52.080799}}, {"id": 6552998, "name": "Bakum", "state": "", "country": "DE", "coord": {"lon": 8.1593, "lat": 52.732101}}, {"id": 6552999, "name": "Goldenstedt", "state": "", "country": "DE", "coord": {"lon": 8.4314, "lat": 52.783199}}, {"id": 6553000, "name": "Holdorf", "state": "", "country": "DE", "coord": {"lon": 8.12283, "lat": 52.57457}}, {"id": 6553003, "name": "Visbek", "state": "", "country": "DE", "coord": {"lon": 8.31667, "lat": 52.833302}}, {"id": 6553004, "name": "Lemwerder", "state": "", "country": "DE", "coord": {"lon": 8.5932, "lat": 53.141399}}, {"id": 6553005, "name": "Ovelg\u00f6nne", "state": "", "country": "DE", "coord": {"lon": 8.4, "lat": 53.349998}}, {"id": 6553006, "name": "Blomberg", "state": "", "country": "DE", "coord": {"lon": 7.55818, "lat": 53.572701}}, {"id": 6553007, "name": "Dunum", "state": "", "country": "DE", "coord": {"lon": 7.6454, "lat": 53.597}}, {"id": 6553009, "name": "Holtgast", "state": "", "country": "DE", "coord": {"lon": 7.57507, "lat": 53.629799}}, {"id": 6553010, "name": "Langeoog", "state": "", "country": "DE", "coord": {"lon": 7.48217, "lat": 53.7458}}, {"id": 6553011, "name": "Moorweg", "state": "", "country": "DE", "coord": {"lon": 7.58149, "lat": 53.589401}}, {"id": 6553012, "name": "Nenndorf", "state": "", "country": "DE", "coord": {"lon": 7.43338, "lat": 53.5867}}, {"id": 6553013, "name": "Neuharlingersiel", "state": "", "country": "DE", "coord": {"lon": 7.70198, "lat": 53.697899}}, {"id": 6553014, "name": "Schweindorf", "state": "", "country": "DE", "coord": {"lon": 7.47311, "lat": 53.600201}}, {"id": 6553015, "name": "Spiekeroog", "state": "", "country": "DE", "coord": {"lon": 7.69593, "lat": 53.7705}}, {"id": 6553016, "name": "Stedesdorf", "state": "", "country": "DE", "coord": {"lon": 7.66418, "lat": 53.625401}}, {"id": 6553017, "name": "Utarp", "state": "", "country": "DE", "coord": {"lon": 7.48293, "lat": 53.611}}, {"id": 6553018, "name": "Werdum", "state": "", "country": "DE", "coord": {"lon": 7.71785, "lat": 53.657398}}, {"id": 6553019, "name": "Westerholt", "state": "", "country": "DE", "coord": {"lon": 7.45519, "lat": 53.591599}}, {"id": 6553024, "name": "Essen", "state": "", "country": "DE", "coord": {"lon": 7.0102, "lat": 51.453548}}, {"id": 6553032, "name": "Issum", "state": "", "country": "DE", "coord": {"lon": 6.4476, "lat": 51.544998}}, {"id": 6553033, "name": "Kranenburg", "state": "", "country": "DE", "coord": {"lon": 6.01667, "lat": 51.783298}}, {"id": 6553034, "name": "Rheurdt", "state": "", "country": "DE", "coord": {"lon": 6.46667, "lat": 51.466702}}, {"id": 6553035, "name": "Uedem", "state": "", "country": "DE", "coord": {"lon": 6.2759, "lat": 51.657799}}, {"id": 6553036, "name": "Wachtendonk", "state": "", "country": "DE", "coord": {"lon": 6.2919, "lat": 51.3974}}, {"id": 6553037, "name": "Weeze", "state": "", "country": "DE", "coord": {"lon": 6.2, "lat": 51.633301}}, {"id": 6553038, "name": "J\u00fcchen", "state": "", "country": "DE", "coord": {"lon": 6.5095, "lat": 51.099098}}, {"id": 6553039, "name": "Rommerskirchen", "state": "", "country": "DE", "coord": {"lon": 6.7011, "lat": 51.030499}}, {"id": 6553040, "name": "Br\u00fcggen", "state": "", "country": "DE", "coord": {"lon": 6.1886, "lat": 51.2379}}, {"id": 6553041, "name": "Grefrath", "state": "", "country": "DE", "coord": {"lon": 6.34076, "lat": 51.336281}}, {"id": 6553042, "name": "Niederkr\u00fcchten", "state": "", "country": "DE", "coord": {"lon": 6.1775, "lat": 51.2108}}, {"id": 6553043, "name": "Alpen", "state": "", "country": "DE", "coord": {"lon": 6.51667, "lat": 51.583302}}, {"id": 6553044, "name": "H\u00fcnxe", "state": "", "country": "DE", "coord": {"lon": 6.78333, "lat": 51.650002}}, {"id": 6553045, "name": "Schermbeck", "state": "", "country": "DE", "coord": {"lon": 6.86667, "lat": 51.6833}}, {"id": 6553046, "name": "Sonsbeck", "state": "", "country": "DE", "coord": {"lon": 6.36667, "lat": 51.616699}}, {"id": 6553047, "name": "Aachen", "state": "", "country": "DE", "coord": {"lon": 6.08723, "lat": 50.776031}}, {"id": 6553051, "name": "Roetgen", "state": "", "country": "DE", "coord": {"lon": 6.2, "lat": 50.650002}}, {"id": 6553052, "name": "Simmerath", "state": "", "country": "DE", "coord": {"lon": 6.30047, "lat": 50.606831}}, {"id": 6553053, "name": "Aldenhoven", "state": "", "country": "DE", "coord": {"lon": 6.2746, "lat": 50.892399}}, {"id": 6553054, "name": "H\u00fcrtgenwald", "state": "", "country": "DE", "coord": {"lon": 6.36667, "lat": 50.716702}}, {"id": 6553055, "name": "Inden", "state": "", "country": "DE", "coord": {"lon": 6.36667, "lat": 50.866699}}, {"id": 6553056, "name": "Kreuzau", "state": "", "country": "DE", "coord": {"lon": 6.4771, "lat": 50.729401}}, {"id": 6553057, "name": "Langerwehe", "state": "", "country": "DE", "coord": {"lon": 6.35, "lat": 50.8167}}, {"id": 6553058, "name": "Merzenich", "state": "", "country": "DE", "coord": {"lon": 6.52665, "lat": 50.82616}}, {"id": 6553059, "name": "Niederzier", "state": "", "country": "DE", "coord": {"lon": 6.4346, "lat": 50.866001}}, {"id": 6553060, "name": "N\u00f6rvenich", "state": "", "country": "DE", "coord": {"lon": 6.6346, "lat": 50.809898}}, {"id": 6553061, "name": "Titz", "state": "", "country": "DE", "coord": {"lon": 6.41667, "lat": 51.0}}, {"id": 6553062, "name": "Vettwei\u00df", "state": "", "country": "DE", "coord": {"lon": 6.6, "lat": 50.733299}}, {"id": 6553063, "name": "Elsdorf", "state": "", "country": "DE", "coord": {"lon": 6.5835, "lat": 50.938148}}, {"id": 6553064, "name": "Blankenheim", "state": "", "country": "DE", "coord": {"lon": 6.65, "lat": 50.4333}}, {"id": 6553065, "name": "Dahlem", "state": "", "country": "DE", "coord": {"lon": 6.55, "lat": 50.383301}}, {"id": 6553066, "name": "Hellenthal", "state": "", "country": "DE", "coord": {"lon": 6.4361, "lat": 50.4412}}, {"id": 6553067, "name": "Kall", "state": "", "country": "DE", "coord": {"lon": 6.555, "lat": 50.527401}}, {"id": 6553068, "name": "Nettersheim", "state": "", "country": "DE", "coord": {"lon": 6.63333, "lat": 50.5}}, {"id": 6553069, "name": "Weilerswist", "state": "", "country": "DE", "coord": {"lon": 6.8395, "lat": 50.755402}}, {"id": 6553070, "name": "Gangelt", "state": "", "country": "DE", "coord": {"lon": 6.0, "lat": 50.983299}}, {"id": 6553071, "name": "Waldfeucht", "state": "", "country": "DE", "coord": {"lon": 5.98333, "lat": 51.0667}}, {"id": 6553072, "name": "Engelskirchen", "state": "", "country": "DE", "coord": {"lon": 7.4, "lat": 50.983299}}, {"id": 6553073, "name": "Lindlar", "state": "", "country": "DE", "coord": {"lon": 7.3665, "lat": 51.033199}}, {"id": 6553074, "name": "Marienheide", "state": "", "country": "DE", "coord": {"lon": 7.5351, "lat": 51.082802}}, {"id": 6553075, "name": "Morsbach", "state": "", "country": "DE", "coord": {"lon": 7.71667, "lat": 50.866699}}, {"id": 6553076, "name": "N\u00fcmbrecht", "state": "", "country": "DE", "coord": {"lon": 7.55, "lat": 50.900002}}, {"id": 6553077, "name": "K\u00fcrten", "state": "", "country": "DE", "coord": {"lon": 7.2546, "lat": 51.0382}}, {"id": 6553078, "name": "Odenthal", "state": "", "country": "DE", "coord": {"lon": 7.1182, "lat": 51.034801}}, {"id": 6553079, "name": "Alfter", "state": "", "country": "DE", "coord": {"lon": 7.01667, "lat": 50.733299}}, {"id": 6553080, "name": "Eitorf", "state": "", "country": "DE", "coord": {"lon": 7.4403, "lat": 50.775002}}, {"id": 6553081, "name": "Much", "state": "", "country": "DE", "coord": {"lon": 7.3537, "lat": 50.874699}}, {"id": 6553083, "name": "Ruppichteroth", "state": "", "country": "DE", "coord": {"lon": 7.48333, "lat": 50.849998}}, {"id": 6553084, "name": "Wachtberg", "state": "", "country": "DE", "coord": {"lon": 7.1259, "lat": 50.6213}}, {"id": 6553088, "name": "Heiden", "state": "", "country": "DE", "coord": {"lon": 6.9433, "lat": 51.825199}}, {"id": 6553089, "name": "Legden", "state": "", "country": "DE", "coord": {"lon": 7.1, "lat": 52.033298}}, {"id": 6553090, "name": "Raesfeld", "state": "", "country": "DE", "coord": {"lon": 6.85, "lat": 51.766701}}, {"id": 6553091, "name": "Sch\u00f6ppingen", "state": "", "country": "DE", "coord": {"lon": 7.23333, "lat": 52.099998}}, {"id": 6553092, "name": "S\u00fcdlohn", "state": "", "country": "DE", "coord": {"lon": 6.86667, "lat": 51.9333}}, {"id": 6553093, "name": "Velen", "state": "", "country": "DE", "coord": {"lon": 6.971, "lat": 51.894699}}, {"id": 6553094, "name": "Ascheberg", "state": "", "country": "DE", "coord": {"lon": 7.61667, "lat": 51.783298}}, {"id": 6553095, "name": "Havixbeck", "state": "", "country": "DE", "coord": {"lon": 7.41667, "lat": 51.983299}}, {"id": 6553096, "name": "Nordkirchen", "state": "", "country": "DE", "coord": {"lon": 7.53333, "lat": 51.733299}}, {"id": 6553097, "name": "Nottuln", "state": "", "country": "DE", "coord": {"lon": 7.3534, "lat": 51.926899}}, {"id": 6553099, "name": "Senden", "state": "", "country": "DE", "coord": {"lon": 7.5, "lat": 51.849998}}, {"id": 6553100, "name": "Altenberge", "state": "", "country": "DE", "coord": {"lon": 7.46667, "lat": 52.049999}}, {"id": 6553101, "name": "Hopsten", "state": "", "country": "DE", "coord": {"lon": 7.6059, "lat": 52.376099}}, {"id": 6553102, "name": "Ladbergen", "state": "", "country": "DE", "coord": {"lon": 7.7508, "lat": 52.1436}}, {"id": 6553103, "name": "Laer", "state": "", "country": "DE", "coord": {"lon": 7.35, "lat": 52.0667}}, {"id": 6553104, "name": "Lienen", "state": "", "country": "DE", "coord": {"lon": 7.98333, "lat": 52.150002}}, {"id": 6553105, "name": "Lotte", "state": "", "country": "DE", "coord": {"lon": 7.91667, "lat": 52.283298}}, {"id": 6553106, "name": "Metelen", "state": "", "country": "DE", "coord": {"lon": 7.2071, "lat": 52.1432}}, {"id": 6553107, "name": "Mettingen", "state": "", "country": "DE", "coord": {"lon": 7.8042, "lat": 52.312599}}, {"id": 6553108, "name": "Neuenkirchen", "state": "", "country": "DE", "coord": {"lon": 7.36667, "lat": 52.25}}, {"id": 6553109, "name": "Nordwalde", "state": "", "country": "DE", "coord": {"lon": 7.48333, "lat": 52.083302}}, {"id": 6553110, "name": "Recke", "state": "", "country": "DE", "coord": {"lon": 7.71667, "lat": 52.383301}}, {"id": 6553111, "name": "Saerbeck", "state": "", "country": "DE", "coord": {"lon": 7.63333, "lat": 52.1833}}, {"id": 6553112, "name": "Westerkappeln", "state": "", "country": "DE", "coord": {"lon": 7.88333, "lat": 52.3167}}, {"id": 6553113, "name": "Beelen", "state": "", "country": "DE", "coord": {"lon": 8.13333, "lat": 51.9333}}, {"id": 6553114, "name": "Everswinkel", "state": "", "country": "DE", "coord": {"lon": 7.85, "lat": 51.9333}}, {"id": 6553115, "name": "Ostbevern", "state": "", "country": "DE", "coord": {"lon": 7.839, "lat": 52.056599}}, {"id": 6553116, "name": "Wadersloh", "state": "", "country": "DE", "coord": {"lon": 8.2329, "lat": 51.751701}}, {"id": 6553118, "name": "Langenberg", "state": "", "country": "DE", "coord": {"lon": 8.32065, "lat": 51.779701}}, {"id": 6553119, "name": "Steinhagen", "state": "", "country": "DE", "coord": {"lon": 8.42945, "lat": 52.013649}}, {"id": 6553120, "name": "Verl", "state": "", "country": "DE", "coord": {"lon": 8.5008, "lat": 51.87355}}, {"id": 6553121, "name": "Hiddenhausen", "state": "", "country": "DE", "coord": {"lon": 8.6118, "lat": 52.1791}}, {"id": 6553122, "name": "Kirchlengern", "state": "", "country": "DE", "coord": {"lon": 8.63333, "lat": 52.200001}}, {"id": 6553123, "name": "R\u00f6dinghausen", "state": "", "country": "DE", "coord": {"lon": 8.48333, "lat": 52.25}}, {"id": 6553124, "name": "Augustdorf", "state": "", "country": "DE", "coord": {"lon": 8.7473, "lat": 51.910999}}, {"id": 6553125, "name": "D\u00f6rentrup", "state": "", "country": "DE", "coord": {"lon": 9.0, "lat": 52.033298}}, {"id": 6553126, "name": "Leopoldsh\u00f6he", "state": "", "country": "DE", "coord": {"lon": 8.7, "lat": 52.016701}}, {"id": 6553127, "name": "Schlangen", "state": "", "country": "DE", "coord": {"lon": 8.84125, "lat": 51.8046}}, {"id": 6553128, "name": "Hille", "state": "", "country": "DE", "coord": {"lon": 8.7722, "lat": 52.330898}}, {"id": 6553129, "name": "H\u00fcllhorst", "state": "", "country": "DE", "coord": {"lon": 8.66667, "lat": 52.283298}}, {"id": 6553130, "name": "Altenbeken", "state": "", "country": "DE", "coord": {"lon": 8.93333, "lat": 51.766701}}, {"id": 6553131, "name": "H\u00f6velhof", "state": "", "country": "DE", "coord": {"lon": 8.6701, "lat": 51.829601}}, {"id": 6553135, "name": "Hamm", "state": "", "country": "DE", "coord": {"lon": 7.81335, "lat": 51.68021}}, {"id": 6553137, "name": "Bestwig", "state": "", "country": "DE", "coord": {"lon": 8.3716, "lat": 51.356201}}, {"id": 6553138, "name": "Herscheid", "state": "", "country": "DE", "coord": {"lon": 7.8063, "lat": 51.192299}}, {"id": 6553139, "name": "Nachrodt-Wiblingwerde", "state": "", "country": "DE", "coord": {"lon": 7.62917, "lat": 51.3167}}, {"id": 6553140, "name": "Schalksm\u00fchle", "state": "", "country": "DE", "coord": {"lon": 7.5549, "lat": 51.238899}}, {"id": 6553141, "name": "Finnentrop", "state": "", "country": "DE", "coord": {"lon": 7.96667, "lat": 51.166698}}, {"id": 6553142, "name": "Kirchhundem", "state": "", "country": "DE", "coord": {"lon": 8.1, "lat": 51.099998}}, {"id": 6553143, "name": "Wenden", "state": "", "country": "DE", "coord": {"lon": 7.845, "lat": 50.987999}}, {"id": 6553144, "name": "Burbach", "state": "", "country": "DE", "coord": {"lon": 8.0533, "lat": 50.761299}}, {"id": 6553145, "name": "Erndtebr\u00fcck", "state": "", "country": "DE", "coord": {"lon": 8.26667, "lat": 50.983299}}, {"id": 6553146, "name": "Neunkirchen", "state": "", "country": "DE", "coord": {"lon": 8.0265, "lat": 50.780102}}, {"id": 6553147, "name": "Wilnsdorf", "state": "", "country": "DE", "coord": {"lon": 8.0949, "lat": 50.819149}}, {"id": 6553148, "name": "Anr\u00f6chte", "state": "", "country": "DE", "coord": {"lon": 8.33333, "lat": 51.5667}}, {"id": 6553149, "name": "Bad Sassendorf", "state": "", "country": "DE", "coord": {"lon": 8.1708, "lat": 51.581699}}, {"id": 6553150, "name": "M\u00f6hnesee", "state": "", "country": "DE", "coord": {"lon": 8.1425, "lat": 51.493301}}, {"id": 6553151, "name": "Welver", "state": "", "country": "DE", "coord": {"lon": 7.9565, "lat": 51.618252}}, {"id": 6553152, "name": "Holzwickede", "state": "", "country": "DE", "coord": {"lon": 7.61667, "lat": 51.504421}}, {"id": 6553154, "name": "Biblis", "state": "", "country": "DE", "coord": {"lon": 8.45861, "lat": 49.6917}}, {"id": 6553155, "name": "Birkenau", "state": "", "country": "DE", "coord": {"lon": 8.7054, "lat": 49.5602}}, {"id": 6553156, "name": "Einhausen", "state": "", "country": "DE", "coord": {"lon": 8.5517, "lat": 49.670601}}, {"id": 6553157, "name": "F\u00fcrth", "state": "", "country": "DE", "coord": {"lon": 8.78472, "lat": 49.650799}}, {"id": 6553158, "name": "Gro\u00df-Rohrheim", "state": "", "country": "DE", "coord": {"lon": 8.48278, "lat": 49.7211}}, {"id": 6553159, "name": "M\u00f6rlenbach", "state": "", "country": "DE", "coord": {"lon": 8.7311, "lat": 49.5956}}, {"id": 6553160, "name": "Rimbach", "state": "", "country": "DE", "coord": {"lon": 8.76306, "lat": 49.625}}, {"id": 6553161, "name": "Wald-Michelbach", "state": "", "country": "DE", "coord": {"lon": 8.83167, "lat": 49.57}}, {"id": 6553162, "name": "Alsbach-H\u00e4hnlein", "state": "", "country": "DE", "coord": {"lon": 8.59583, "lat": 49.738602}}, {"id": 6553163, "name": "Bickenbach", "state": "", "country": "DE", "coord": {"lon": 8.6099, "lat": 49.745602}}, {"id": 6553164, "name": "Eppertshausen", "state": "", "country": "DE", "coord": {"lon": 8.85389, "lat": 49.9506}}, {"id": 6553165, "name": "Erzhausen", "state": "", "country": "DE", "coord": {"lon": 8.6385, "lat": 49.952099}}, {"id": 6553166, "name": "Gro\u00df-Zimmern", "state": "", "country": "DE", "coord": {"lon": 8.83444, "lat": 49.875801}}, {"id": 6553167, "name": "Messel", "state": "", "country": "DE", "coord": {"lon": 8.74056, "lat": 49.938301}}, {"id": 6553168, "name": "M\u00fcnster", "state": "", "country": "DE", "coord": {"lon": 8.8777, "lat": 49.918999}}, {"id": 6553169, "name": "Ro\u00dfdorf", "state": "", "country": "DE", "coord": {"lon": 8.7441, "lat": 49.862301}}, {"id": 6553170, "name": "Schaafheim", "state": "", "country": "DE", "coord": {"lon": 9.00944, "lat": 49.924198}}, {"id": 6553171, "name": "Seeheim-Jugenheim", "state": "", "country": "DE", "coord": {"lon": 8.65194, "lat": 49.764999}}, {"id": 6553173, "name": "B\u00fcttelborn", "state": "", "country": "DE", "coord": {"lon": 8.5216, "lat": 49.903301}}, {"id": 6553174, "name": "Ginsheim-Gustavsburg", "state": "", "country": "DE", "coord": {"lon": 8.3425, "lat": 49.985802}}, {"id": 6553175, "name": "Nauheim", "state": "", "country": "DE", "coord": {"lon": 8.46333, "lat": 49.950802}}, {"id": 6553176, "name": "Stockstadt am Rhein", "state": "", "country": "DE", "coord": {"lon": 8.47278, "lat": 49.809399}}, {"id": 6553177, "name": "Trebur", "state": "", "country": "DE", "coord": {"lon": 8.4092, "lat": 49.924301}}, {"id": 6553178, "name": "Glash\u00fctten", "state": "", "country": "DE", "coord": {"lon": 8.4036, "lat": 50.214001}}, {"id": 6553179, "name": "Gr\u00e4venwiesbach", "state": "", "country": "DE", "coord": {"lon": 8.45, "lat": 50.400002}}, {"id": 6553180, "name": "Neu-Anspach", "state": "", "country": "DE", "coord": {"lon": 8.515, "lat": 50.290001}}, {"id": 6553181, "name": "Schmitten", "state": "", "country": "DE", "coord": {"lon": 8.4608, "lat": 50.2868}}, {"id": 6553182, "name": "Wehrheim", "state": "", "country": "DE", "coord": {"lon": 8.5683, "lat": 50.294498}}, {"id": 6553184, "name": "Birstein", "state": "", "country": "DE", "coord": {"lon": 9.311, "lat": 50.3508}}, {"id": 6553185, "name": "Erlensee", "state": "", "country": "DE", "coord": {"lon": 8.9943, "lat": 50.16}}, {"id": 6553187, "name": "Gro\u00dfkrotzenburg", "state": "", "country": "DE", "coord": {"lon": 8.98733, "lat": 50.080391}}, {"id": 6553188, "name": "Hammersbach", "state": "", "country": "DE", "coord": {"lon": 8.9905, "lat": 50.224701}}, {"id": 6553189, "name": "Niederdorfelden", "state": "", "country": "DE", "coord": {"lon": 8.80525, "lat": 50.193352}}, {"id": 6553190, "name": "Rodenbach", "state": "", "country": "DE", "coord": {"lon": 9.0045, "lat": 50.147202}}, {"id": 6553193, "name": "Kriftel", "state": "", "country": "DE", "coord": {"lon": 8.4748, "lat": 50.087502}}, {"id": 6553195, "name": "Brensbach", "state": "", "country": "DE", "coord": {"lon": 8.8937, "lat": 49.766701}}, {"id": 6553196, "name": "Fr\u00e4nkisch-Crumbach", "state": "", "country": "DE", "coord": {"lon": 8.85861, "lat": 49.746101}}, {"id": 6553197, "name": "L\u00fctzelbach", "state": "", "country": "DE", "coord": {"lon": 9.07528, "lat": 49.7883}}, {"id": 6553198, "name": "Rothenberg", "state": "", "country": "DE", "coord": {"lon": 8.91917, "lat": 49.499199}}, {"id": 6553199, "name": "Egelsbach", "state": "", "country": "DE", "coord": {"lon": 8.6736, "lat": 49.96595}}, {"id": 6553200, "name": "Kiedrich", "state": "", "country": "DE", "coord": {"lon": 8.08333, "lat": 50.033298}}, {"id": 6553201, "name": "Niedernhausen", "state": "", "country": "DE", "coord": {"lon": 8.31667, "lat": 50.150002}}, {"id": 6553202, "name": "Schlangenbad", "state": "", "country": "DE", "coord": {"lon": 8.1, "lat": 50.099998}}, {"id": 6553203, "name": "Waldems", "state": "", "country": "DE", "coord": {"lon": 8.33333, "lat": 50.25}}, {"id": 6553204, "name": "Walluf", "state": "", "country": "DE", "coord": {"lon": 8.15, "lat": 50.049999}}, {"id": 6553205, "name": "Altenstadt", "state": "", "country": "DE", "coord": {"lon": 8.95, "lat": 50.283298}}, {"id": 6553206, "name": "Echzell", "state": "", "country": "DE", "coord": {"lon": 8.9, "lat": 50.400002}}, {"id": 6553207, "name": "Florstadt", "state": "", "country": "DE", "coord": {"lon": 8.91665, "lat": 50.328751}}, {"id": 6553208, "name": "Hirzenhain", "state": "", "country": "DE", "coord": {"lon": 9.13333, "lat": 50.400002}}, {"id": 6553209, "name": "Kefenrod", "state": "", "country": "DE", "coord": {"lon": 9.2, "lat": 50.349998}}, {"id": 6553210, "name": "Ober-M\u00f6rlen", "state": "", "country": "DE", "coord": {"lon": 8.6644, "lat": 50.364601}}, {"id": 6553211, "name": "Ranstadt", "state": "", "country": "DE", "coord": {"lon": 8.98333, "lat": 50.349998}}, {"id": 6553212, "name": "Rockenberg", "state": "", "country": "DE", "coord": {"lon": 8.73333, "lat": 50.4333}}, {"id": 6553213, "name": "W\u00f6lfersheim", "state": "", "country": "DE", "coord": {"lon": 8.81667, "lat": 50.400002}}, {"id": 6553215, "name": "Heuchelheim", "state": "", "country": "DE", "coord": {"lon": 8.6416, "lat": 50.5867}}, {"id": 6553216, "name": "Langg\u00f6ns", "state": "", "country": "DE", "coord": {"lon": 8.6361, "lat": 50.494099}}, {"id": 6553217, "name": "Reiskirchen", "state": "", "country": "DE", "coord": {"lon": 8.83955, "lat": 50.5914}}, {"id": 6553218, "name": "Bischoffen", "state": "", "country": "DE", "coord": {"lon": 8.45, "lat": 50.700001}}, {"id": 6553219, "name": "Breitscheid", "state": "", "country": "DE", "coord": {"lon": 8.2, "lat": 50.6833}}, {"id": 6553220, "name": "Driedorf", "state": "", "country": "DE", "coord": {"lon": 8.18333, "lat": 50.633301}}, {"id": 6553221, "name": "Ehringshausen", "state": "", "country": "DE", "coord": {"lon": 8.3814, "lat": 50.6022}}, {"id": 6553222, "name": "Greifenstein", "state": "", "country": "DE", "coord": {"lon": 8.3, "lat": 50.616699}}, {"id": 6553223, "name": "Sch\u00f6ffengrund", "state": "", "country": "DE", "coord": {"lon": 8.48056, "lat": 50.488899}}, {"id": 6553224, "name": "Sinn", "state": "", "country": "DE", "coord": {"lon": 8.3323, "lat": 50.644798}}, {"id": 6553225, "name": "Elz", "state": "", "country": "DE", "coord": {"lon": 8.0401, "lat": 50.4039}}, {"id": 6553226, "name": "L\u00f6hnberg", "state": "", "country": "DE", "coord": {"lon": 8.26667, "lat": 50.516701}}, {"id": 6553227, "name": "Villmar", "state": "", "country": "DE", "coord": {"lon": 8.2, "lat": 50.383301}}, {"id": 6553229, "name": "Weinbach", "state": "", "country": "DE", "coord": {"lon": 8.2877, "lat": 50.431499}}, {"id": 6553230, "name": "Bad Endbach", "state": "", "country": "DE", "coord": {"lon": 8.5, "lat": 50.75}}, {"id": 6553231, "name": "Breidenbach", "state": "", "country": "DE", "coord": {"lon": 8.46667, "lat": 50.883301}}, {"id": 6553232, "name": "C\u00f6lbe", "state": "", "country": "DE", "coord": {"lon": 8.8, "lat": 50.849998}}, {"id": 6553233, "name": "Fronhausen", "state": "", "country": "DE", "coord": {"lon": 8.70952, "lat": 50.7071}}, {"id": 6553234, "name": "Lohra", "state": "", "country": "DE", "coord": {"lon": 8.63333, "lat": 50.733299}}, {"id": 6553235, "name": "M\u00fcnchhausen", "state": "", "country": "DE", "coord": {"lon": 8.71667, "lat": 50.950001}}, {"id": 6553236, "name": "Freiensteinau", "state": "", "country": "DE", "coord": {"lon": 9.4, "lat": 50.4333}}, {"id": 6553238, "name": "Grebenhain", "state": "", "country": "DE", "coord": {"lon": 9.3358, "lat": 50.488899}}, {"id": 6553239, "name": "Schwalmtal", "state": "", "country": "DE", "coord": {"lon": 9.3, "lat": 50.6833}}, {"id": 6553240, "name": "Bad Salzschlirf", "state": "", "country": "DE", "coord": {"lon": 9.5, "lat": 50.616699}}, {"id": 6553241, "name": "Burghaun", "state": "", "country": "DE", "coord": {"lon": 9.70817, "lat": 50.70837}}, {"id": 6553242, "name": "Dipperz", "state": "", "country": "DE", "coord": {"lon": 9.8101, "lat": 50.5382}}, {"id": 6553243, "name": "Eichenzell", "state": "", "country": "DE", "coord": {"lon": 9.6961, "lat": 50.493401}}, {"id": 6553244, "name": "Eiterfeld", "state": "", "country": "DE", "coord": {"lon": 9.78685, "lat": 50.752949}}, {"id": 6553245, "name": "Flieden", "state": "", "country": "DE", "coord": {"lon": 9.5649, "lat": 50.417099}}, {"id": 6553246, "name": "Gro\u00dfenl\u00fcder", "state": "", "country": "DE", "coord": {"lon": 9.53333, "lat": 50.583302}}, {"id": 6553247, "name": "Hilders", "state": "", "country": "DE", "coord": {"lon": 9.9929, "lat": 50.5327}}, {"id": 6553248, "name": "Hofbieber", "state": "", "country": "DE", "coord": {"lon": 9.83333, "lat": 50.583302}}, {"id": 6553249, "name": "Hosenfeld", "state": "", "country": "DE", "coord": {"lon": 9.47345, "lat": 50.497849}}, {"id": 6553250, "name": "K\u00fcnzell", "state": "", "country": "DE", "coord": {"lon": 9.71667, "lat": 50.549999}}, {"id": 6553251, "name": "Neuhof", "state": "", "country": "DE", "coord": {"lon": 9.6076, "lat": 50.444901}}, {"id": 6553252, "name": "Petersberg", "state": "", "country": "DE", "coord": {"lon": 9.72957, "lat": 50.570869}}, {"id": 6553253, "name": "Rasdorf", "state": "", "country": "DE", "coord": {"lon": 9.9, "lat": 50.716702}}, {"id": 6553254, "name": "Cornberg", "state": "", "country": "DE", "coord": {"lon": 9.86667, "lat": 51.049999}}, {"id": 6553255, "name": "Friedewald", "state": "", "country": "DE", "coord": {"lon": 9.8666, "lat": 50.882801}}, {"id": 6553256, "name": "Kirchheim", "state": "", "country": "DE", "coord": {"lon": 9.57255, "lat": 50.833321}}, {"id": 6553257, "name": "Nentershausen", "state": "", "country": "DE", "coord": {"lon": 9.93333, "lat": 51.016701}}, {"id": 6553258, "name": "Niederaula", "state": "", "country": "DE", "coord": {"lon": 9.6, "lat": 50.799999}}, {"id": 6553260, "name": "Ronshausen", "state": "", "country": "DE", "coord": {"lon": 9.85, "lat": 50.950001}}, {"id": 6553261, "name": "Schenklengsfeld", "state": "", "country": "DE", "coord": {"lon": 9.85, "lat": 50.8167}}, {"id": 6553262, "name": "Breuna", "state": "", "country": "DE", "coord": {"lon": 9.18333, "lat": 51.416698}}, {"id": 6553263, "name": "Calden", "state": "", "country": "DE", "coord": {"lon": 9.4, "lat": 51.416698}}, {"id": 6553264, "name": "Bad Emstal", "state": "", "country": "DE", "coord": {"lon": 9.25, "lat": 51.233299}}, {"id": 6553265, "name": "Fuldabr\u00fcck", "state": "", "country": "DE", "coord": {"lon": 9.48333, "lat": 51.266701}}, {"id": 6553266, "name": "Fuldatal", "state": "", "country": "DE", "coord": {"lon": 9.52557, "lat": 51.348431}}, {"id": 6553267, "name": "Helsa", "state": "", "country": "DE", "coord": {"lon": 9.6717, "lat": 51.226799}}, {"id": 6553268, "name": "Kaufungen", "state": "", "country": "DE", "coord": {"lon": 9.60572, "lat": 51.2831}}, {"id": 6553269, "name": "Lohfelden", "state": "", "country": "DE", "coord": {"lon": 9.54873, "lat": 51.271599}}, {"id": 6553270, "name": "Nieste", "state": "", "country": "DE", "coord": {"lon": 9.66667, "lat": 51.3167}}, {"id": 6553271, "name": "Frielendorf", "state": "", "country": "DE", "coord": {"lon": 9.33333, "lat": 50.983299}}, {"id": 6553272, "name": "Gilserberg", "state": "", "country": "DE", "coord": {"lon": 9.0604, "lat": 50.9491}}, {"id": 6553273, "name": "Guxhagen", "state": "", "country": "DE", "coord": {"lon": 9.4807, "lat": 51.198799}}, {"id": 6553274, "name": "Jesberg", "state": "", "country": "DE", "coord": {"lon": 9.141, "lat": 50.993801}}, {"id": 6553275, "name": "K\u00f6rle", "state": "", "country": "DE", "coord": {"lon": 9.5241, "lat": 51.175201}}, {"id": 6553276, "name": "Malsfeld", "state": "", "country": "DE", "coord": {"lon": 9.53333, "lat": 51.083302}}, {"id": 6553277, "name": "Neuental", "state": "", "country": "DE", "coord": {"lon": 9.21667, "lat": 51.0}}, {"id": 6553278, "name": "Oberaula", "state": "", "country": "DE", "coord": {"lon": 9.4559, "lat": 50.856499}}, {"id": 6553279, "name": "Ottrau", "state": "", "country": "DE", "coord": {"lon": 9.38333, "lat": 50.799999}}, {"id": 6553280, "name": "Schrecksbach", "state": "", "country": "DE", "coord": {"lon": 9.2853, "lat": 50.834599}}, {"id": 6553281, "name": "Wabern", "state": "", "country": "DE", "coord": {"lon": 9.35, "lat": 51.099998}}, {"id": 6553282, "name": "Willingshausen", "state": "", "country": "DE", "coord": {"lon": 9.2, "lat": 50.849998}}, {"id": 6553284, "name": "Bromskirchen", "state": "", "country": "DE", "coord": {"lon": 8.61667, "lat": 51.083302}}, {"id": 6553286, "name": "V\u00f6hl", "state": "", "country": "DE", "coord": {"lon": 8.8878, "lat": 51.181499}}, {"id": 6553288, "name": "Herleshausen", "state": "", "country": "DE", "coord": {"lon": 10.1763, "lat": 51.005001}}, {"id": 6553289, "name": "Wei\u00dfenborn", "state": "", "country": "DE", "coord": {"lon": 10.1167, "lat": 51.116699}}, {"id": 6553291, "name": "Ahrbr\u00fcck", "state": "", "country": "DE", "coord": {"lon": 6.97151, "lat": 50.484928}}, {"id": 6553292, "name": "Altenahr", "state": "", "country": "DE", "coord": {"lon": 6.9917, "lat": 50.516899}}, {"id": 6553293, "name": "Antweiler", "state": "", "country": "DE", "coord": {"lon": 6.83333, "lat": 50.400002}}, {"id": 6553294, "name": "Aremberg", "state": "", "country": "DE", "coord": {"lon": 6.8, "lat": 50.416698}}, {"id": 6553295, "name": "Barweiler", "state": "", "country": "DE", "coord": {"lon": 6.86667, "lat": 50.366699}}, {"id": 6553296, "name": "Bauler", "state": "", "country": "DE", "coord": {"lon": 6.88333, "lat": 50.333302}}, {"id": 6553297, "name": "Berg", "state": "", "country": "DE", "coord": {"lon": 6.95, "lat": 50.549999}}, {"id": 6553298, "name": "Brohl-L\u00fctzing", "state": "", "country": "DE", "coord": {"lon": 7.33333, "lat": 50.483299}}, {"id": 6553299, "name": "Dankerath", "state": "", "country": "DE", "coord": {"lon": 6.81667, "lat": 50.333302}}, {"id": 6553300, "name": "Dedenbach", "state": "", "country": "DE", "coord": {"lon": 7.18333, "lat": 50.483299}}, {"id": 6553301, "name": "Dernau", "state": "", "country": "DE", "coord": {"lon": 7.0559, "lat": 50.5341}}, {"id": 6553302, "name": "Dorsel", "state": "", "country": "DE", "coord": {"lon": 6.8, "lat": 50.383301}}, {"id": 6553303, "name": "Eichenbach", "state": "", "country": "DE", "coord": {"lon": 6.81667, "lat": 50.4333}}, {"id": 6553304, "name": "Fuchshofen", "state": "", "country": "DE", "coord": {"lon": 6.85, "lat": 50.4333}}, {"id": 6553305, "name": "G\u00f6nnersdorf", "state": "", "country": "DE", "coord": {"lon": 7.26667, "lat": 50.483299}}, {"id": 6553306, "name": "Harscheid", "state": "", "country": "DE", "coord": {"lon": 6.9, "lat": 50.466702}}, {"id": 6553307, "name": "Heckenbach", "state": "", "country": "DE", "coord": {"lon": 7.05, "lat": 50.466702}}, {"id": 6553308, "name": "Herschbroich", "state": "", "country": "DE", "coord": {"lon": 6.96667, "lat": 50.366699}}, {"id": 6553309, "name": "H\u00f6nningen", "state": "", "country": "DE", "coord": {"lon": 6.95, "lat": 50.466671}}, {"id": 6553310, "name": "Hoffeld", "state": "", "country": "DE", "coord": {"lon": 6.81667, "lat": 50.366699}}, {"id": 6553311, "name": "Honerath", "state": "", "country": "DE", "coord": {"lon": 6.9, "lat": 50.383301}}, {"id": 6553312, "name": "H\u00fcmmel", "state": "", "country": "DE", "coord": {"lon": 6.78333, "lat": 50.466702}}, {"id": 6553313, "name": "Insul", "state": "", "country": "DE", "coord": {"lon": 6.91667, "lat": 50.4333}}, {"id": 6553314, "name": "Kalenborn", "state": "", "country": "DE", "coord": {"lon": 7.0, "lat": 50.549999}}, {"id": 6553315, "name": "Kaltenborn", "state": "", "country": "DE", "coord": {"lon": 7.01667, "lat": 50.400002}}, {"id": 6553316, "name": "Kesseling", "state": "", "country": "DE", "coord": {"lon": 7.01667, "lat": 50.483299}}, {"id": 6553318, "name": "K\u00f6nigsfeld", "state": "", "country": "DE", "coord": {"lon": 7.18333, "lat": 50.5}}, {"id": 6553319, "name": "Kottenborn", "state": "", "country": "DE", "coord": {"lon": 6.9, "lat": 50.349998}}, {"id": 6553320, "name": "Leimbach", "state": "", "country": "DE", "coord": {"lon": 6.93333, "lat": 50.400002}}, {"id": 6553321, "name": "Lind", "state": "", "country": "DE", "coord": {"lon": 6.93915, "lat": 50.495251}}, {"id": 6553322, "name": "Mayscho\u00df", "state": "", "country": "DE", "coord": {"lon": 7.01667, "lat": 50.533298}}, {"id": 6553323, "name": "Meuspath", "state": "", "country": "DE", "coord": {"lon": 6.96667, "lat": 50.349998}}, {"id": 6553324, "name": "M\u00fcllenbach", "state": "", "country": "DE", "coord": {"lon": 6.91667, "lat": 50.3167}}, {"id": 6553325, "name": "M\u00fcsch", "state": "", "country": "DE", "coord": {"lon": 6.83333, "lat": 50.383301}}, {"id": 6553326, "name": "Niederd\u00fcrenbach", "state": "", "country": "DE", "coord": {"lon": 7.18333, "lat": 50.450001}}, {"id": 6553327, "name": "Niederzissen", "state": "", "country": "DE", "coord": {"lon": 7.23333, "lat": 50.466702}}, {"id": 6553328, "name": "N\u00fcrburg", "state": "", "country": "DE", "coord": {"lon": 6.95, "lat": 50.333302}}, {"id": 6553329, "name": "Oberd\u00fcrenbach", "state": "", "country": "DE", "coord": {"lon": 7.16667, "lat": 50.466702}}, {"id": 6553330, "name": "Oberzissen", "state": "", "country": "DE", "coord": {"lon": 7.2, "lat": 50.450001}}, {"id": 6553331, "name": "Ohlenhard", "state": "", "country": "DE", "coord": {"lon": 6.76667, "lat": 50.450001}}, {"id": 6553332, "name": "Pomster", "state": "", "country": "DE", "coord": {"lon": 6.85, "lat": 50.349998}}, {"id": 6553333, "name": "Quiddelbach", "state": "", "country": "DE", "coord": {"lon": 6.93333, "lat": 50.349998}}, {"id": 6553334, "name": "Rech", "state": "", "country": "DE", "coord": {"lon": 7.03333, "lat": 50.516701}}, {"id": 6553335, "name": "Reifferscheid", "state": "", "country": "DE", "coord": {"lon": 6.88333, "lat": 50.400002}}, {"id": 6553336, "name": "Rodder", "state": "", "country": "DE", "coord": {"lon": 6.86667, "lat": 50.400002}}, {"id": 6553337, "name": "Schalkenbach", "state": "", "country": "DE", "coord": {"lon": 7.15, "lat": 50.5}}, {"id": 6553338, "name": "Schuld", "state": "", "country": "DE", "coord": {"lon": 6.88333, "lat": 50.450001}}, {"id": 6553339, "name": "Senscheid", "state": "", "country": "DE", "coord": {"lon": 6.83333, "lat": 50.333302}}, {"id": 6553340, "name": "Sierscheid", "state": "", "country": "DE", "coord": {"lon": 6.91667, "lat": 50.450001}}, {"id": 6553341, "name": "Trierscheid", "state": "", "country": "DE", "coord": {"lon": 6.81667, "lat": 50.349998}}, {"id": 6553342, "name": "Waldorf", "state": "", "country": "DE", "coord": {"lon": 7.23333, "lat": 50.483299}}, {"id": 6553343, "name": "Wershofen", "state": "", "country": "DE", "coord": {"lon": 6.81667, "lat": 50.450001}}, {"id": 6553344, "name": "Wiesemscheid", "state": "", "country": "DE", "coord": {"lon": 6.88333, "lat": 50.333302}}, {"id": 6553345, "name": "Wimbach", "state": "", "country": "DE", "coord": {"lon": 6.91667, "lat": 50.366699}}, {"id": 6553346, "name": "Winnerath", "state": "", "country": "DE", "coord": {"lon": 6.88333, "lat": 50.4333}}, {"id": 6553347, "name": "Wirft", "state": "", "country": "DE", "coord": {"lon": 6.86667, "lat": 50.366699}}, {"id": 6553348, "name": "Brenk", "state": "", "country": "DE", "coord": {"lon": 7.18333, "lat": 50.4333}}, {"id": 6553349, "name": "Burgbrohl", "state": "", "country": "DE", "coord": {"lon": 7.28333, "lat": 50.450001}}, {"id": 6553350, "name": "Galenberg", "state": "", "country": "DE", "coord": {"lon": 7.2, "lat": 50.4333}}, {"id": 6553351, "name": "Glees", "state": "", "country": "DE", "coord": {"lon": 7.25, "lat": 50.4333}}, {"id": 6553352, "name": "Hohenleimbach", "state": "", "country": "DE", "coord": {"lon": 7.06667, "lat": 50.416698}}, {"id": 6553353, "name": "Spessart", "state": "", "country": "DE", "coord": {"lon": 7.11667, "lat": 50.450001}}, {"id": 6553354, "name": "Wassenach", "state": "", "country": "DE", "coord": {"lon": 7.28333, "lat": 50.4333}}, {"id": 6553355, "name": "Wehr", "state": "", "country": "DE", "coord": {"lon": 7.21667, "lat": 50.416698}}, {"id": 6553356, "name": "Weibern", "state": "", "country": "DE", "coord": {"lon": 7.15, "lat": 50.400002}}, {"id": 6553357, "name": "D\u00fcmpelfeld", "state": "", "country": "DE", "coord": {"lon": 6.95, "lat": 50.4333}}, {"id": 6553358, "name": "Kempenich", "state": "", "country": "DE", "coord": {"lon": 7.13333, "lat": 50.416698}}, {"id": 6553359, "name": "Almersbach", "state": "", "country": "DE", "coord": {"lon": 7.63333, "lat": 50.6833}}, {"id": 6553360, "name": "Alsdorf", "state": "", "country": "DE", "coord": {"lon": 7.86667, "lat": 50.766701}}, {"id": 6553361, "name": "Bachenberg", "state": "", "country": "DE", "coord": {"lon": 7.65, "lat": 50.716702}}, {"id": 6553362, "name": "Berzhausen", "state": "", "country": "DE", "coord": {"lon": 7.56667, "lat": 50.666698}}, {"id": 6553363, "name": "Birkenbeul", "state": "", "country": "DE", "coord": {"lon": 7.61667, "lat": 50.733299}}, {"id": 6553364, "name": "Birken-Honigsessen", "state": "", "country": "DE", "coord": {"lon": 7.73333, "lat": 50.8167}}, {"id": 6553365, "name": "Birnbach", "state": "", "country": "DE", "coord": {"lon": 7.58333, "lat": 50.700001}}, {"id": 6553366, "name": "Bitzen", "state": "", "country": "DE", "coord": {"lon": 7.68333, "lat": 50.799999}}, {"id": 6553367, "name": "Mittelhof", "state": "", "country": "DE", "coord": {"lon": 7.8, "lat": 50.783298}}, {"id": 6553368, "name": "Brachbach", "state": "", "country": "DE", "coord": {"lon": 7.93333, "lat": 50.8167}}, {"id": 6553369, "name": "Breitscheidt", "state": "", "country": "DE", "coord": {"lon": 7.65, "lat": 50.75}}, {"id": 6553370, "name": "Bruchertseifen", "state": "", "country": "DE", "coord": {"lon": 7.71667, "lat": 50.75}}, {"id": 6553371, "name": "B\u00fcrdenbach", "state": "", "country": "DE", "coord": {"lon": 7.51667, "lat": 50.599998}}, {"id": 6553372, "name": "Burglahr", "state": "", "country": "DE", "coord": {"lon": 7.48333, "lat": 50.616699}}, {"id": 6553373, "name": "Busenhausen", "state": "", "country": "DE", "coord": {"lon": 7.63333, "lat": 50.716702}}, {"id": 6553374, "name": "Derschen", "state": "", "country": "DE", "coord": {"lon": 7.98333, "lat": 50.716702}}, {"id": 6553375, "name": "Dickendorf", "state": "", "country": "DE", "coord": {"lon": 7.85, "lat": 50.733299}}, {"id": 6553376, "name": "Eichelhardt", "state": "", "country": "DE", "coord": {"lon": 7.7, "lat": 50.716702}}, {"id": 6553377, "name": "Eichen", "state": "", "country": "DE", "coord": {"lon": 7.53333, "lat": 50.633301}}, {"id": 6553378, "name": "Elben", "state": "", "country": "DE", "coord": {"lon": 7.83333, "lat": 50.75}}, {"id": 6553379, "name": "Elkenroth", "state": "", "country": "DE", "coord": {"lon": 7.8836, "lat": 50.730099}}, {"id": 6553380, "name": "Emmerzhausen", "state": "", "country": "DE", "coord": {"lon": 8.03333, "lat": 50.716702}}, {"id": 6553381, "name": "Ersfeld", "state": "", "country": "DE", "coord": {"lon": 7.51667, "lat": 50.700001}}, {"id": 6553382, "name": "Etzbach", "state": "", "country": "DE", "coord": {"lon": 7.68333, "lat": 50.783298}}, {"id": 6553383, "name": "Eulenberg", "state": "", "country": "DE", "coord": {"lon": 7.46667, "lat": 50.599998}}, {"id": 6553384, "name": "Fensdorf", "state": "", "country": "DE", "coord": {"lon": 7.76667, "lat": 50.733299}}, {"id": 6553385, "name": "Fiersbach", "state": "", "country": "DE", "coord": {"lon": 7.5, "lat": 50.700001}}, {"id": 6553386, "name": "Flammersfeld", "state": "", "country": "DE", "coord": {"lon": 7.5288, "lat": 50.648102}}, {"id": 6553387, "name": "Fluterschen", "state": "", "country": "DE", "coord": {"lon": 7.61667, "lat": 50.666698}}, {"id": 6553388, "name": "Forst", "state": "", "country": "DE", "coord": {"lon": 7.68333, "lat": 50.799999}}, {"id": 6553389, "name": "Forstmehren", "state": "", "country": "DE", "coord": {"lon": 7.53333, "lat": 50.700001}}, {"id": 6553390, "name": "Friedewald", "state": "", "country": "DE", "coord": {"lon": 7.96667, "lat": 50.716702}}, {"id": 6553391, "name": "Friesenhagen", "state": "", "country": "DE", "coord": {"lon": 7.8, "lat": 50.900002}}, {"id": 6553392, "name": "F\u00fcrthen", "state": "", "country": "DE", "coord": {"lon": 7.66667, "lat": 50.783298}}, {"id": 6553393, "name": "Gebhardshain", "state": "", "country": "DE", "coord": {"lon": 7.81667, "lat": 50.75}}, {"id": 6553394, "name": "Gieleroth", "state": "", "country": "DE", "coord": {"lon": 7.68333, "lat": 50.666698}}, {"id": 6553395, "name": "Giershausen", "state": "", "country": "DE", "coord": {"lon": 7.55, "lat": 50.6833}}, {"id": 6553396, "name": "Gr\u00fcnebach", "state": "", "country": "DE", "coord": {"lon": 7.9, "lat": 50.783298}}, {"id": 6553397, "name": "G\u00fcllesheim", "state": "", "country": "DE", "coord": {"lon": 7.51667, "lat": 50.599998}}, {"id": 6553398, "name": "Harbach", "state": "", "country": "DE", "coord": {"lon": 7.83333, "lat": 50.849998}}, {"id": 6553399, "name": "Hasselbach", "state": "", "country": "DE", "coord": {"lon": 7.51667, "lat": 50.716702}}, {"id": 6553400, "name": "Helmenzen", "state": "", "country": "DE", "coord": {"lon": 7.61667, "lat": 50.700001}}, {"id": 6553401, "name": "Helmeroth", "state": "", "country": "DE", "coord": {"lon": 7.73333, "lat": 50.733299}}, {"id": 6553402, "name": "Hemmelzen", "state": "", "country": "DE", "coord": {"lon": 7.58333, "lat": 50.700001}}, {"id": 6553403, "name": "Heupelzen", "state": "", "country": "DE", "coord": {"lon": 7.61667, "lat": 50.716702}},