[{"id": 6554540, "name": "Giesdorf", "state": "", "country": "DE", "coord": {"lon": 6.45, "lat": 50.1833}}, {"id": 6554541, "name": "Gilzem", "state": "", "country": "DE", "coord": {"lon": 6.51667, "lat": 49.866699}}, {"id": 6554542, "name": "Weinsheim", "state": "", "country": "DE", "coord": {"lon": 6.46667, "lat": 50.233299}}, {"id": 6554543, "name": "Gondenbrett", "state": "", "country": "DE", "coord": {"lon": 6.41667, "lat": 50.233299}}, {"id": 6554544, "name": "Gransdorf", "state": "", "country": "DE", "coord": {"lon": 6.68333, "lat": 50.016701}}, {"id": 6554545, "name": "Gro\u00dfkampenberg", "state": "", "country": "DE", "coord": {"lon": 6.2, "lat": 50.150002}}, {"id": 6554546, "name": "Gro\u00dflangenfeld", "state": "", "country": "DE", "coord": {"lon": 6.25, "lat": 50.216702}}, {"id": 6554547, "name": "Habscheid", "state": "", "country": "DE", "coord": {"lon": 6.26667, "lat": 50.1833}}, {"id": 6554548, "name": "Hargarten", "state": "", "country": "DE", "coord": {"lon": 6.4, "lat": 50.099998}}, {"id": 6554549, "name": "Harspelt", "state": "", "country": "DE", "coord": {"lon": 6.16667, "lat": 50.133301}}, {"id": 6554550, "name": "Heckhuscheid", "state": "", "country": "DE", "coord": {"lon": 6.21667, "lat": 50.1833}}, {"id": 6554551, "name": "Heisdorf", "state": "", "country": "DE", "coord": {"lon": 6.43333, "lat": 50.133301}}, {"id": 6554552, "name": "Herzfeld", "state": "", "country": "DE", "coord": {"lon": 6.21667, "lat": 50.133301}}, {"id": 6554553, "name": "Irrhausen", "state": "", "country": "DE", "coord": {"lon": 6.2, "lat": 50.0667}}, {"id": 6554554, "name": "Jucken", "state": "", "country": "DE", "coord": {"lon": 6.23333, "lat": 50.049999}}, {"id": 6554555, "name": "Kesfeld", "state": "", "country": "DE", "coord": {"lon": 6.23333, "lat": 50.150002}}, {"id": 6554556, "name": "Kickeshausen", "state": "", "country": "DE", "coord": {"lon": 6.25, "lat": 50.0667}}, {"id": 6554557, "name": "Kinzenburg", "state": "", "country": "DE", "coord": {"lon": 6.35, "lat": 50.116699}}, {"id": 6554558, "name": "Kleinlangenfeld", "state": "", "country": "DE", "coord": {"lon": 6.48333, "lat": 50.266701}}, {"id": 6554559, "name": "Krautscheid", "state": "", "country": "DE", "coord": {"lon": 6.33333, "lat": 50.0667}}, {"id": 6554560, "name": "Lambertsberg", "state": "", "country": "DE", "coord": {"lon": 6.38333, "lat": 50.083302}}, {"id": 6554561, "name": "Lascheid", "state": "", "country": "DE", "coord": {"lon": 6.41667, "lat": 50.116699}}, {"id": 6554562, "name": "Lasel", "state": "", "country": "DE", "coord": {"lon": 6.46667, "lat": 50.116699}}, {"id": 6554563, "name": "Lauperath", "state": "", "country": "DE", "coord": {"lon": 6.33333, "lat": 50.083302}}, {"id": 6554564, "name": "Leidenborn", "state": "", "country": "DE", "coord": {"lon": 6.21667, "lat": 50.133301}}, {"id": 6554565, "name": "Lichtenborn", "state": "", "country": "DE", "coord": {"lon": 6.3, "lat": 50.116699}}, {"id": 6554566, "name": "Lierfeld", "state": "", "country": "DE", "coord": {"lon": 6.36667, "lat": 50.133301}}, {"id": 6554567, "name": "L\u00fcnebach", "state": "", "country": "DE", "coord": {"lon": 6.35, "lat": 50.133301}}, {"id": 6554568, "name": "L\u00fctzkampen", "state": "", "country": "DE", "coord": {"lon": 6.18333, "lat": 50.150002}}, {"id": 6554569, "name": "Manderscheid", "state": "", "country": "DE", "coord": {"lon": 6.35, "lat": 50.099998}}, {"id": 6554570, "name": "Masthorn", "state": "", "country": "DE", "coord": {"lon": 6.3, "lat": 50.150002}}, {"id": 6554571, "name": "Matzerath", "state": "", "country": "DE", "coord": {"lon": 6.38333, "lat": 50.150002}}, {"id": 6554572, "name": "Mauel", "state": "", "country": "DE", "coord": {"lon": 6.4, "lat": 50.0667}}, {"id": 6554573, "name": "Merlscheid", "state": "", "country": "DE", "coord": {"lon": 6.35, "lat": 50.133301}}, {"id": 6554574, "name": "M\u00fctzenich", "state": "", "country": "DE", "coord": {"lon": 6.26667, "lat": 50.25}}, {"id": 6554575, "name": "Neuendorf", "state": "", "country": "DE", "coord": {"lon": 6.46667, "lat": 50.283298}}, {"id": 6554576, "name": "Neuheilenbach", "state": "", "country": "DE", "coord": {"lon": 6.56667, "lat": 50.116699}}, {"id": 6554577, "name": "Niederlauch", "state": "", "country": "DE", "coord": {"lon": 6.43333, "lat": 50.166698}}, {"id": 6554578, "name": "Niederpierscheid", "state": "", "country": "DE", "coord": {"lon": 6.36667, "lat": 50.083302}}, {"id": 6554579, "name": "Nimshuscheid", "state": "", "country": "DE", "coord": {"lon": 6.48333, "lat": 50.099998}}, {"id": 6554580, "name": "Nimsreuland", "state": "", "country": "DE", "coord": {"lon": 6.45, "lat": 50.133301}}, {"id": 6554581, "name": "Oberkail", "state": "", "country": "DE", "coord": {"lon": 6.68333, "lat": 50.033298}}, {"id": 6554582, "name": "Oberlascheid", "state": "", "country": "DE", "coord": {"lon": 6.3, "lat": 50.25}}, {"id": 6554583, "name": "Oberlauch", "state": "", "country": "DE", "coord": {"lon": 6.41667, "lat": 50.166698}}, {"id": 6554584, "name": "Oberpierscheid", "state": "", "country": "DE", "coord": {"lon": 6.36667, "lat": 50.0667}}, {"id": 6554585, "name": "Olmscheid", "state": "", "country": "DE", "coord": {"lon": 6.21667, "lat": 50.0667}}, {"id": 6554586, "name": "Olzheim", "state": "", "country": "DE", "coord": {"lon": 6.46667, "lat": 50.266701}}, {"id": 6554587, "name": "Orenhofen", "state": "", "country": "DE", "coord": {"lon": 6.65, "lat": 49.900002}}, {"id": 6554588, "name": "Orlenbach", "state": "", "country": "DE", "coord": {"lon": 6.38333, "lat": 50.166698}}, {"id": 6554589, "name": "Pintesfeld", "state": "", "country": "DE", "coord": {"lon": 6.36667, "lat": 50.116699}}, {"id": 6554590, "name": "Pittenbach", "state": "", "country": "DE", "coord": {"lon": 6.35, "lat": 50.1833}}, {"id": 6554591, "name": "Pl\u00fctscheid", "state": "", "country": "DE", "coord": {"lon": 6.41667, "lat": 50.083302}}, {"id": 6554592, "name": "Preischeid", "state": "", "country": "DE", "coord": {"lon": 6.15, "lat": 50.033298}}, {"id": 6554593, "name": "Pronsfeld", "state": "", "country": "DE", "coord": {"lon": 6.33333, "lat": 50.166698}}, {"id": 6554594, "name": "Reiff", "state": "", "country": "DE", "coord": {"lon": 6.2, "lat": 50.099998}}, {"id": 6554595, "name": "Reipeldingen", "state": "", "country": "DE", "coord": {"lon": 6.18333, "lat": 50.083302}}, {"id": 6554596, "name": "Rommersheim", "state": "", "country": "DE", "coord": {"lon": 6.45, "lat": 50.200001}}, {"id": 6554597, "name": "Roscheid", "state": "", "country": "DE", "coord": {"lon": 6.18333, "lat": 50.116699}}, {"id": 6554598, "name": "Sch\u00f6necken", "state": "", "country": "DE", "coord": {"lon": 6.46667, "lat": 50.166698}}, {"id": 6554599, "name": "Schwirzheim", "state": "", "country": "DE", "coord": {"lon": 6.53333, "lat": 50.233299}}, {"id": 6554600, "name": "Seinsfeld", "state": "", "country": "DE", "coord": {"lon": 6.65, "lat": 50.049999}}, {"id": 6554601, "name": "Seiwerath", "state": "", "country": "DE", "coord": {"lon": 6.5, "lat": 50.150002}}, {"id": 6554602, "name": "Sellerich", "state": "", "country": "DE", "coord": {"lon": 6.36667, "lat": 50.233299}}, {"id": 6554603, "name": "Sengerich", "state": "", "country": "DE", "coord": {"lon": 6.21667, "lat": 50.116699}}, {"id": 6554605, "name": "Spangdahlem", "state": "", "country": "DE", "coord": {"lon": 6.68333, "lat": 49.983299}}, {"id": 6554606, "name": "Steinborn", "state": "", "country": "DE", "coord": {"lon": 6.63333, "lat": 50.0667}}, {"id": 6554607, "name": "Strickscheid", "state": "", "country": "DE", "coord": {"lon": 6.31667, "lat": 50.133301}}, {"id": 6554608, "name": "Wallersheim", "state": "", "country": "DE", "coord": {"lon": 6.53333, "lat": 50.200001}}, {"id": 6554609, "name": "Watzerath", "state": "", "country": "DE", "coord": {"lon": 6.36667, "lat": 50.1833}}, {"id": 6554610, "name": "Wawern", "state": "", "country": "DE", "coord": {"lon": 6.48333, "lat": 50.116699}}, {"id": 6554611, "name": "Waxweiler", "state": "", "country": "DE", "coord": {"lon": 6.36667, "lat": 50.099998}}, {"id": 6554612, "name": "Winringen", "state": "", "country": "DE", "coord": {"lon": 6.41667, "lat": 50.150002}}, {"id": 6554613, "name": "Winterscheid", "state": "", "country": "DE", "coord": {"lon": 6.25, "lat": 50.233299}}, {"id": 6554614, "name": "Winterspelt", "state": "", "country": "DE", "coord": {"lon": 6.21667, "lat": 50.216702}}, {"id": 6554615, "name": "Zendscheid", "state": "", "country": "DE", "coord": {"lon": 6.6, "lat": 50.099998}}, {"id": 6554616, "name": "Wi\u00dfmannsdorf", "state": "", "country": "DE", "coord": {"lon": 6.45, "lat": 49.983299}}, {"id": 6554617, "name": "Basberg", "state": "", "country": "DE", "coord": {"lon": 6.6, "lat": 50.299999}}, {"id": 6554618, "name": "Beinhausen", "state": "", "country": "DE", "coord": {"lon": 6.88333, "lat": 50.266701}}, {"id": 6554619, "name": "Berlingen", "state": "", "country": "DE", "coord": {"lon": 6.71667, "lat": 50.233299}}, {"id": 6554620, "name": "Berndorf", "state": "", "country": "DE", "coord": {"lon": 6.7, "lat": 50.299999}}, {"id": 6554621, "name": "Betteldorf", "state": "", "country": "DE", "coord": {"lon": 6.75, "lat": 50.25}}, {"id": 6554622, "name": "Birgel", "state": "", "country": "DE", "coord": {"lon": 6.61667, "lat": 50.3167}}, {"id": 6554623, "name": "Bleckhausen", "state": "", "country": "DE", "coord": {"lon": 6.78333, "lat": 50.133301}}, {"id": 6554624, "name": "Boxberg", "state": "", "country": "DE", "coord": {"lon": 6.88333, "lat": 50.266701}}, {"id": 6554625, "name": "Brockscheid", "state": "", "country": "DE", "coord": {"lon": 6.85, "lat": 50.133301}}, {"id": 6554626, "name": "Darscheid", "state": "", "country": "DE", "coord": {"lon": 6.88333, "lat": 50.216702}}, {"id": 6554627, "name": "Demerath", "state": "", "country": "DE", "coord": {"lon": 6.95, "lat": 50.1833}}, {"id": 6554628, "name": "Deudesfeld", "state": "", "country": "DE", "coord": {"lon": 6.73333, "lat": 50.099998}}, {"id": 6554629, "name": "Dockweiler", "state": "", "country": "DE", "coord": {"lon": 6.78333, "lat": 50.25}}, {"id": 6554630, "name": "Dohm-Lammersdorf", "state": "", "country": "DE", "coord": {"lon": 6.66667, "lat": 50.266701}}, {"id": 6554631, "name": "Dreis-Br\u00fcck", "state": "", "country": "DE", "coord": {"lon": 6.8, "lat": 50.266701}}, {"id": 6554632, "name": "Ellscheid", "state": "", "country": "DE", "coord": {"lon": 6.91667, "lat": 50.150002}}, {"id": 6554633, "name": "Esch", "state": "", "country": "DE", "coord": {"lon": 6.61667, "lat": 50.366699}}, {"id": 6554634, "name": "Feusdorf", "state": "", "country": "DE", "coord": {"lon": 6.61667, "lat": 50.349998}}, {"id": 6554635, "name": "Gillenfeld", "state": "", "country": "DE", "coord": {"lon": 6.9, "lat": 50.116699}}, {"id": 6554636, "name": "G\u00f6nnersdorf", "state": "", "country": "DE", "coord": {"lon": 6.6, "lat": 50.333302}}, {"id": 6554637, "name": "Hinterweiler", "state": "", "country": "DE", "coord": {"lon": 6.75, "lat": 50.233299}}, {"id": 6554638, "name": "H\u00f6rscheid", "state": "", "country": "DE", "coord": {"lon": 6.86667, "lat": 50.216702}}, {"id": 6554639, "name": "H\u00f6rschhausen", "state": "", "country": "DE", "coord": {"lon": 6.93333, "lat": 50.25}}, {"id": 6554640, "name": "Hohenfels-Essingen", "state": "", "country": "DE", "coord": {"lon": 6.73333, "lat": 50.25}}, {"id": 6554641, "name": "Immerath", "state": "", "country": "DE", "coord": {"lon": 6.95, "lat": 50.133301}}, {"id": 6554642, "name": "J\u00fcnkerath", "state": "", "country": "DE", "coord": {"lon": 6.58333, "lat": 50.333302}}, {"id": 6554643, "name": "Kalenborn-Scheuern", "state": "", "country": "DE", "coord": {"lon": 6.6, "lat": 50.25}}, {"id": 6554644, "name": "Katzwinkel", "state": "", "country": "DE", "coord": {"lon": 6.91667, "lat": 50.25}}, {"id": 6554645, "name": "Kirchweiler", "state": "", "country": "DE", "coord": {"lon": 6.75, "lat": 50.233299}}, {"id": 6554646, "name": "Kradenbach", "state": "", "country": "DE", "coord": {"lon": 6.85, "lat": 50.25}}, {"id": 6554647, "name": "Lissendorf", "state": "", "country": "DE", "coord": {"lon": 6.6, "lat": 50.3167}}, {"id": 6554648, "name": "Mehren", "state": "", "country": "DE", "coord": {"lon": 6.88333, "lat": 50.1833}}, {"id": 6554649, "name": "Meisburg", "state": "", "country": "DE", "coord": {"lon": 6.68333, "lat": 50.116699}}, {"id": 6554650, "name": "M\u00fcckeln", "state": "", "country": "DE", "coord": {"lon": 6.91667, "lat": 50.083302}}, {"id": 6554651, "name": "Neichen", "state": "", "country": "DE", "coord": {"lon": 6.86667, "lat": 50.266701}}, {"id": 6554652, "name": "Nerdlen", "state": "", "country": "DE", "coord": {"lon": 6.86667, "lat": 50.233299}}, {"id": 6554653, "name": "Neroth", "state": "", "country": "DE", "coord": {"lon": 6.75, "lat": 50.200001}}, {"id": 6554654, "name": "Niederstadtfeld", "state": "", "country": "DE", "coord": {"lon": 6.76667, "lat": 50.166698}}, {"id": 6554655, "name": "Oberbettingen", "state": "", "country": "DE", "coord": {"lon": 6.63333, "lat": 50.283298}}, {"id": 6554656, "name": "Oberehe-Stroheich", "state": "", "country": "DE", "coord": {"lon": 6.76667, "lat": 50.283298}}, {"id": 6554657, "name": "Oberstadtfeld", "state": "", "country": "DE", "coord": {"lon": 6.76667, "lat": 50.1833}}, {"id": 6554658, "name": "Pelm", "state": "", "country": "DE", "coord": {"lon": 6.68333, "lat": 50.233299}}, {"id": 6554659, "name": "Rockeskyll", "state": "", "country": "DE", "coord": {"lon": 6.7, "lat": 50.25}}, {"id": 6554660, "name": "Salm", "state": "", "country": "DE", "coord": {"lon": 6.68333, "lat": 50.150002}}, {"id": 6554661, "name": "Sarmersbach", "state": "", "country": "DE", "coord": {"lon": 6.88333, "lat": 50.233299}}, {"id": 6554662, "name": "Saxler", "state": "", "country": "DE", "coord": {"lon": 6.9, "lat": 50.133301}}, {"id": 6554663, "name": "Schalkenmehren", "state": "", "country": "DE", "coord": {"lon": 6.85, "lat": 50.166698}}, {"id": 6554664, "name": "Sch\u00f6nbach", "state": "", "country": "DE", "coord": {"lon": 6.95, "lat": 50.216702}}, {"id": 6554665, "name": "Schutz", "state": "", "country": "DE", "coord": {"lon": 6.75, "lat": 50.133301}}, {"id": 6554666, "name": "Steineberg", "state": "", "country": "DE", "coord": {"lon": 6.91667, "lat": 50.1833}}, {"id": 6554667, "name": "Steiningen", "state": "", "country": "DE", "coord": {"lon": 6.91667, "lat": 50.1833}}, {"id": 6554668, "name": "Strohn", "state": "", "country": "DE", "coord": {"lon": 6.91667, "lat": 50.116699}}, {"id": 6554669, "name": "Strotzb\u00fcsch", "state": "", "country": "DE", "coord": {"lon": 6.95, "lat": 50.099998}}, {"id": 6554670, "name": "Udler", "state": "", "country": "DE", "coord": {"lon": 6.88333, "lat": 50.133301}}, {"id": 6554671, "name": "\u00dcdersdorf", "state": "", "country": "DE", "coord": {"lon": 6.8, "lat": 50.150002}}, {"id": 6554672, "name": "\u00dcxheim", "state": "", "country": "DE", "coord": {"lon": 6.75, "lat": 50.349998}}, {"id": 6554673, "name": "Utzerath", "state": "", "country": "DE", "coord": {"lon": 6.93333, "lat": 50.216702}}, {"id": 6554674, "name": "Wallenborn", "state": "", "country": "DE", "coord": {"lon": 6.71667, "lat": 50.150002}}, {"id": 6554675, "name": "Walsdorf", "state": "", "country": "DE", "coord": {"lon": 6.71667, "lat": 50.283298}}, {"id": 6554676, "name": "Weidenbach", "state": "", "country": "DE", "coord": {"lon": 6.71667, "lat": 50.133301}}, {"id": 6554677, "name": "Wiesbaum", "state": "", "country": "DE", "coord": {"lon": 6.66667, "lat": 50.333302}}, {"id": 6554678, "name": "Arbach", "state": "", "country": "DE", "coord": {"lon": 7.05, "lat": 50.283298}}, {"id": 6554679, "name": "Bereborn", "state": "", "country": "DE", "coord": {"lon": 6.96667, "lat": 50.283298}}, {"id": 6554680, "name": "Berenbach", "state": "", "country": "DE", "coord": {"lon": 6.95, "lat": 50.233299}}, {"id": 6554681, "name": "Birresborn", "state": "", "country": "DE", "coord": {"lon": 6.63333, "lat": 50.1833}}, {"id": 6554682, "name": "Bodenbach", "state": "", "country": "DE", "coord": {"lon": 6.85, "lat": 50.3167}}, {"id": 6554683, "name": "Bongard", "state": "", "country": "DE", "coord": {"lon": 6.83333, "lat": 50.299999}}, {"id": 6554684, "name": "Borler", "state": "", "country": "DE", "coord": {"lon": 6.83333, "lat": 50.3167}}, {"id": 6554685, "name": "Br\u00fccktal", "state": "", "country": "DE", "coord": {"lon": 6.98333, "lat": 50.3167}}, {"id": 6554686, "name": "Densborn", "state": "", "country": "DE", "coord": {"lon": 6.6, "lat": 50.133301}}, {"id": 6554687, "name": "Drees", "state": "", "country": "DE", "coord": {"lon": 7.0, "lat": 50.349998}}, {"id": 6554688, "name": "Duppach", "state": "", "country": "DE", "coord": {"lon": 6.56667, "lat": 50.266701}}, {"id": 6554689, "name": "Gelenberg", "state": "", "country": "DE", "coord": {"lon": 6.86667, "lat": 50.299999}}, {"id": 6554690, "name": "Gunderath", "state": "", "country": "DE", "coord": {"lon": 6.97885, "lat": 50.255051}}, {"id": 6554691, "name": "Hallschlag", "state": "", "country": "DE", "coord": {"lon": 6.43333, "lat": 50.349998}}, {"id": 6554692, "name": "Horperath", "state": "", "country": "DE", "coord": {"lon": 6.95, "lat": 50.25}}, {"id": 6554693, "name": "Kaperich", "state": "", "country": "DE", "coord": {"lon": 7.03333, "lat": 50.25}}, {"id": 6554694, "name": "Kelberg", "state": "", "country": "DE", "coord": {"lon": 6.91667, "lat": 50.299999}}, {"id": 6554695, "name": "Kerschenbach", "state": "", "country": "DE", "coord": {"lon": 6.5, "lat": 50.349998}}, {"id": 6554696, "name": "Kirsbach", "state": "", "country": "DE", "coord": {"lon": 7.0, "lat": 50.333302}}, {"id": 6554697, "name": "K\u00f6tterichen", "state": "", "country": "DE", "coord": {"lon": 6.98435, "lat": 50.240181}}, {"id": 6554698, "name": "Kolverath", "state": "", "country": "DE", "coord": {"lon": 6.96667, "lat": 50.266701}}, {"id": 6554699, "name": "Kopp", "state": "", "country": "DE", "coord": {"lon": 6.58333, "lat": 50.1833}}, {"id": 6554700, "name": "Lirstal", "state": "", "country": "DE", "coord": {"lon": 7.03333, "lat": 50.25}}, {"id": 6554701, "name": "Mannebach", "state": "", "country": "DE", "coord": {"lon": 6.98333, "lat": 50.283298}}, {"id": 6554702, "name": "Mosbruch", "state": "", "country": "DE", "coord": {"lon": 6.95, "lat": 50.266701}}, {"id": 6554703, "name": "M\u00fcrlenbach", "state": "", "country": "DE", "coord": {"lon": 6.6, "lat": 50.150002}}, {"id": 6554704, "name": "Nitz", "state": "", "country": "DE", "coord": {"lon": 7.01667, "lat": 50.333302}}, {"id": 6554705, "name": "Nohn", "state": "", "country": "DE", "coord": {"lon": 6.78333, "lat": 50.333302}}, {"id": 6554706, "name": "Oberelz", "state": "", "country": "DE", "coord": {"lon": 7.05, "lat": 50.266701}}, {"id": 6554707, "name": "Ormont", "state": "", "country": "DE", "coord": {"lon": 6.45, "lat": 50.333302}}, {"id": 6554708, "name": "Reimerath", "state": "", "country": "DE", "coord": {"lon": 6.96667, "lat": 50.299999}}, {"id": 6554709, "name": "Retterath", "state": "", "country": "DE", "coord": {"lon": 7.01667, "lat": 50.266701}}, {"id": 6554710, "name": "Reuth", "state": "", "country": "DE", "coord": {"lon": 6.48333, "lat": 50.299999}}, {"id": 6554711, "name": "Sassen", "state": "", "country": "DE", "coord": {"lon": 6.96667, "lat": 50.266701}}, {"id": 6554712, "name": "Scheid", "state": "", "country": "DE", "coord": {"lon": 6.41667, "lat": 50.349998}}, {"id": 6554713, "name": "Sch\u00fcller", "state": "", "country": "DE", "coord": {"lon": 6.58333, "lat": 50.333302}}, {"id": 6554714, "name": "Stadtkyll", "state": "", "country": "DE", "coord": {"lon": 6.53333, "lat": 50.349998}}, {"id": 6554715, "name": "Steffeln", "state": "", "country": "DE", "coord": {"lon": 6.56667, "lat": 50.283298}}, {"id": 6554716, "name": "Uersfeld", "state": "", "country": "DE", "coord": {"lon": 7.01667, "lat": 50.25}}, {"id": 6554717, "name": "Ue\u00df", "state": "", "country": "DE", "coord": {"lon": 6.93333, "lat": 50.25}}, {"id": 6554718, "name": "Aach", "state": "", "country": "DE", "coord": {"lon": 6.6, "lat": 49.783298}}, {"id": 6554719, "name": "Ayl", "state": "", "country": "DE", "coord": {"lon": 6.55, "lat": 49.633301}}, {"id": 6554720, "name": "Baldringen", "state": "", "country": "DE", "coord": {"lon": 6.68333, "lat": 49.616699}}, {"id": 6554721, "name": "Bekond", "state": "", "country": "DE", "coord": {"lon": 6.8, "lat": 49.849998}}, {"id": 6554722, "name": "Bescheid", "state": "", "country": "DE", "coord": {"lon": 6.88333, "lat": 49.75}}, {"id": 6554725, "name": "Damflos", "state": "", "country": "DE", "coord": {"lon": 6.98333, "lat": 49.666698}}, {"id": 6554726, "name": "Detzem", "state": "", "country": "DE", "coord": {"lon": 6.85, "lat": 49.8167}}, {"id": 6554727, "name": "Ensch", "state": "", "country": "DE", "coord": {"lon": 6.83333, "lat": 49.833302}}, {"id": 6554728, "name": "Farschweiler", "state": "", "country": "DE", "coord": {"lon": 6.81667, "lat": 49.716702}}, {"id": 6554729, "name": "Fell", "state": "", "country": "DE", "coord": {"lon": 6.78333, "lat": 49.766701}}, {"id": 6554730, "name": "Fisch", "state": "", "country": "DE", "coord": {"lon": 6.48333, "lat": 49.616699}}, {"id": 6554731, "name": "F\u00f6hren", "state": "", "country": "DE", "coord": {"lon": 6.76667, "lat": 49.849998}}, {"id": 6554732, "name": "Franzenheim", "state": "", "country": "DE", "coord": {"lon": 6.6863, "lat": 49.684399}}, {"id": 6554733, "name": "Freudenburg", "state": "", "country": "DE", "coord": {"lon": 6.53333, "lat": 49.549999}}, {"id": 6554734, "name": "Geisfeld", "state": "", "country": "DE", "coord": {"lon": 6.95, "lat": 49.716702}}, {"id": 6554735, "name": "Grimburg", "state": "", "country": "DE", "coord": {"lon": 6.88333, "lat": 49.616699}}, {"id": 6554736, "name": "Gusenburg", "state": "", "country": "DE", "coord": {"lon": 6.9, "lat": 49.633301}}, {"id": 6554738, "name": "Gutweiler", "state": "", "country": "DE", "coord": {"lon": 6.73333, "lat": 49.716702}}, {"id": 6554739, "name": "Heddert", "state": "", "country": "DE", "coord": {"lon": 6.75, "lat": 49.650002}}, {"id": 6554740, "name": "Hentern", "state": "", "country": "DE", "coord": {"lon": 6.7, "lat": 49.616699}}, {"id": 6554741, "name": "Herl", "state": "", "country": "DE", "coord": {"lon": 6.81667, "lat": 49.733299}}, {"id": 6554742, "name": "Hinzenburg", "state": "", "country": "DE", "coord": {"lon": 6.73333, "lat": 49.666698}}, {"id": 6554743, "name": "Hinzert-P\u00f6lert", "state": "", "country": "DE", "coord": {"lon": 6.9, "lat": 49.700001}}, {"id": 6554744, "name": "Hockweiler", "state": "", "country": "DE", "coord": {"lon": 6.68333, "lat": 49.700001}}, {"id": 6554745, "name": "Holzerath", "state": "", "country": "DE", "coord": {"lon": 6.7611, "lat": 49.68026}}, {"id": 6554746, "name": "Igel", "state": "", "country": "DE", "coord": {"lon": 6.55, "lat": 49.716702}}, {"id": 6554747, "name": "Irsch", "state": "", "country": "DE", "coord": {"lon": 6.6, "lat": 49.599998}}, {"id": 6554748, "name": "Kanzem", "state": "", "country": "DE", "coord": {"lon": 6.56667, "lat": 49.666698}}, {"id": 6554749, "name": "Kasel", "state": "", "country": "DE", "coord": {"lon": 6.73333, "lat": 49.766701}}, {"id": 6554750, "name": "Kastel-Staadt", "state": "", "country": "DE", "coord": {"lon": 6.56667, "lat": 49.5667}}, {"id": 6554751, "name": "Kell am See", "state": "", "country": "DE", "coord": {"lon": 6.83333, "lat": 49.633301}}, {"id": 6554752, "name": "Kenn", "state": "", "country": "DE", "coord": {"lon": 6.71667, "lat": 49.799999}}, {"id": 6554753, "name": "Kirf", "state": "", "country": "DE", "coord": {"lon": 6.48333, "lat": 49.549999}}, {"id": 6554754, "name": "Kl\u00fcsserath", "state": "", "country": "DE", "coord": {"lon": 6.85, "lat": 49.833302}}, {"id": 6554755, "name": "K\u00f6werich", "state": "", "country": "DE", "coord": {"lon": 6.88333, "lat": 49.833302}}, {"id": 6554756, "name": "Kordel", "state": "", "country": "DE", "coord": {"lon": 6.63333, "lat": 49.833302}}, {"id": 6554758, "name": "Lampaden", "state": "", "country": "DE", "coord": {"lon": 6.7, "lat": 49.650002}}, {"id": 6554759, "name": "Langsur", "state": "", "country": "DE", "coord": {"lon": 6.5, "lat": 49.716702}}, {"id": 6554760, "name": "Leiwen", "state": "", "country": "DE", "coord": {"lon": 6.88333, "lat": 49.8167}}, {"id": 6554761, "name": "Longen", "state": "", "country": "DE", "coord": {"lon": 6.78333, "lat": 49.799999}}, {"id": 6554762, "name": "Longuich", "state": "", "country": "DE", "coord": {"lon": 6.78333, "lat": 49.799999}}, {"id": 6554763, "name": "Lorscheid", "state": "", "country": "DE", "coord": {"lon": 6.85, "lat": 49.733299}}, {"id": 6554764, "name": "Mandern", "state": "", "country": "DE", "coord": {"lon": 6.76667, "lat": 49.599998}}, {"id": 6554765, "name": "Mannebach", "state": "", "country": "DE", "coord": {"lon": 6.51667, "lat": 49.633301}}, {"id": 6554766, "name": "Mehring", "state": "", "country": "DE", "coord": {"lon": 6.8296, "lat": 49.7901}}, {"id": 6554767, "name": "Mertesdorf", "state": "", "country": "DE", "coord": {"lon": 6.73333, "lat": 49.766701}}, {"id": 6554768, "name": "Morscheid", "state": "", "country": "DE", "coord": {"lon": 6.75, "lat": 49.733299}}, {"id": 6554770, "name": "Neuh\u00fctten", "state": "", "country": "DE", "coord": {"lon": 7.01667, "lat": 49.633301}}, {"id": 6554772, "name": "Newel", "state": "", "country": "DE", "coord": {"lon": 6.58333, "lat": 49.8167}}, {"id": 6554773, "name": "Nittel", "state": "", "country": "DE", "coord": {"lon": 6.45, "lat": 49.650002}}, {"id": 6554774, "name": "Oberbillig", "state": "", "country": "DE", "coord": {"lon": 6.5, "lat": 49.716702}}, {"id": 6554775, "name": "Ockfen", "state": "", "country": "DE", "coord": {"lon": 6.58333, "lat": 49.616699}}, {"id": 6554776, "name": "Ollmuth", "state": "", "country": "DE", "coord": {"lon": 6.71667, "lat": 49.666698}}, {"id": 6554777, "name": "Onsdorf", "state": "", "country": "DE", "coord": {"lon": 6.48333, "lat": 49.650002}}, {"id": 6554778, "name": "Osburg", "state": "", "country": "DE", "coord": {"lon": 6.78333, "lat": 49.716702}}, {"id": 6554779, "name": "Palzem", "state": "", "country": "DE", "coord": {"lon": 6.36667, "lat": 49.5667}}, {"id": 6554780, "name": "Paschel", "state": "", "country": "DE", "coord": {"lon": 6.68333, "lat": 49.633301}}, {"id": 6554783, "name": "P\u00f6lich", "state": "", "country": "DE", "coord": {"lon": 6.85, "lat": 49.799999}}, {"id": 6554784, "name": "Ralingen", "state": "", "country": "DE", "coord": {"lon": 6.5, "lat": 49.8167}}, {"id": 6554785, "name": "Rascheid", "state": "", "country": "DE", "coord": {"lon": 6.93333, "lat": 49.716702}}, {"id": 6554786, "name": "Reinsfeld", "state": "", "country": "DE", "coord": {"lon": 6.8849, "lat": 49.683601}}, {"id": 6554787, "name": "Riol", "state": "", "country": "DE", "coord": {"lon": 6.78333, "lat": 49.799999}}, {"id": 6554788, "name": "Riveris", "state": "", "country": "DE", "coord": {"lon": 6.76667, "lat": 49.716702}}, {"id": 6554789, "name": "Schillingen", "state": "", "country": "DE", "coord": {"lon": 6.78333, "lat": 49.633301}}, {"id": 6554790, "name": "Schleich", "state": "", "country": "DE", "coord": {"lon": 6.83333, "lat": 49.8167}}, {"id": 6554791, "name": "Schoden", "state": "", "country": "DE", "coord": {"lon": 6.58333, "lat": 49.633301}}, {"id": 6554792, "name": "Sch\u00f6merich", "state": "", "country": "DE", "coord": {"lon": 6.7, "lat": 49.633301}}, {"id": 6554794, "name": "Serrig", "state": "", "country": "DE", "coord": {"lon": 6.57497, "lat": 49.57505}}, {"id": 6554795, "name": "Sommerau", "state": "", "country": "DE", "coord": {"lon": 6.73333, "lat": 49.716702}}, {"id": 6554796, "name": "Taben-Rodt", "state": "", "country": "DE", "coord": {"lon": 6.58333, "lat": 49.549999}}, {"id": 6554797, "name": "Tawern", "state": "", "country": "DE", "coord": {"lon": 6.51667, "lat": 49.666698}}, {"id": 6554798, "name": "Temmels", "state": "", "country": "DE", "coord": {"lon": 6.46667, "lat": 49.6833}}, {"id": 6554799, "name": "Th\u00f6rnich", "state": "", "country": "DE", "coord": {"lon": 6.83333, "lat": 49.833302}}, {"id": 6554800, "name": "Thomm", "state": "", "country": "DE", "coord": {"lon": 6.8, "lat": 49.733299}}, {"id": 6554801, "name": "Trassem", "state": "", "country": "DE", "coord": {"lon": 6.51667, "lat": 49.5667}}, {"id": 6554802, "name": "Trierweiler", "state": "", "country": "DE", "coord": {"lon": 6.56667, "lat": 49.766701}}, {"id": 6554803, "name": "Waldrach", "state": "", "country": "DE", "coord": {"lon": 6.75, "lat": 49.75}}, {"id": 6554804, "name": "Waldweiler", "state": "", "country": "DE", "coord": {"lon": 6.8, "lat": 49.616699}}, {"id": 6554805, "name": "Wasserliesch", "state": "", "country": "DE", "coord": {"lon": 6.55, "lat": 49.716702}}, {"id": 6554806, "name": "Wellen", "state": "", "country": "DE", "coord": {"lon": 6.43333, "lat": 49.666698}}, {"id": 6554807, "name": "Wiltingen", "state": "", "country": "DE", "coord": {"lon": 6.6, "lat": 49.666698}}, {"id": 6554808, "name": "Wincheringen", "state": "", "country": "DE", "coord": {"lon": 6.43333, "lat": 49.616699}}, {"id": 6554809, "name": "Zemmer", "state": "", "country": "DE", "coord": {"lon": 6.7, "lat": 49.900002}}, {"id": 6554810, "name": "Zerf", "state": "", "country": "DE", "coord": {"lon": 6.68333, "lat": 49.599998}}, {"id": 6554811, "name": "Z\u00fcsch", "state": "", "country": "DE", "coord": {"lon": 7.0, "lat": 49.650002}}, {"id": 6554812, "name": "Merzkirchen", "state": "", "country": "DE", "coord": {"lon": 6.48333, "lat": 49.583302}}, {"id": 6554813, "name": "Welschbillig", "state": "", "country": "DE", "coord": {"lon": 6.565, "lat": 49.8601}}, {"id": 6554824, "name": "Albig", "state": "", "country": "DE", "coord": {"lon": 8.12139, "lat": 49.773602}}, {"id": 6554825, "name": "Alsheim", "state": "", "country": "DE", "coord": {"lon": 8.34028, "lat": 49.768101}}, {"id": 6554826, "name": "Armsheim", "state": "", "country": "DE", "coord": {"lon": 8.05667, "lat": 49.8097}}, {"id": 6554827, "name": "Bechenheim", "state": "", "country": "DE", "coord": {"lon": 8.00333, "lat": 49.7286}}, {"id": 6554828, "name": "Bechtheim", "state": "", "country": "DE", "coord": {"lon": 8.29222, "lat": 49.727798}}, {"id": 6554829, "name": "Bechtolsheim", "state": "", "country": "DE", "coord": {"lon": 8.19389, "lat": 49.804199}}, {"id": 6554831, "name": "Bermersheim", "state": "", "country": "DE", "coord": {"lon": 8.22361, "lat": 49.6819}}, {"id": 6554832, "name": "Biebelnheim", "state": "", "country": "DE", "coord": {"lon": 8.17056, "lat": 49.7967}}, {"id": 6554833, "name": "Hochborn", "state": "", "country": "DE", "coord": {"lon": 8.20083, "lat": 49.7239}}, {"id": 6554834, "name": "Bornheim", "state": "", "country": "DE", "coord": {"lon": 8.06028, "lat": 49.7831}}, {"id": 6554835, "name": "Dintesheim", "state": "", "country": "DE", "coord": {"lon": 8.14333, "lat": 49.7075}}, {"id": 6554836, "name": "Dittelsheim-He\u00dfloch", "state": "", "country": "DE", "coord": {"lon": 8.23694, "lat": 49.7439}}, {"id": 6554837, "name": "Eckelsheim", "state": "", "country": "DE", "coord": {"lon": 7.98333, "lat": 49.799999}}, {"id": 6554838, "name": "Eich", "state": "", "country": "DE", "coord": {"lon": 8.39889, "lat": 49.75}}, {"id": 6554839, "name": "Ensheim", "state": "", "country": "DE", "coord": {"lon": 8.11556, "lat": 49.8064}}, {"id": 6554840, "name": "Eppelsheim", "state": "", "country": "DE", "coord": {"lon": 8.16528, "lat": 49.705601}}, {"id": 6554841, "name": "Erbes-B\u00fcdesheim", "state": "", "country": "DE", "coord": {"lon": 8.03139, "lat": 49.754398}}, {"id": 6554842, "name": "Esselborn", "state": "", "country": "DE", "coord": {"lon": 8.11861, "lat": 49.715302}}, {"id": 6554844, "name": "Flomborn", "state": "", "country": "DE", "coord": {"lon": 8.14917, "lat": 49.690601}}, {"id": 6554845, "name": "Flonheim", "state": "", "country": "DE", "coord": {"lon": 8.04, "lat": 49.785}}, {"id": 6554846, "name": "Framersheim", "state": "", "country": "DE", "coord": {"lon": 8.17417, "lat": 49.758099}}, {"id": 6554847, "name": "Freimersheim", "state": "", "country": "DE", "coord": {"lon": 8.08917, "lat": 49.708302}}, {"id": 6554848, "name": "Frettenheim", "state": "", "country": "DE", "coord": {"lon": 8.24472, "lat": 49.759701}}, {"id": 6554849, "name": "Gabsheim", "state": "", "country": "DE", "coord": {"lon": 8.17611, "lat": 49.827801}}, {"id": 6554850, "name": "Gau-Bickelheim", "state": "", "country": "DE", "coord": {"lon": 8.02056, "lat": 49.8353}}, {"id": 6554851, "name": "Gau-Heppenheim", "state": "", "country": "DE", "coord": {"lon": 8.17333, "lat": 49.742199}}, {"id": 6554852, "name": "Gau-Odernheim", "state": "", "country": "DE", "coord": {"lon": 8.19417, "lat": 49.784698}}, {"id": 6554853, "name": "Gau-Weinheim", "state": "", "country": "DE", "coord": {"lon": 8.04778, "lat": 49.846401}}, {"id": 6554854, "name": "Gumbsheim", "state": "", "country": "DE", "coord": {"lon": 7.98333, "lat": 49.8167}}, {"id": 6554855, "name": "Gundersheim", "state": "", "country": "DE", "coord": {"lon": 8.2025, "lat": 49.696098}}, {"id": 6554856, "name": "Gundheim", "state": "", "country": "DE", "coord": {"lon": 8.23778, "lat": 49.6758}}, {"id": 6554857, "name": "Hangen-Weisheim", "state": "", "country": "DE", "coord": {"lon": 8.18361, "lat": 49.7103}}, {"id": 6554858, "name": "Hohen-S\u00fclzen", "state": "", "country": "DE", "coord": {"lon": 8.22556, "lat": 49.619202}}, {"id": 6554859, "name": "Kettenheim", "state": "", "country": "DE", "coord": {"lon": 8.11333, "lat": 49.721699}}, {"id": 6554860, "name": "Lonsheim", "state": "", "country": "DE", "coord": {"lon": 8.07667, "lat": 49.778599}}, {"id": 6554861, "name": "Mauchenheim", "state": "", "country": "DE", "coord": {"lon": 8.04611, "lat": 49.718102}}, {"id": 6554862, "name": "Mettenheim", "state": "", "country": "DE", "coord": {"lon": 8.32583, "lat": 49.740002}}, {"id": 6554863, "name": "M\u00f6lsheim", "state": "", "country": "DE", "coord": {"lon": 8.16944, "lat": 49.646702}}, {"id": 6554864, "name": "M\u00f6rstadt", "state": "", "country": "DE", "coord": {"lon": 8.25472, "lat": 49.6619}}, {"id": 6554865, "name": "Monsheim", "state": "", "country": "DE", "coord": {"lon": 8.211, "lat": 49.635899}}, {"id": 6554866, "name": "Monzernheim", "state": "", "country": "DE", "coord": {"lon": 8.22833, "lat": 49.721401}}, {"id": 6554867, "name": "Nack", "state": "", "country": "DE", "coord": {"lon": 8.00278, "lat": 49.746399}}, {"id": 6554868, "name": "Nieder-Wiesen", "state": "", "country": "DE", "coord": {"lon": 7.98333, "lat": 49.733299}}, {"id": 6554869, "name": "Ober-Fl\u00f6rsheim", "state": "", "country": "DE", "coord": {"lon": 8.15528, "lat": 49.683102}}, {"id": 6554870, "name": "Offenheim", "state": "", "country": "DE", "coord": {"lon": 8.03028, "lat": 49.725601}}, {"id": 6554871, "name": "Partenheim", "state": "", "country": "DE", "coord": {"lon": 8.08222, "lat": 49.8839}}, {"id": 6554872, "name": "Schornsheim", "state": "", "country": "DE", "coord": {"lon": 8.1315, "lat": 49.826099}}, {"id": 6554873, "name": "Siefersheim", "state": "", "country": "DE", "coord": {"lon": 7.95, "lat": 49.799999}}, {"id": 6554874, "name": "Spiesheim", "state": "", "country": "DE", "coord": {"lon": 8.1275, "lat": 49.810299}}, {"id": 6554875, "name": "Stein-Bockenheim", "state": "", "country": "DE", "coord": {"lon": 7.96667, "lat": 49.766701}}, {"id": 6554876, "name": "Sulzheim", "state": "", "country": "DE", "coord": {"lon": 8.09167, "lat": 49.843102}}, {"id": 6554877, "name": "Udenheim", "state": "", "country": "DE", "coord": {"lon": 8.17167, "lat": 49.8647}}, {"id": 6554878, "name": "Vendersheim", "state": "", "country": "DE", "coord": {"lon": 8.06861, "lat": 49.866402}}, {"id": 6554879, "name": "Wachenheim", "state": "", "country": "DE", "coord": {"lon": 8.2282, "lat": 49.607601}}, {"id": 6554880, "name": "Wahlheim", "state": "", "country": "DE", "coord": {"lon": 8.10611, "lat": 49.7178}}, {"id": 6554881, "name": "Wallertheim", "state": "", "country": "DE", "coord": {"lon": 8.05139, "lat": 49.835602}}, {"id": 6554882, "name": "Wendelsheim", "state": "", "country": "DE", "coord": {"lon": 8.0, "lat": 49.766701}}, {"id": 6554883, "name": "Westhofen", "state": "", "country": "DE", "coord": {"lon": 8.24806, "lat": 49.704399}}, {"id": 6554884, "name": "W\u00f6llstein", "state": "", "country": "DE", "coord": {"lon": 7.96667, "lat": 49.8167}}, {"id": 6554885, "name": "W\u00f6rrstadt", "state": "", "country": "DE", "coord": {"lon": 8.1118, "lat": 49.847252}}, {"id": 6554886, "name": "Wonsheim", "state": "", "country": "DE", "coord": {"lon": 7.96667, "lat": 49.783298}}, {"id": 6554887, "name": "Altleiningen", "state": "", "country": "DE", "coord": {"lon": 8.07333, "lat": 49.5075}}, {"id": 6554889, "name": "Bissersheim", "state": "", "country": "DE", "coord": {"lon": 8.20417, "lat": 49.535801}}, {"id": 6554890, "name": "Bobenheim am Berg", "state": "", "country": "DE", "coord": {"lon": 8.15111, "lat": 49.5242}}, {"id": 6554891, "name": "Carlsberg", "state": "", "country": "DE", "coord": {"lon": 8.04167, "lat": 49.503899}}, {"id": 6554892, "name": "Dackenheim", "state": "", "country": "DE", "coord": {"lon": 8.18722, "lat": 49.521099}}, {"id": 6554893, "name": "Dirmstein", "state": "", "country": "DE", "coord": {"lon": 8.2598, "lat": 49.564899}}, {"id": 6554894, "name": "Ebertsheim", "state": "", "country": "DE", "coord": {"lon": 8.10861, "lat": 49.568298}}, {"id": 6554895, "name": "Ellerstadt", "state": "", "country": "DE", "coord": {"lon": 8.25944, "lat": 49.4617}}, {"id": 6554896, "name": "Elmstein", "state": "", "country": "DE", "coord": {"lon": 7.93333, "lat": 49.366699}}, {"id": 6554897, "name": "Erpolzheim", "state": "", "country": "DE", "coord": {"lon": 8.22472, "lat": 49.489201}}, {"id": 6554898, "name": "Esthal", "state": "", "country": "DE", "coord": {"lon": 7.98333, "lat": 49.383301}}, {"id": 6554900, "name": "Frankeneck", "state": "", "country": "DE", "coord": {"lon": 8.04861, "lat": 49.3764}}, {"id": 6554901, "name": "Friedelsheim", "state": "", "country": "DE", "coord": {"lon": 8.22306, "lat": 49.446899}}, {"id": 6554902, "name": "Gerolsheim", "state": "", "country": "DE", "coord": {"lon": 8.26389, "lat": 49.547798}}, {"id": 6554903, "name": "G\u00f6nnheim", "state": "", "country": "DE", "coord": {"lon": 8.23861, "lat": 49.448101}}, {"id": 6554904, "name": "Gro\u00dfkarlbach", "state": "", "country": "DE", "coord": {"lon": 8.22472, "lat": 49.5383}}, {"id": 6554905, "name": "Ha\u00dfloch", "state": "", "country": "DE", "coord": {"lon": 8.25705, "lat": 49.359699}}, {"id": 6554906, "name": "Herxheim am Berg", "state": "", "country": "DE", "coord": {"lon": 8.17917, "lat": 49.509201}}, {"id": 6554907, "name": "Hettenleidelheim", "state": "", "country": "DE", "coord": {"lon": 8.07361, "lat": 49.535599}}, {"id": 6554908, "name": "Kallstadt", "state": "", "country": "DE", "coord": {"lon": 8.17611, "lat": 49.490799}}, {"id": 6554909, "name": "Kindenheim", "state": "", "country": "DE", "coord": {"lon": 8.16417, "lat": 49.611099}}, {"id": 6554910, "name": "Kirchheim an der Weinstra\u00dfe", "state": "", "country": "DE", "coord": {"lon": 8.196, "lat": 49.5355}}, {"id": 6554911, "name": "Kleinkarlbach", "state": "", "country": "DE", "coord": {"lon": 8.14972, "lat": 49.538601}}, {"id": 6554912, "name": "Laumersheim", "state": "", "country": "DE", "coord": {"lon": 8.23333, "lat": 49.549999}}, {"id": 6554913, "name": "Lindenberg", "state": "", "country": "DE", "coord": {"lon": 8.09861, "lat": 49.380299}}, {"id": 6554914, "name": "Meckenheim", "state": "", "country": "DE", "coord": {"lon": 8.23917, "lat": 49.4044}}, {"id": 6554915, "name": "Mertesheim", "state": "", "country": "DE", "coord": {"lon": 8.13556, "lat": 49.571701}}, {"id": 6554916, "name": "Neidenfels", "state": "", "country": "DE", "coord": {"lon": 8.04639, "lat": 49.388901}}, {"id": 6554917, "name": "Neuleiningen", "state": "", "country": "DE", "coord": {"lon": 8.13889, "lat": 49.541698}}, {"id": 6554918, "name": "Niederkirchen bei Deidesheim", "state": "", "country": "DE", "coord": {"lon": 8.21, "lat": 49.415001}}, {"id": 6554919, "name": "Obers\u00fclzen", "state": "", "country": "DE", "coord": {"lon": 8.21139, "lat": 49.568298}}, {"id": 6554920, "name": "Quirnheim", "state": "", "country": "DE", "coord": {"lon": 8.12639, "lat": 49.5844}}, {"id": 6554921, "name": "Ruppertsberg", "state": "", "country": "DE", "coord": {"lon": 8.19611, "lat": 49.400299}}, {"id": 6554922, "name": "Tiefenthal", "state": "", "country": "DE", "coord": {"lon": 8.10389, "lat": 49.538601}}, {"id": 6554923, "name": "Wattenheim", "state": "", "country": "DE", "coord": {"lon": 8.0614, "lat": 49.519798}}, {"id": 6554924, "name": "Weidenthal", "state": "", "country": "DE", "coord": {"lon": 8.0, "lat": 49.416698}}, {"id": 6554925, "name": "Weisenheim am Berg", "state": "", "country": "DE", "coord": {"lon": 8.15389, "lat": 49.5131}}, {"id": 6554926, "name": "Weisenheim am Sand", "state": "", "country": "DE", "coord": {"lon": 8.24778, "lat": 49.518101}}, {"id": 6554928, "name": "Alsenz", "state": "", "country": "DE", "coord": {"lon": 7.81667, "lat": 49.716702}}, {"id": 6554929, "name": "Bayerfeld-Steckweiler", "state": "", "country": "DE", "coord": {"lon": 7.8, "lat": 49.6833}}, {"id": 6554930, "name": "Bennhausen", "state": "", "country": "DE", "coord": {"lon": 7.98333, "lat": 49.616699}}, {"id": 6554931, "name": "Biedesheim", "state": "", "country": "DE", "coord": {"lon": 8.10722, "lat": 49.605}}, {"id": 6554932, "name": "Bischheim", "state": "", "country": "DE", "coord": {"lon": 8.0325, "lat": 49.669998}}, {"id": 6554933, "name": "Bisterschied", "state": "", "country": "DE", "coord": {"lon": 7.75, "lat": 49.650002}}, {"id": 6554934, "name": "B\u00f6rrstadt", "state": "", "country": "DE", "coord": {"lon": 7.95, "lat": 49.583302}}, {"id": 6554935, "name": "Bolanden", "state": "", "country": "DE", "coord": {"lon": 8.01194, "lat": 49.639198}}, {"id": 6554936, "name": "Breunigweiler", "state": "", "country": "DE", "coord": {"lon": 7.96667, "lat": 49.5667}}, {"id": 6554937, "name": "Bubenheim", "state": "", "country": "DE", "coord": {"lon": 8.11778, "lat": 49.628101}}, {"id": 6554938, "name": "Dannenfels", "state": "", "country": "DE", "coord": {"lon": 7.95, "lat": 49.633301}}, {"id": 6554939, "name": "Dielkirchen", "state": "", "country": "DE", "coord": {"lon": 7.81667, "lat": 49.666698}}, {"id": 6554940, "name": "D\u00f6rrmoschel", "state": "", "country": "DE", "coord": {"lon": 7.75, "lat": 49.616699}}, {"id": 6554941, "name": "Dreisen", "state": "", "country": "DE", "coord": {"lon": 8.01056, "lat": 49.603298}}, {"id": 6554942, "name": "Einselthum", "state": "", "country": "DE", "coord": {"lon": 8.12472, "lat": 49.651699}}, {"id": 6554943, "name": "Falkenstein", "state": "", "country": "DE", "coord": {"lon": 7.88333, "lat": 49.599998}}, {"id": 6554944, "name": "Finkenbach-Gersweiler", "state": "", "country": "DE", "coord": {"lon": 7.75, "lat": 49.6833}}, {"id": 6554945, "name": "Gauersheim", "state": "", "country": "DE", "coord": {"lon": 8.07194, "lat": 49.659698}}, {"id": 6554946, "name": "Gaugrehweiler", "state": "", "country": "DE", "coord": {"lon": 7.86667, "lat": 49.700001}}, {"id": 6554947, "name": "Gehrweiler", "state": "", "country": "DE", "coord": {"lon": 7.76667, "lat": 49.583302}}, {"id": 6554948, "name": "Gerbach", "state": "", "country": "DE", "coord": {"lon": 7.86667, "lat": 49.666698}}, {"id": 6554949, "name": "G\u00f6llheim", "state": "", "country": "DE", "coord": {"lon": 8.05083, "lat": 49.595001}}, {"id": 6554950, "name": "Gonbach", "state": "", "country": "DE", "coord": {"lon": 7.9, "lat": 49.549999}}, {"id": 6554951, "name": "Gundersweiler", "state": "", "country": "DE", "coord": {"lon": 7.78333, "lat": 49.599998}}, {"id": 6554952, "name": "H\u00f6ringen", "state": "", "country": "DE", "coord": {"lon": 7.8, "lat": 49.549999}}, {"id": 6554953, "name": "Ilbesheim", "state": "", "country": "DE", "coord": {"lon": 8.07528, "lat": 49.689999}}, {"id": 6554954, "name": "Immesheim", "state": "", "country": "DE", "coord": {"lon": 8.10528, "lat": 49.636398}}, {"id": 6554955, "name": "Imsbach", "state": "", "country": "DE", "coord": {"lon": 7.88333, "lat": 49.583302}}, {"id": 6554956, "name": "Imsweiler", "state": "", "country": "DE", "coord": {"lon": 7.8, "lat": 49.599998}}, {"id": 6554957, "name": "Jakobsweiler", "state": "", "country": "DE", "coord": {"lon": 7.95, "lat": 49.616699}}, {"id": 6554958, "name": "Kalkofen", "state": "", "country": "DE", "coord": {"lon": 7.83333, "lat": 49.733299}}, {"id": 6554959, "name": "Katzenbach", "state": "", "country": "DE", "coord": {"lon": 7.81667, "lat": 49.650002}}, {"id": 6554960, "name": "Kerzenheim", "state": "", "country": "DE", "coord": {"lon": 8.05972, "lat": 49.576401}}, {"id": 6554961, "name": "Kriegsfeld", "state": "", "country": "DE", "coord": {"lon": 7.91667, "lat": 49.716702}}, {"id": 6554962, "name": "Lautersheim", "state": "", "country": "DE", "coord": {"lon": 8.09833, "lat": 49.5872}}, {"id": 6554963, "name": "Lohnsfeld", "state": "", "country": "DE", "coord": {"lon": 7.85, "lat": 49.549999}}, {"id": 6554964, "name": "Mannweiler-C\u00f6lln", "state": "", "country": "DE", "coord": {"lon": 7.78333, "lat": 49.6833}}, {"id": 6554965, "name": "Marnheim", "state": "", "country": "DE", "coord": {"lon": 8.04, "lat": 49.632801}}, {"id": 6554966, "name": "M\u00f6rsfeld", "state": "", "country": "DE", "coord": {"lon": 7.93333, "lat": 49.75}}, {"id": 6554967, "name": "Morschheim", "state": "", "country": "DE", "coord": {"lon": 8.02611, "lat": 49.696701}}, {"id": 6554968, "name": "M\u00fcnchweiler an der Alsenz", "state": "", "country": "DE", "coord": {"lon": 7.88333, "lat": 49.549999}}, {"id": 6554969, "name": "M\u00fcnsterappel", "state": "", "country": "DE", "coord": {"lon": 7.88333, "lat": 49.733299}}, {"id": 6554970, "name": "Niederhausen an der Appel", "state": "", "country": "DE", "coord": {"lon": 7.9, "lat": 49.75}}, {"id": 6554971, "name": "Niedermoschel", "state": "", "country": "DE", "coord": {"lon": 7.8, "lat": 49.733299}}, {"id": 6554972, "name": "Oberhausen an der Appel", "state": "", "country": "DE", "coord": {"lon": 7.86667, "lat": 49.716702}}, {"id": 6554973, "name": "Oberndorf", "state": "", "country": "DE", "coord": {"lon": 7.81667, "lat": 49.716702}}, {"id": 6554974, "name": "Oberwiesen", "state": "", "country": "DE", "coord": {"lon": 7.96667, "lat": 49.700001}}, {"id": 6554975, "name": "Orbis", "state": "", "country": "DE", "coord": {"lon": 8.0, "lat": 49.700001}}, {"id": 6554976, "name": "Ottersheim", "state": "", "country": "DE", "coord": {"lon": 8.10861, "lat": 49.625599}}, {"id": 6554977, "name": "Ramsen", "state": "", "country": "DE", "coord": {"lon": 8.01333, "lat": 49.5369}}, {"id": 6554978, "name": "Ransweiler", "state": "", "country": "DE", "coord": {"lon": 7.76667, "lat": 49.666698}}, {"id": 6554979, "name": "Rittersheim", "state": "", "country": "DE", "coord": {"lon": 8.05833, "lat": 49.6647}}, {"id": 6554980, "name": "R\u00fcssingen", "state": "", "country": "DE", "coord": {"lon": 8.08833, "lat": 49.615799}}, {"id": 6554981, "name": "Ruppertsecken", "state": "", "country": "DE", "coord": {"lon": 7.88333, "lat": 49.650002}}, {"id": 6554982, "name": "Sankt Alban", "state": "", "country": "DE", "coord": {"lon": 7.86667, "lat": 49.6833}}, {"id": 6554983, "name": "Sch\u00f6nborn", "state": "", "country": "DE", "coord": {"lon": 7.76667, "lat": 49.633301}}, {"id": 6554984, "name": "Schweisweiler", "state": "", "country": "DE", "coord": {"lon": 7.81667, "lat": 49.583302}}, {"id": 6554985, "name": "Sippersfeld", "state": "", "country": "DE", "coord": {"lon": 7.93333, "lat": 49.549999}}, {"id": 6554986, "name": "Sitters", "state": "", "country": "DE", "coord": {"lon": 7.78333, "lat": 49.716702}}, {"id": 6554987, "name": "Stahlberg", "state": "", "country": "DE", "coord": {"lon": 7.78333, "lat": 49.666698}}, {"id": 6554988, "name": "Standenb\u00fchl", "state": "", "country": "DE", "coord": {"lon": 8.002, "lat": 49.595798}}, {"id": 6554989, "name": "Steinbach am Donnersberg", "state": "", "country": "DE", "coord": {"lon": 7.95, "lat": 49.599998}}, {"id": 6554990, "name": "Stetten", "state": "", "country": "DE", "coord": {"lon": 8.09194, "lat": 49.669399}}, {"id": 6554991, "name": "Teschenmoschel", "state": "", "country": "DE", "coord": {"lon": 7.73333, "lat": 49.633301}}, {"id": 6554992, "name": "Unkenbach", "state": "", "country": "DE", "coord": {"lon": 7.75, "lat": 49.716702}}, {"id": 6554993, "name": "Waldgrehweiler", "state": "", "country": "DE", "coord": {"lon": 7.73333, "lat": 49.666698}}, {"id": 6554994, "name": "Wartenberg-Rohrbach", "state": "", "country": "DE", "coord": {"lon": 7.85, "lat": 49.533298}}, {"id": 6554995, "name": "Weitersweiler", "state": "", "country": "DE", "coord": {"lon": 8.0, "lat": 49.616699}}, {"id": 6554996, "name": "Winterborn", "state": "", "country": "DE", "coord": {"lon": 7.86667, "lat": 49.75}}, {"id": 6554997, "name": "W\u00fcrzweiler", "state": "", "country": "DE", "coord": {"lon": 7.86667, "lat": 49.650002}}, {"id": 6554998, "name": "Rathskirchen", "state": "", "country": "DE", "coord": {"lon": 7.71667, "lat": 49.616699}}, {"id": 6554999, "name": "Reichsthal", "state": "", "country": "DE", "coord": {"lon": 7.73333, "lat": 49.599998}}, {"id": 6555000, "name": "Seelen", "state": "", "country": "DE", "coord": {"lon": 7.71667, "lat": 49.599998}}, {"id": 6555001, "name": "Winnweiler", "state": "", "country": "DE", "coord": {"lon": 7.85, "lat": 49.5667}}, {"id": 6555002, "name": "Bellheim", "state": "", "country": "DE", "coord": {"lon": 8.27944, "lat": 49.198299}}, {"id": 6555004, "name": "Freckenfeld", "state": "", "country": "DE", "coord": {"lon": 8.11389, "lat": 49.064999}}, {"id": 6555005, "name": "Freisbach", "state": "", "country": "DE", "coord": {"lon": 8.27194, "lat": 49.271702}}, {"id": 6555006, "name": "Hagenbach", "state": "", "country": "DE", "coord": {"lon": 8.2523, "lat": 49.022999}}, {"id": 6555007, "name": "Hatzenb\u00fchl", "state": "", "country": "DE", "coord": {"lon": 8.2448, "lat": 49.115601}}, {"id": 6555008, "name": "H\u00f6rdt", "state": "", "country": "DE", "coord": {"lon": 8.32639, "lat": 49.165798}}, {"id": 6555009, "name": "Jockgrim", "state": "", "country": "DE", "coord": {"lon": 8.26778, "lat": 49.0989}}, {"id": 6555010, "name": "Knittelsheim", "state": "", "country": "DE", "coord": {"lon": 8.25139, "lat": 49.1917}}, {"id": 6555011, "name": "Kuhardt", "state": "", "country": "DE", "coord": {"lon": 8.3295, "lat": 49.1483}}, {"id": 6555012, "name": "Leimersheim", "state": "", "country": "DE", "coord": {"lon": 8.35, "lat": 49.133301}}, {"id": 6555013, "name": "Lingenfeld", "state": "", "country": "DE", "coord": {"lon": 8.33861, "lat": 49.253899}}, {"id": 6555014, "name": "Lustadt", "state": "", "country": "DE", "coord": {"lon": 8.26944, "lat": 49.250801}}, {"id": 6555015, "name": "Minfeld", "state": "", "country": "DE", "coord": {"lon": 8.14528, "lat": 49.071701}}, {"id": 6555017, "name": "Neupotz", "state": "", "country": "DE", "coord": {"lon": 8.31944, "lat": 49.117802}}, {"id": 6555018, "name": "Rheinzabern", "state": "", "country": "DE", "coord": {"lon": 8.27806, "lat": 49.118099}}, {"id": 6555019, "name": "R\u00fclzheim", "state": "", "country": "DE", "coord": {"lon": 8.283, "lat": 49.155701}}, {"id": 6555020, "name": "Scheibenhardt", "state": "", "country": "DE", "coord": {"lon": 8.13333, "lat": 48.983299}}, {"id": 6555021, "name": "Schwegenheim", "state": "", "country": "DE", "coord": {"lon": 8.32, "lat": 49.2733}}, {"id": 6555022, "name": "Steinweiler", "state": "", "country": "DE", "coord": {"lon": 8.14139, "lat": 49.121101}}, {"id": 6555023, "name": "Vollmersweiler", "state": "", "country": "DE", "coord": {"lon": 8.07722, "lat": 49.064999}}, {"id": 6555024, "name": "Winden", "state": "", "country": "DE", "coord": {"lon": 8.11694, "lat": 49.097801}}, {"id": 6555025, "name": "Zeiskam", "state": "", "country": "DE", "coord": {"lon": 8.24722, "lat": 49.2328}}, {"id": 6555026, "name": "Bann", "state": "", "country": "DE", "coord": {"lon": 7.61667, "lat": 49.383301}}, {"id": 6555027, "name": "Bruchm\u00fchlbach-Miesau", "state": "", "country": "DE", "coord": {"lon": 7.43333, "lat": 49.383301}}, {"id": 6555028, "name": "Enkenbach-Alsenborn", "state": "", "country": "DE", "coord": {"lon": 7.9, "lat": 49.483299}}, {"id": 6555029, "name": "Erzenhausen", "state": "", "country": "DE", "coord": {"lon": 7.61667, "lat": 49.5}}, {"id": 6555030, "name": "Eulenbis", "state": "", "country": "DE", "coord": {"lon": 7.63333, "lat": 49.5}}, {"id": 6555031, "name": "Fischbach", "state": "", "country": "DE", "coord": {"lon": 7.91667, "lat": 49.450001}}, {"id": 6555032, "name": "Frankelbach", "state": "", "country": "DE", "coord": {"lon": 7.63333, "lat": 49.533298}}, {"id": 6555033, "name": "Frankenstein", "state": "", "country": "DE", "coord": {"lon": 7.98333, "lat": 49.4333}}, {"id": 6555034, "name": "Gerhardsbrunn", "state": "", "country": "DE", "coord": {"lon": 7.51667, "lat": 49.349998}}, {"id": 6555035, "name": "Hauptstuhl", "state": "", "country": "DE", "coord": {"lon": 7.48333, "lat": 49.400002}}, {"id": 6555036, "name": "Heiligenmoschel", "state": "", "country": "DE", "coord": {"lon": 7.76667, "lat": 49.549999}}, {"id": 6555038, "name": "Hochspeyer", "state": "", "country": "DE", "coord": {"lon": 7.9, "lat": 49.450001}}, {"id": 6555039, "name": "H\u00fctschenhausen", "state": "", "country": "DE", "coord": {"lon": 7.4948, "lat": 49.423801}}, {"id": 6555040, "name": "Katzweiler", "state": "", "country": "DE", "coord": {"lon": 7.7, "lat": 49.5}}, {"id": 6555041, "name": "Kindsbach", "state": "", "country": "DE", "coord": {"lon": 7.61667, "lat": 49.416698}}, {"id": 6555042, "name": "Kollweiler", "state": "", "country": "DE", "coord": {"lon": 7.58333, "lat": 49.516701}}, {"id": 6555043, "name": "Kottweiler-Schwanden", "state": "", "country": "DE", "coord": {"lon": 7.53333, "lat": 49.483299}}, {"id": 6555044, "name": "Krickenbach", "state": "", "country": "DE", "coord": {"lon": 7.66667, "lat": 49.366699}}, {"id": 6555045, "name": "Linden", "state": "", "country": "DE", "coord": {"lon": 7.65, "lat": 49.349998}}, {"id": 6555046, "name": "Mackenbach", "state": "", "country": "DE", "coord": {"lon": 7.58333, "lat": 49.466702}}, {"id": 6555047, "name": "Mehlbach", "state": "", "country": "DE", "coord": {"lon": 7.71667, "lat": 49.516701}}, {"id": 6555048, "name": "Mehlingen", "state": "", "country": "DE", "coord": {"lon": 7.85, "lat": 49.5}}, {"id": 6555049, "name": "Mittelbrunn", "state": "", "country": "DE", "coord": {"lon": 7.55, "lat": 49.366699}}, {"id": 6555050, "name": "Neuhemsbach", "state": "", "country": "DE", "coord": {"lon": 7.91667, "lat": 49.516701}}, {"id": 6555051, "name": "Niederkirchen", "state": "", "country": "DE", "coord": {"lon": 7.7, "lat": 49.583302}}, {"id": 6555052, "name": "Niedermohr", "state": "", "country": "DE", "coord": {"lon": 7.46667, "lat": 49.466702}}, {"id": 6555053, "name": "Oberarnbach", "state": "", "country": "DE", "coord": {"lon": 7.58333, "lat": 49.383301}}, {"id": 6555054, "name": "Olsbr\u00fccken", "state": "", "country": "DE", "coord": {"lon": 7.65, "lat": 49.533298}}, {"id": 6555055, "name": "Otterbach", "state": "", "country": "DE", "coord": {"lon": 7.7357, "lat": 49.478001}}, {"id": 6555056, "name": "Queidersbach", "state": "", "country": "DE", "coord": {"lon": 7.63333, "lat": 49.366699}}, {"id": 6555057, "name": "Rodenbach", "state": "", "country": "DE", "coord": {"lon": 7.65, "lat": 49.466702}}, {"id": 6555058, "name": "Schallodenbach", "state": "", "country": "DE", "coord": {"lon": 7.71667, "lat": 49.549999}}, {"id": 6555059, "name": "Schneckenhausen", "state": "", "country": "DE", "coord": {"lon": 7.75, "lat": 49.533298}}, {"id": 6555060, "name": "Schwedelbach", "state": "", "country": "DE", "coord": {"lon": 7.6, "lat": 49.5}}, {"id": 6555061, "name": "Steinwenden", "state": "", "country": "DE", "coord": {"lon": 7.53333, "lat": 49.450001}}, {"id": 6555062, "name": "Stelzenberg", "state": "", "country": "DE", "coord": {"lon": 7.73333, "lat": 49.383301}}, {"id": 6555063, "name": "Trippstadt", "state": "", "country": "DE", "coord": {"lon": 7.76667, "lat": 49.366699}}, {"id": 6555064, "name": "Waldleiningen", "state": "", "country": "DE", "coord": {"lon": 7.88333, "lat": 49.400002}}, {"id": 6555065, "name": "Weilerbach", "state": "", "country": "DE", "coord": {"lon": 7.63333, "lat": 49.483299}}, {"id": 6555066, "name": "Lambsborn", "state": "", "country": "DE", "coord": {"lon": 7.43333, "lat": 49.366699}}, {"id": 6555067, "name": "Langwieden", "state": "", "country": "DE", "coord": {"lon": 7.5, "lat": 49.383301}}, {"id": 6555068, "name": "Martinsh\u00f6he", "state": "", "country": "DE", "coord": {"lon": 7.48333, "lat": 49.366699}}, {"id": 6555069, "name": "Schopp", "state": "", "country": "DE", "coord": {"lon": 7.68333, "lat": 49.349998}}, {"id": 6555070, "name": "Sembach", "state": "", "country": "DE", "coord": {"lon": 7.85, "lat": 49.516701}}, {"id": 6555071, "name": "Reichenbach-Steegen", "state": "", "country": "DE", "coord": {"lon": 7.55, "lat": 49.5}}, {"id": 6555072, "name": "Adenbach", "state": "", "country": "DE", "coord": {"lon": 7.65, "lat": 49.666698}}, {"id": 6555073, "name": "Albessen", "state": "", "country": "DE", "coord": {"lon": 7.33333, "lat": 49.516701}}, {"id": 6555074, "name": "Altenglan", "state": "", "country": "DE", "coord": {"lon": 7.4533, "lat": 49.550999}}, {"id": 6555075, "name": "Altenkirchen", "state": "", "country": "DE", "coord": {"lon": 7.31667, "lat": 49.450001}}, {"id": 6555076, "name": "Aschbach", "state": "", "country": "DE", "coord": {"lon": 7.58333, "lat": 49.599998}}, {"id": 6555077, "name": "Blaubach", "state": "", "country": "DE", "coord": {"lon": 7.4, "lat": 49.5667}}, {"id": 6555078, "name": "B\u00f6rsborn", "state": "", "country": "DE", "coord": {"lon": 7.4, "lat": 49.4333}}, {"id": 6555079, "name": "Bosenbach", "state": "", "country": "DE", "coord": {"lon": 7.53333, "lat": 49.533298}}, {"id": 6555080, "name": "Breitenbach", "state": "", "country": "DE", "coord": {"lon": 7.26667, "lat": 49.4333}}, {"id": 6555081, "name": "Buborn", "state": "", "country": "DE", "coord": {"lon": 7.55, "lat": 49.633301}}, {"id": 6555082, "name": "Cronenberg", "state": "", "country": "DE", "coord": {"lon": 7.61667, "lat": 49.650002}}, {"id": 6555083, "name": "Deimberg", "state": "", "country": "DE", "coord": {"lon": 7.51667, "lat": 49.633301}}, {"id": 6555084, "name": "Dennweiler-Frohnbach", "state": "", "country": "DE", "coord": {"lon": 7.38333, "lat": 49.583302}}, {"id": 6555085, "name": "Dittweiler", "state": "", "country": "DE", "coord": {"lon": 7.33333, "lat": 49.4333}}, {"id": 6555086, "name": "Dunzweiler", "state": "", "country": "DE", "coord": {"lon": 7.3, "lat": 49.416698}}, {"id": 6555087, "name": "Ehweiler", "state": "", "country": "DE", "coord": {"lon": 7.36667, "lat": 49.516701}}, {"id": 6555088, "name": "Ein\u00f6llen", "state": "", "country": "DE", "coord": {"lon": 7.63333, "lat": 49.616699}}, {"id": 6555089, "name": "Elzweiler", "state": "", "country": "DE", "coord": {"lon": 7.51667, "lat": 49.583302}}, {"id": 6555090, "name": "Erdesbach", "state": "", "country": "DE", "coord": {"lon": 7.45, "lat": 49.5667}}, {"id": 6555091, "name": "E\u00dfweiler", "state": "", "country": "DE", "coord": {"lon": 7.56667, "lat": 49.549999}}, {"id": 6555092, "name": "Etschberg", "state": "", "country": "DE", "coord": {"lon": 7.43333, "lat": 49.516701}}, {"id": 6555093, "name": "F\u00f6ckelberg", "state": "", "country": "DE", "coord": {"lon": 7.48333, "lat": 49.533298}}, {"id": 6555094, "name": "Frohnhofen", "state": "", "country": "DE", "coord": {"lon": 7.3, "lat": 49.450001}}, {"id": 6555095, "name": "Ginsweiler", "state": "", "country": "DE", "coord": {"lon": 7.65, "lat": 49.650002}}, {"id": 6555097, "name": "Glan-M\u00fcnchweiler", "state": "", "country": "DE", "coord": {"lon": 7.43333, "lat": 49.466702}}, {"id": 6555098, "name": "Gries", "state": "", "country": "DE", "coord": {"lon": 7.4, "lat": 49.416698}}, {"id": 6555099, "name": "Grumbach", "state": "", "country": "DE", "coord": {"lon": 7.56667, "lat": 49.650002}}, {"id": 6555100, "name": "Haschbach am Remigiusberg", "state": "", "country": "DE", "coord": {"lon": 7.43333, "lat": 49.533298}}, {"id": 6555101, "name": "Hausweiler", "state": "", "country": "DE", "coord": {"lon": 7.56667, "lat": 49.650002}}, {"id": 6555102, "name": "Hefersweiler", "state": "", "country": "DE", "coord": {"lon": 7.68333, "lat": 49.599998}}, {"id": 6555103, "name": "Heinzenhausen", "state": "", "country": "DE", "coord": {"lon": 7.6, "lat": 49.633301}}, {"id": 6555104, "name": "Herchweiler", "state": "", "country": "DE", "coord": {"lon": 7.3, "lat": 49.516701}}, {"id": 6555105, "name": "Herren-Sulzbach", "state": "", "country": "DE", "coord": {"lon": 7.53333, "lat": 49.650002}}, {"id": 6555106, "name": "Herschweiler-Pettersheim", "state": "", "country": "DE", "coord": {"lon": 7.35, "lat": 49.483299}}, {"id": 6555107, "name": "Hinzweiler", "state": "", "country": "DE", "coord": {"lon": 7.55, "lat": 49.583302}}, {"id": 6555108, "name": "Hohen\u00f6llen", "state": "", "country": "DE", "coord": {"lon": 7.63333, "lat": 49.616699}}, {"id": 6555109, "name": "Homberg", "state": "", "country": "DE", "coord": {"lon": 7.51667, "lat": 49.650002}}, {"id": 6555110, "name": "Hoppst\u00e4dten", "state": "", "country": "DE", "coord": {"lon": 7.53333, "lat": 49.700001}}, {"id": 6555111, "name": "Horschbach", "state": "", "country": "DE", "coord": {"lon": 7.53333, "lat": 49.583302}}, {"id": 6555112, "name": "H\u00fcffler", "state": "", "country": "DE", "coord": {"lon": 7.38333, "lat": 49.5}}, {"id": 6555113, "name": "Jettenbach", "state": "", "country": "DE", "coord": {"lon": 7.55, "lat": 49.533298}}, {"id": 6555114, "name": "Kappeln", "state": "", "country": "DE", "coord": {"lon": 7.56667, "lat": 49.6833}}, {"id": 6555115, "name": "Kirrweiler", "state": "", "country": "DE", "coord": {"lon": 7.5, "lat": 49.633301}}, {"id": 6555116, "name": "K\u00f6rborn", "state": "", "country": "DE", "coord": {"lon": 7.36667, "lat": 49.5667}}, {"id": 6555117, "name": "Konken", "state": "", "country": "DE", "coord": {"lon": 7.3593, "lat": 49.510101}}, {"id": 6555118, "name": "Kreimbach-Kaulbach", "state": "", "country": "DE", "coord": {"lon": 7.63333, "lat": 49.549999}}, {"id": 6555119, "name": "Krottelbach", "state": "", "country": "DE", "coord": {"lon": 7.33333, "lat": 49.466702}}, {"id": 6555120, "name": "Langenbach", "state": "", "country": "DE", "coord": {"lon": 7.31667, "lat": 49.483299}}, {"id": 6555121, "name": "Langweiler", "state": "", "country": "DE", "coord": {"lon": 7.51667, "lat": 49.666698}}, {"id": 6555122, "name": "Lohnweiler", "state": "", "country": "DE", "coord": {"lon": 7.6, "lat": 49.633301}}, {"id": 6555123, "name": "Medard", "state": "", "country": "DE", "coord": {"lon": 7.61667, "lat": 49.666698}}, {"id": 6555124, "name": "Merzweiler", "state": "", "country": "DE", "coord": {"lon": 7.53333, "lat": 49.666698}}, {"id": 6555125, "name": "Nanzdietschweiler", "state": "", "country": "DE", "coord": {"lon": 7.45, "lat": 49.450001}}, {"id": 6555126, "name": "Nerzweiler", "state": "", "country": "DE", "coord": {"lon": 7.55, "lat": 49.599998}}, {"id": 6555127, "name": "Neunkirchen am Potzberg", "state": "", "country": "DE", "coord": {"lon": 7.48333, "lat": 49.5}}, {"id": 6555128, "name": "Niederalben", "state": "", "country": "DE", "coord": {"lon": 7.46667, "lat": 49.599998}}, {"id": 6555129, "name": "Niederstaufenbach", "state": "", "country": "DE", "coord": {"lon": 7.51667, "lat": 49.533298}}, {"id": 6555130, "name": "Nu\u00dfbach", "state": "", "country": "DE", "coord": {"lon": 7.7, "lat": 49.633301}}, {"id": 6555131, "name": "Oberalben", "state": "", "country": "DE", "coord": {"lon": 7.4, "lat": 49.583302}}, {"id": 6555132, "name": "Oberstaufenbach", "state": "", "country": "DE", "coord": {"lon": 7.51667, "lat": 49.516701}}, {"id": 6555133, "name": "Oberweiler im Tal", "state": "", "country": "DE", "coord": {"lon": 7.55, "lat": 49.583302}}, {"id": 6555134, "name": "Oberweiler-Tiefenbach", "state": "", "country": "DE", "coord": {"lon": 7.61667, "lat": 49.599998}}, {"id": 6555135, "name": "Odenbach", "state": "", "country": "DE", "coord": {"lon": 7.65, "lat": 49.6833}}, {"id": 6555136, "name": "Offenbach-Hundheim", "state": "", "country": "DE", "coord": {"lon": 7.55, "lat": 49.616699}}, {"id": 6555137, "name": "Ohmbach", "state": "", "country": "DE", "coord": {"lon": 7.35, "lat": 49.450001}}, {"id": 6555138, "name": "Pfeffelbach", "state": "", "country": "DE", "coord": {"lon": 7.33333, "lat": 49.533298}}, {"id": 6555139, "name": "Rammelsbach", "state": "", "country": "DE", "coord": {"lon": 7.45, "lat": 49.549999}}, {"id": 6555140, "name": "Rathsweiler", "state": "", "country": "DE", "coord": {"lon": 7.46667, "lat": 49.599998}}, {"id": 6555141, "name": "Rehweiler", "state": "", "country": "DE", "coord": {"lon": 7.43333, "lat": 49.483299}}, {"id": 6555142, "name": "Reichweiler", "state": "", "country": "DE", "coord": {"lon": 7.2899, "lat": 49.54195}}, {"id": 6555143, "name": "Reipoltskirchen", "state": "", "country": "DE", "coord": {"lon": 7.66667, "lat": 49.633301}}, {"id": 6555144, "name": "Rothselberg", "state": "", "country": "DE", "coord": {"lon": 7.6, "lat": 49.549999}}, {"id": 6555145, "name": "Ruthweiler", "state": "", "country": "DE", "coord": {"lon": 7.36667, "lat": 49.549999}}, {"id": 6555147, "name": "Rutsweiler an der Lauter", "state": "", "country": "DE", "coord": {"lon": 7.61667, "lat": 49.5667}}, {"id": 6555148, "name": "Schellweiler", "state": "", "country": "DE", "coord": {"lon": 7.4, "lat": 49.516701}}, {"id": 6555149, "name": "Sch\u00f6nenberg-K\u00fcbelberg", "state": "", "country": "DE", "coord": {"lon": 7.36667, "lat": 49.400002}}, {"id": 6555150, "name": "Selchenbach", "state": "", "country": "DE", "coord": {"lon": 7.3, "lat": 49.5}}, {"id": 6555152, "name": "Thallichtenberg", "state": "", "country": "DE", "coord": {"lon": 7.35, "lat": 49.5667}}, {"id": 6555154, "name": "Ulmet", "state": "", "country": "DE", "coord": {"lon": 7.45, "lat": 49.583302}}, {"id": 6555155, "name": "Unterjeckenbach", "state": "", "country": "DE", "coord": {"lon": 7.48333, "lat": 49.666698}}, {"id": 6555156, "name": "Wahnwegen", "state": "", "country": "DE", "coord": {"lon": 7.38333, "lat": 49.483299}}, {"id": 6555157, "name": "Waldmohr", "state": "", "country": "DE", "coord": {"lon": 7.3301, "lat": 49.381802}}, {"id": 6555158, "name": "Welchweiler", "state": "", "country": "DE", "coord": {"lon": 7.5, "lat": 49.583302}}, {"id": 6555159, "name": "Wiesweiler", "state": "", "country": "DE", "coord": {"lon": 7.56667, "lat": 49.633301}}, {"id": 6555160, "name": "Bedesbach", "state": "", "country": "DE", "coord": {"lon": 7.46667, "lat": 49.5667}}, {"id": 6555161, "name": "Matzenbach", "state": "", "country": "DE", "coord": {"lon": 7.46667, "lat": 49.5}}, {"id": 6555163, "name": "Albersweiler", "state": "", "country": "DE", "coord": {"lon": 8.03, "lat": 49.2192}}, {"id": 6555164, "name": "Altdorf", "state": "", "country": "DE", "coord": {"lon": 8.21611, "lat": 49.287201}}, {"id": 6555165, "name": "Barbelroth", "state": "", "country": "DE", "coord": {"lon": 8.06917, "lat": 49.0989}}, {"id": 6555166, "name": "Billigheim-Ingenheim", "state": "", "country": "DE", "coord": {"lon": 8.09056, "lat": 49.1367}}, {"id": 6555167, "name": "Birkenh\u00f6rdt", "state": "", "country": "DE", "coord": {"lon": 7.93333, "lat": 49.116699}}, {"id": 6555168, "name": "Birkweiler", "state": "", "country": "DE", "coord": {"lon": 8.03833, "lat": 49.2033}}, {"id": 6555169, "name": "B\u00f6bingen", "state": "", "country": "DE", "coord": {"lon": 8.23667, "lat": 49.284401}}, {"id": 6555170, "name": "B\u00f6chingen", "state": "", "country": "DE", "coord": {"lon": 8.09333, "lat": 49.2369}}, {"id": 6555171, "name": "B\u00f6llenborn", "state": "", "country": "DE", "coord": {"lon": 7.93333, "lat": 49.099998}}, {"id": 6555172, "name": "Bornheim", "state": "", "country": "DE", "coord": {"lon": 8.16333, "lat": 49.2225}}, {"id": 6555173, "name": "Burrweiler", "state": "", "country": "DE", "coord": {"lon": 8.07833, "lat": 49.247799}}, {"id": 6555174, "name": "Dernbach", "state": "", "country": "DE", "coord": {"lon": 8.00528, "lat": 49.2472}}, {"id": 6555175, "name": "Dierbach", "state": "", "country": "DE", "coord": {"lon": 8.06722, "lat": 49.080799}}, {"id": 6555176, "name": "D\u00f6rrenbach", "state": "", "country": "DE", "coord": {"lon": 7.96667, "lat": 49.083302}}, {"id": 6555177, "name": "Edesheim", "state": "", "country": "DE", "coord": {"lon": 8.135, "lat": 49.263302}}, {"id": 6555178, "name": "Eschbach", "state": "", "country": "DE", "coord": {"lon": 8.01917, "lat": 49.1744}}, {"id": 6555179, "name": "Essingen", "state": "", "country": "DE", "coord": {"lon": 8.17472, "lat": 49.235802}}, {"id": 6555180, "name": "Eu\u00dferthal", "state": "", "country": "DE", "coord": {"lon": 7.96667, "lat": 49.25}}, {"id": 6555181, "name": "Flemlingen", "state": "", "country": "DE", "coord": {"lon": 8.095, "lat": 49.242802}}, {"id": 6555182, "name": "Frankweiler", "state": "", "country": "DE", "coord": {"lon": 8.05806, "lat": 49.227798}}, {"id": 6555183, "name": "Gleisweiler", "state": "", "country": "DE", "coord": {"lon": 8.06944, "lat": 49.242199}}, {"id": 6555184, "name": "Gleiszellen-Gleishorbach", "state": "", "country": "DE", "coord": {"lon": 8.00583, "lat": 49.126099}}, {"id": 6555185, "name": "G\u00f6cklingen", "state": "", "country": "DE", "coord": {"lon": 8.04139, "lat": 49.1619}}, {"id": 6555186, "name": "Gommersheim", "state": "", "country": "DE", "coord": {"lon": 8.26583, "lat": 49.2911}}, {"id": 6555187, "name": "Gossersweiler-Stein", "state": "", "country": "DE", "coord": {"lon": 7.93333, "lat": 49.150002}}, {"id": 6555188, "name": "Gro\u00dffischlingen", "state": "", "country": "DE", "coord": {"lon": 8.17639, "lat": 49.268902}}, {"id": 6555189, "name": "Hainfeld", "state": "", "country": "DE", "coord": {"lon": 8.10111, "lat": 49.2575}}, {"id": 6555190, "name": "Hergersweiler", "state": "", "country": "DE", "coord": {"lon": 8.09167, "lat": 49.096401}}, {"id": 6555191, "name": "Herxheimweyher", "state": "", "country": "DE", "coord": {"lon": 8.255, "lat": 49.1525}}, {"id": 6555192, "name": "Heuchelheim-Klingen", "state": "", "country": "DE", "coord": {"lon": 8.055, "lat": 49.145302}}, {"id": 6555194, "name": "Impflingen", "state": "", "country": "DE", "coord": {"lon": 8.11306, "lat": 49.162201}}, {"id": 6555195, "name": "Insheim", "state": "", "country": "DE", "coord": {"lon": 8.14722, "lat": 49.1581}}, {"id": 6555196, "name": "Kapellen-Drusweiler", "state": "", "country": "DE", "coord": {"lon": 8.03111, "lat": 49.1017}}, {"id": 6555197, "name": "Kapsweyer", "state": "", "country": "DE", "coord": {"lon": 8.02167, "lat": 49.0439}}, {"id": 6555199, "name": "Kleinfischlingen", "state": "", "country": "DE", "coord": {"lon": 8.18694, "lat": 49.263302}}, {"id": 6555200, "name": "Klingenm\u00fcnster", "state": "", "country": "DE", "coord": {"lon": 8.01861, "lat": 49.140598}}, {"id": 6555201, "name": "Kn\u00f6ringen", "state": "", "country": "DE", "coord": {"lon": 8.14444, "lat": 49.237801}}, {"id": 6555202, "name": "Leinsweiler", "state": "", "country": "DE", "coord": {"lon": 8.01917, "lat": 49.1833}}, {"id": 6555203, "name": "Maikammer", "state": "", "country": "DE", "coord": {"lon": 8.1425, "lat": 49.306301}}, {"id": 6555204, "name": "M\u00fcnchweiler am Klingbach", "state": "", "country": "DE", "coord": {"lon": 7.96667, "lat": 49.150002}}, {"id": 6555205, "name": "Niederhorbach", "state": "", "country": "DE", "coord": {"lon": 8.03417, "lat": 49.115299}}, {"id": 6555206, "name": "Niederotterbach", "state": "", "country": "DE", "coord": {"lon": 8.04556, "lat": 49.060299}}, {"id": 6555207, "name": "Oberhausen", "state": "", "country": "DE", "coord": {"lon": 8.05833, "lat": 49.096901}}, {"id": 6555208, "name": "Oberotterbach", "state": "", "country": "DE", "coord": {"lon": 7.96667, "lat": 49.0667}}, {"id": 6555209, "name": "Oberschlettenbach", "state": "", "country": "DE", "coord": {"lon": 7.86667, "lat": 49.150002}}, {"id": 6555210, "name": "Offenbach an der Queich", "state": "", "country": "DE", "coord": {"lon": 8.18111, "lat": 49.202202}}, {"id": 6555211, "name": "Pleisweiler-Oberhofen", "state": "", "country": "DE", "coord": {"lon": 8.00778, "lat": 49.118099}}, {"id": 6555212, "name": "Ramberg", "state": "", "country": "DE", "coord": {"lon": 8.00833, "lat": 49.2603}}, {"id": 6555213, "name": "Ranschbach", "state": "", "country": "DE", "coord": {"lon": 8.02861, "lat": 49.195801}}, {"id": 6555214, "name": "Rhodt unter Rietburg", "state": "", "country": "DE", "coord": {"lon": 8.10778, "lat": 49.269699}}, {"id": 6555215, "name": "Rinnthal", "state": "", "country": "DE", "coord": {"lon": 7.91667, "lat": 49.216702}}, {"id": 6555216, "name": "Rohrbach", "state": "", "country": "DE", "coord": {"lon": 8.12861, "lat": 49.1367}}, {"id": 6555217, "name": "Roschbach", "state": "", "country": "DE", "coord": {"lon": 8.11889, "lat": 49.246101}}, {"id": 6555218, "name": "Sankt Martin", "state": "", "country": "DE", "coord": {"lon": 8.10528, "lat": 49.300301}}, {"id": 6555219, "name": "Schweigen-Rechtenbach", "state": "", "country": "DE", "coord": {"lon": 7.95, "lat": 49.049999}}, {"id": 6555220, "name": "Schweighofen", "state": "", "country": "DE", "coord": {"lon": 8.0, "lat": 49.033298}}, {"id": 6555221, "name": "Siebeldingen", "state": "", "country": "DE", "coord": {"lon": 8.05139, "lat": 49.2089}}, {"id": 6555222, "name": "Silz", "state": "", "country": "DE", "coord": {"lon": 7.95, "lat": 49.150002}}, {"id": 6555223, "name": "Steinfeld", "state": "", "country": "DE", "coord": {"lon": 8.03694, "lat": 49.048302}}, {"id": 6555224, "name": "Venningen", "state": "", "country": "DE", "coord": {"lon": 8.17361, "lat": 49.2817}}, {"id": 6555225, "name": "V\u00f6lkersweiler", "state": "", "country": "DE", "coord": {"lon": 7.93333, "lat": 49.166698}}, {"id": 6555226, "name": "Vorderweidenthal", "state": "", "country": "DE", "coord": {"lon": 7.88333, "lat": 49.133301}}, {"id": 6555227, "name": "Waldhambach", "state": "", "country": "DE", "coord": {"lon": 7.98333, "lat": 49.166698}}, {"id": 6555228, "name": "Waldrohrbach", "state": "", "country": "DE", "coord": {"lon": 7.96667, "lat": 49.166698}}, {"id": 6555229, "name": "Walsheim", "state": "", "country": "DE", "coord": {"lon": 8.12694, "lat": 49.237202}}, {"id": 6555230, "name": "Wernersberg", "state": "", "country": "DE", "coord": {"lon": 7.93333, "lat": 49.1833}}, {"id": 6555232, "name": "Altrip", "state": "", "country": "DE", "coord": {"lon": 8.484, "lat": 49.435101}}, {"id": 6555233, "name": "Beindersheim", "state": "", "country": "DE", "coord": {"lon": 8.31944, "lat": 49.5606}}, {"id": 6555234, "name": "Birkenheide", "state": "", "country": "DE", "coord": {"lon": 8.26194, "lat": 49.4814}}, {"id": 6555235, "name": "Bobenheim-Roxheim", "state": "", "country": "DE", "coord": {"lon": 8.35778, "lat": 49.587502}}, {"id": 6555236, "name": "B\u00f6hl-Iggelheim", "state": "", "country": "DE", "coord": {"lon": 8.30389, "lat": 49.3806}}, {"id": 6555237, "name": "Dannstadt-Schauernheim", "state": "", "country": "DE", "coord": {"lon": 8.30861, "lat": 49.4403}}, {"id": 6555238, "name": "Dudenhofen", "state": "", "country": "DE", "coord": {"lon": 8.3938, "lat": 49.3158}}, {"id": 6555239, "name": "Fu\u00dfg\u00f6nheim", "state": "", "country": "DE", "coord": {"lon": 8.29222, "lat": 49.461102}}, {"id": 6555240, "name": "Gro\u00dfniedesheim", "state": "", "country": "DE", "coord": {"lon": 8.31222, "lat": 49.575298}}, {"id": 6555241, "name": "Hanhofen", "state": "", "country": "DE", "coord": {"lon": 8.34083, "lat": 49.3167}}, {"id": 6555242, "name": "Harthausen", "state": "", "country": "DE", "coord": {"lon": 8.345, "lat": 49.294201}}, {"id": 6555243, "name": "He\u00dfheim", "state": "", "country": "DE", "coord": {"lon": 8.30778, "lat": 49.545799}}, {"id": 6555244, "name": "Heuchelheim bei Frankenthal", "state": "", "country": "DE", "coord": {"lon": 8.29083, "lat": 49.563099}}, {"id": 6555245, "name": "Hochdorf-Assenheim", "state": "", "country": "DE", "coord": {"lon": 8.28167, "lat": 49.419399}}, {"id": 6555246, "name": "Kleinniedesheim", "state": "", "country": "DE", "coord": {"lon": 8.32222, "lat": 49.586899}}, {"id": 6555247, "name": "Lambsheim", "state": "", "country": "DE", "coord": {"lon": 8.2874, "lat": 49.516701}}, {"id": 6555248, "name": "Limburgerhof", "state": "", "country": "DE", "coord": {"lon": 8.39194, "lat": 49.4244}}, {"id": 6555249, "name": "Maxdorf", "state": "", "country": "DE", "coord": {"lon": 8.29167, "lat": 49.488098}}, {"id": 6555250, "name": "Mutterstadt", "state": "", "country": "DE", "coord": {"lon": 8.353, "lat": 49.456799}}, {"id": 6555251, "name": "Neuhofen", "state": "", "country": "DE", "coord": {"lon": 8.42472, "lat": 49.427799}}, {"id": 6555252, "name": "Otterstadt", "state": "", "country": "DE", "coord": {"lon": 8.44778, "lat": 49.3722}}, {"id": 6555253, "name": "R\u00f6dersheim-Gronau", "state": "", "country": "DE", "coord": {"lon": 8.26139, "lat": 49.43}}, {"id": 6555254, "name": "Waldsee", "state": "", "country": "DE", "coord": {"lon": 8.44028, "lat": 49.395302}}, {"id": 6555255, "name": "Appenheim", "state": "", "country": "DE", "coord": {"lon": 8.03333, "lat": 49.93}}, {"id": 6555256, "name": "Aspisheim", "state": "", "country": "DE", "coord": {"lon": 7.98333, "lat": 49.900002}}, {"id": 6555257, "name": "Badenheim", "state": "", "country": "DE", "coord": {"lon": 7.96667, "lat": 49.833302}}, {"id": 6555258, "name": "Bodenheim", "state": "", "country": "DE", "coord": {"lon": 8.3002, "lat": 49.934898}}, {"id": 6555259, "name": "Breitscheid", "state": "", "country": "DE", "coord": {"lon": 7.7, "lat": 50.049999}}, {"id": 6555260, "name": "Bubenheim", "state": "", "country": "DE", "coord": {"lon": 8.07972, "lat": 49.9217}}, {"id": 6555261, "name": "Budenheim", "state": "", "country": "DE", "coord": {"lon": 8.16815, "lat": 50.018002}}, {"id": 6555262, "name": "Dalheim", "state": "", "country": "DE", "coord": {"lon": 8.29528, "lat": 49.826698}}, {"id": 6555263, "name": "Dexheim", "state": "", "country": "DE", "coord": {"lon": 8.31667, "lat": 49.847198}}, {"id": 6555264, "name": "Dienheim", "state": "", "country": "DE", "coord": {"lon": 8.34972, "lat": 49.8372}}, {"id": 6555265, "name": "Dolgesheim", "state": "", "country": "DE", "coord": {"lon": 8.25694, "lat": 49.794399}}, {"id": 6555267, "name": "Eimsheim", "state": "", "country": "DE", "coord": {"lon": 8.28944, "lat": 49.795799}}, {"id": 6555268, "name": "Engelstadt", "state": "", "country": "DE", "coord": {"lon": 8.06528, "lat": 49.904202}}, {"id": 6555269, "name": "Essenheim", "state": "", "country": "DE", "coord": {"lon": 8.15556, "lat": 49.930599}}, {"id": 6555270, "name": "Friesenheim", "state": "", "country": "DE", "coord": {"lon": 8.25694, "lat": 49.836399}}, {"id": 6555271, "name": "Gau-Bischofsheim", "state": "", "country": "DE", "coord": {"lon": 8.27278, "lat": 49.915798}}, {"id": 6555272, "name": "Gensingen", "state": "", "country": "DE", "coord": {"lon": 7.93333, "lat": 49.900002}}, {"id": 6555273, "name": "Grolsheim", "state": "", "country": "DE", "coord": {"lon": 7.91667, "lat": 49.900002}}, {"id": 6555274, "name": "Guntersblum", "state": "", "country": "DE", "coord": {"lon": 8.342, "lat": 49.804699}}, {"id": 6555275, "name": "Hahnheim", "state": "", "country": "DE", "coord": {"lon": 8.23694, "lat": 49.860802}}, {"id": 6555276, "name": "Harxheim", "state": "", "country": "DE", "coord": {"lon": 8.26417, "lat": 49.9053}}, {"id": 6555278, "name": "Hillesheim", "state": "", "country": "DE", "coord": {"lon": 8.25611, "lat": 49.776402}}, {"id": 6555279, "name": "Horrweiler", "state": "", "country": "DE", "coord": {"lon": 7.96667, "lat": 49.900002}}, {"id": 6555280, "name": "Klein-Winternheim", "state": "", "country": "DE", "coord": {"lon": 8.21194, "lat": 49.938301}}, {"id": 6555281, "name": "K\u00f6ngernheim", "state": "", "country": "DE", "coord": {"lon": 8.24667, "lat": 49.845798}}, {"id": 6555282, "name": "L\u00f6rzweiler", "state": "", "country": "DE", "coord": {"lon": 8.29472, "lat": 49.8983}}, {"id": 6555283, "name": "Ludwigsh\u00f6he", "state": "", "country": "DE", "coord": {"lon": 8.34361, "lat": 49.8167}}, {"id": 6555284, "name": "Manubach", "state": "", "country": "DE", "coord": {"lon": 7.75, "lat": 50.033298}}, {"id": 6555285, "name": "Mommenheim", "state": "", "country": "DE", "coord": {"lon": 8.265, "lat": 49.880299}}, {"id": 6555286, "name": "M\u00fcnster-Sarmsheim", "state": "", "country": "DE", "coord": {"lon": 7.9, "lat": 49.950001}}, {"id": 6555287, "name": "Nackenheim", "state": "", "country": "DE", "coord": {"lon": 8.33675, "lat": 49.920448}}, {"id": 6555288, "name": "Niederheimbach", "state": "", "country": "DE", "coord": {"lon": 7.81667, "lat": 50.033298}}, {"id": 6555289, "name": "Nieder-Hilbersheim", "state": "", "country": "DE", "coord": {"lon": 8.04194, "lat": 49.9133}}, {"id": 6555290, "name": "Nieder-Olm", "state": "", "country": "DE", "coord": {"lon": 8.21333, "lat": 49.9142}}, {"id": 6555291, "name": "Nierstein", "state": "", "country": "DE", "coord": {"lon": 8.3497, "lat": 49.8671}}, {"id": 6555292, "name": "Oberdiebach", "state": "", "country": "DE", "coord": {"lon": 7.78333, "lat": 50.033298}}, {"id": 6555293, "name": "Oberheimbach", "state": "", "country": "DE", "coord": {"lon": 7.78333, "lat": 50.016701}}, {"id": 6555294, "name": "Ober-Hilbersheim", "state": "", "country": "DE", "coord": {"lon": 8.02889, "lat": 49.900002}}, {"id": 6555295, "name": "Ober-Olm", "state": "", "country": "DE", "coord": {"lon": 8.18889, "lat": 49.937199}}, {"id": 6555296, "name": "Ockenheim", "state": "", "country": "DE", "coord": {"lon": 7.96667, "lat": 49.9333}}, {"id": 6555297, "name": "Sankt Johann", "state": "", "country": "DE", "coord": {"lon": 8.01444, "lat": 49.8675}}, {"id": 6555299, "name": "Selzen", "state": "", "country": "DE", "coord": {"lon": 8.25528, "lat": 49.8606}}, {"id": 6555300, "name": "S\u00f6rgenloch", "state": "", "country": "DE", "coord": {"lon": 8.20111, "lat": 49.883099}}, {"id": 6555301, "name": "Sprendlingen", "state": "", "country": "DE", "coord": {"lon": 7.98333, "lat": 49.866699}}, {"id": 6555302, "name": "Stadecken-Elsheim", "state": "", "country": "DE", "coord": {"lon": 8.12528, "lat": 49.912201}}, {"id": 6555303, "name": "Trechtingshausen", "state": "", "country": "DE", "coord": {"lon": 7.85, "lat": 50.016701}}, {"id": 6555304, "name": "Uelversheim", "state": "", "country": "DE", "coord": {"lon": 8.28861, "lat": 49.810001}}, {"id": 6555305, "name": "Wackernheim", "state": "", "country": "DE", "coord": {"lon": 8.11667, "lat": 49.9744}}, {"id": 6555306, "name": "Waldalgesheim", "state": "", "country": "DE", "coord": {"lon": 7.83333, "lat": 49.950001}}, {"id": 6555307, "name": "Weinolsheim", "state": "", "country": "DE", "coord": {"lon": 8.27278, "lat": 49.8158}}, {"id": 6555308, "name": "Welgesheim", "state": "", "country": "DE", "coord": {"lon": 7.96667, "lat": 49.883301}}, {"id": 6555309, "name": "Wintersheim", "state": "", "country": "DE", "coord": {"lon": 8.28028, "lat": 49.778599}}, {"id": 6555310, "name": "Zornheim", "state": "", "country": "DE", "coord": {"lon": 8.22472, "lat": 49.889999}}, {"id": 6555311, "name": "Zotzenheim", "state": "", "country": "DE", "coord": {"lon": 7.96667, "lat": 49.866699}}, {"id": 6555312, "name": "Dorn-D\u00fcrkheim", "state": "", "country": "DE", "coord": {"lon": 8.26972, "lat": 49.7686}}, {"id": 6555313, "name": "Wolfsheim", "state": "", "country": "DE", "coord": {"lon": 8.03944, "lat": 49.8722}}, {"id": 6555314, "name": "Bobenthal", "state": "", "country": "DE", "coord": {"lon": 7.86667, "lat": 49.0667}}, {"id": 6555315, "name": "Busenberg", "state": "", "country": "DE", "coord": {"lon": 7.82907, "lat": 49.130241}}, {"id": 6555316, "name": "Clausen", "state": "", "country": "DE", "coord": {"lon": 7.68333, "lat": 49.266701}}, {"id": 6555317, "name": "Darstein", "state": "", "country": "DE", "coord": {"lon": 7.88333, "lat": 49.150002}}, {"id": 6555318, "name": "Dimbach", "state": "", "country": "DE", "coord": {"lon": 7.9, "lat": 49.166698}}, {"id": 6555319, "name": "Donsieders", "state": "", "country": "DE", "coord": {"lon": 7.64167, "lat": 49.266701}}, {"id": 6555320, "name": "Eppenbrunn", "state": "", "country": "DE", "coord": {"lon": 7.56667, "lat": 49.116699}}, {"id": 6555321, "name": "Erfweiler", "state": "", "country": "DE", "coord": {"lon": 7.81184, "lat": 49.15704}}, {"id": 6555323, "name": "Geiselberg", "state": "", "country": "DE", "coord": {"lon": 7.7, "lat": 49.333302}}, {"id": 6555324, "name": "Hauenstein", "state": "", "country": "DE", "coord": {"lon": 7.85437, "lat": 49.192051}}, {"id": 6555325, "name": "Heltersberg", "state": "", "country": "DE", "coord": {"lon": 7.71667, "lat": 49.3167}}, {"id": 6555326, "name": "Hermersberg", "state": "", "country": "DE", "coord": {"lon": 7.63333, "lat": 49.3167}}, {"id": 6555327, "name": "Herschberg", "state": "", "country": "DE", "coord": {"lon": 7.55, "lat": 49.299999}}, {"id": 6555328, "name": "Hettenhausen", "state": "", "country": "DE", "coord": {"lon": 7.55, "lat": 49.333302}}, {"id": 6555329, "name": "Hilst", "state": "", "country": "DE", "coord": {"lon": 7.53333, "lat": 49.133301}}, {"id": 6555330, "name": "Hinterweidenthal", "state": "", "country": "DE", "coord": {"lon": 7.75419, "lat": 49.195648}}, {"id": 6555331, "name": "Hirschthal", "state": "", "country": "DE", "coord": {"lon": 7.75, "lat": 49.033298}}, {"id": 6555332, "name": "H\u00f6hein\u00f6d", "state": "", "country": "DE", "coord": {"lon": 7.6, "lat": 49.283298}}, {"id": 6555333, "name": "H\u00f6heischweiler", "state": "", "country": "DE", "coord": {"lon": 7.55, "lat": 49.233299}}, {"id": 6555334, "name": "H\u00f6hfr\u00f6schen", "state": "", "country": "DE", "coord": {"lon": 7.56667, "lat": 49.25}}, {"id": 6555335, "name": "Horbach", "state": "", "country": "DE", "coord": {"lon": 7.65, "lat": 49.333302}}, {"id": 6555336, "name": "Kr\u00f6ppen", "state": "", "country": "DE", "coord": {"lon": 7.53333, "lat": 49.150002}}, {"id": 6555337, "name": "Leimen", "state": "", "country": "DE", "coord": {"lon": 7.76667, "lat": 49.283298}}, {"id": 6555338, "name": "Lemberg", "state": "", "country": "DE", "coord": {"lon": 7.66667, "lat": 49.166698}}, {"id": 6555339, "name": "Ludwigswinkel", "state": "", "country": "DE", "coord": {"lon": 7.66667, "lat": 49.083302}}, {"id": 6555340, "name": "Lug", "state": "", "country": "DE", "coord": {"lon": 7.9, "lat": 49.1833}}, {"id": 6555341, "name": "Merzalben", "state": "", "country": "DE", "coord": {"lon": 7.73333, "lat": 49.25}}, {"id": 6555343, "name": "Niederschlettenbach", "state": "", "country": "DE", "coord": {"lon": 7.85, "lat": 49.083302}}, {"id": 6555344, "name": "Nothweiler", "state": "", "country": "DE", "coord": {"lon": 7.8, "lat": 49.0667}}, {"id": 6555345, "name": "N\u00fcnschweiler", "state": "", "country": "DE", "coord": {"lon": 7.5, "lat": 49.233299}}, {"id": 6555346, "name": "Obersimten", "state": "", "country": "DE", "coord": {"lon": 7.58333, "lat": 49.166698}}, {"id": 6555347, "name": "Petersberg", "state": "", "country": "DE", "coord": {"lon": 7.56667, "lat": 49.233299}}, {"id": 6555348, "name": "Rumbach", "state": "", "country": "DE", "coord": {"lon": 7.78744, "lat": 49.096512}}, {"id": 6555349, "name": "Ruppertsweiler", "state": "", "country": "DE", "coord": {"lon": 7.68333, "lat": 49.200001}}, {"id": 6555350, "name": "Saalstadt", "state": "", "country": "DE", "coord": {"lon": 7.55, "lat": 49.3167}}, {"id": 6555351, "name": "Schauerberg", "state": "", "country": "DE", "coord": {"lon": 7.58333, "lat": 49.3167}}, {"id": 6555352, "name": "Schindhard", "state": "", "country": "DE", "coord": {"lon": 7.82233, "lat": 49.14183}}, {"id": 6555353, "name": "Schmalenberg", "state": "", "country": "DE", "coord": {"lon": 7.73333, "lat": 49.333302}}, {"id": 6555354, "name": "Schwanheim", "state": "", "country": "DE", "coord": {"lon": 7.88333, "lat": 49.166698}}, {"id": 6555355, "name": "Schweix", "state": "", "country": "DE", "coord": {"lon": 7.51667, "lat": 49.133301}}, {"id": 6555356, "name": "Spirkelbach", "state": "", "country": "DE", "coord": {"lon": 7.88333, "lat": 49.200001}}, {"id": 6555357, "name": "Steinalben", "state": "", "country": "DE", "coord": {"lon": 7.65, "lat": 49.3167}}, {"id": 6555358, "name": "Thaleischweiler-Fr\u00f6schen", "state": "", "country": "DE", "coord": {"lon": 7.58333, "lat": 49.266701}}, {"id": 6555359, "name": "Trulben", "state": "", "country": "DE", "coord": {"lon": 7.55, "lat": 49.133301}}, {"id": 6555360, "name": "Vinningen", "state": "", "country": "DE", "coord": {"lon": 7.55, "lat": 49.166698}}, {"id": 6555361, "name": "Waldfischbach-Burgalben", "state": "", "country": "DE", "coord": {"lon": 7.66667, "lat": 49.283298}}, {"id": 6555362, "name": "Weselberg", "state": "", "country": "DE", "coord": {"lon": 7.61667, "lat": 49.333302}}, {"id": 6555363, "name": "Wilgartswiesen", "state": "", "country": "DE", "coord": {"lon": 7.88333, "lat": 49.216702}}, {"id": 6555364, "name": "Althornbach", "state": "", "country": "DE", "coord": {"lon": 7.36667, "lat": 49.200001}}, {"id": 6555365, "name": "Battweiler", "state": "", "country": "DE", "coord": {"lon": 7.46667, "lat": 49.283298}}, {"id": 6555366, "name": "Bechhofen", "state": "", "country": "DE", "coord": {"lon": 7.4, "lat": 49.349998}}, {"id": 6555367, "name": "Biedershausen", "state": "", "country": "DE", "coord": {"lon": 7.48333, "lat": 49.3167}}, {"id": 6555368, "name": "Bottenbach", "state": "", "country": "DE", "coord": {"lon": 7.5, "lat": 49.1833}}, {"id": 6555369, "name": "Contwig", "state": "", "country": "DE", "coord": {"lon": 7.43333, "lat": 49.25}}, {"id": 6555370, "name": "Dellfeld", "state": "", "country": "DE", "coord": {"lon": 7.48333, "lat": 49.233299}}, {"id": 6555371, "name": "Dietrichingen", "state": "", "country": "DE", "coord": {"lon": 7.41667, "lat": 49.1833}}, {"id": 6555372, "name": "Gro\u00dfbundenbach", "state": "", "country": "DE", "coord": {"lon": 7.41667, "lat": 49.299999}}, {"id": 6555373, "name": "Gro\u00dfsteinhausen", "state": "", "country": "DE", "coord": {"lon": 7.45, "lat": 49.1833}}, {"id": 6555374, "name": "K\u00e4shofen", "state": "", "country": "DE", "coord": {"lon": 7.41667, "lat": 49.333302}}, {"id": 6555375, "name": "Kleinbundenbach", "state": "", "country": "DE", "coord": {"lon": 7.43333, "lat": 49.3167}}, {"id": 6555376, "name": "Kleinsteinhausen", "state": "", "country": "DE", "coord": {"lon": 7.46667, "lat": 49.200001}}, {"id": 6555377, "name": "Knopp-Labach", "state": "", "country": "DE", "coord": {"lon": 7.5, "lat": 49.333302}}, {"id": 6555378, "name": "Kr\u00e4henberg", "state": "", "country": "DE", "coord": {"lon": 7.46667, "lat": 49.333302}}, {"id": 6555379, "name": "Ma\u00dfweiler", "state": "", "country": "DE", "coord": {"lon": 7.53333, "lat": 49.266701}}, {"id": 6555380, "name": "Mauschbach", "state": "", "country": "DE", "coord": {"lon": 7.4, "lat": 49.1833}}, {"id": 6555381, "name": "Obernheim-Kirchenarnbach", "state": "", "country": "DE", "coord": {"lon": 7.58333, "lat": 49.349998}}, {"id": 6555382, "name": "Reifenberg", "state": "", "country": "DE", "coord": {"lon": 7.5, "lat": 49.283298}}, {"id": 6555383, "name": "Riedelberg", "state": "", "country": "DE", "coord": {"lon": 7.45, "lat": 49.1833}}, {"id": 6555384, "name": "Rieschweiler-M\u00fchlbach", "state": "", "country": "DE", "coord": {"lon": 7.5, "lat": 49.233299}}, {"id": 6555385, "name": "Rosenkopf", "state": "", "country": "DE", "coord": {"lon": 7.43333, "lat": 49.349998}}, {"id": 6555386, "name": "Schmitshausen", "state": "", "country": "DE", "coord": {"lon": 7.51667, "lat": 49.299999}}, {"id": 6555387, "name": "Wallhalben", "state": "", "country": "DE", "coord": {"lon": 7.53333, "lat": 49.3167}}, {"id": 6555388, "name": "Walshausen", "state": "", "country": "DE", "coord": {"lon": 7.48333, "lat": 49.216702}}, {"id": 6555389, "name": "Wiesbach", "state": "", "country": "DE", "coord": {"lon": 7.45, "lat": 49.333302}}, {"id": 6555390, "name": "Bruchweiler-B\u00e4renbach", "state": "", "country": "DE", "coord": {"lon": 7.8, "lat": 49.116699}}, {"id": 6555391, "name": "Bundenthal", "state": "", "country": "DE", "coord": {"lon": 7.80849, "lat": 49.09549}}, {"id": 6555392, "name": "Aidlingen", "state": "", "country": "DE", "coord": {"lon": 8.89571, "lat": 48.67849}}, {"id": 6555393, "name": "Altdorf", "state": "", "country": "DE", "coord": {"lon": 8.99574, "lat": 48.630871}}, {"id": 6555394, "name": "Bondorf", "state": "", "country": "DE", "coord": {"lon": 8.83674, "lat": 48.520748}}, {"id": 6555395, "name": "Deckenpfronn", "state": "", "country": "DE", "coord": {"lon": 8.82361, "lat": 48.651508}}, {"id": 6555396, "name": "Ehningen", "state": "", "country": "DE", "coord": {"lon": 8.94064, "lat": 48.658821}}, {"id": 6555397, "name": "G\u00e4rtringen", "state": "", "country": "DE", "coord": {"lon": 8.89996, "lat": 48.641979}}, {"id": 6555398, "name": "Hildrizhausen", "state": "", "country": "DE", "coord": {"lon": 8.96699, "lat": 48.624401}}, {"id": 6555399, "name": "Magstadt", "state": "", "country": "DE", "coord": {"lon": 8.9662, "lat": 48.74017}}, {"id": 6555400, "name": "M\u00f6tzingen", "state": "", "country": "DE", "coord": {"lon": 8.7737, "lat": 48.533539}}, {"id": 6555401, "name": "Nufringen", "state": "", "country": "DE", "coord": {"lon": 8.88948, "lat": 48.622532}}, {"id": 6555402, "name": "Rutesheim", "state": "", "country": "DE", "coord": {"lon": 8.94583, "lat": 48.8083}}, {"id": 6555403, "name": "Sch\u00f6naich", "state": "", "country": "DE", "coord": {"lon": 9.0688, "lat": 48.661499}}, {"id": 6555404, "name": "Steinenbronn", "state": "", "country": "DE", "coord": {"lon": 9.12175, "lat": 48.66185}}, {"id": 6555406, "name": "Weil im Sch\u00f6nbuch", "state": "", "country": "DE", "coord": {"lon": 9.06355, "lat": 48.622238}}, {"id": 6555408, "name": "Altbach", "state": "", "country": "DE", "coord": {"lon": 9.379, "lat": 48.7225}}, {"id": 6555409, "name": "Altdorf", "state": "", "country": "DE", "coord": {"lon": 9.27126, "lat": 48.594212}}, {"id": 6555410, "name": "Altenriet", "state": "", "country": "DE", "coord": {"lon": 9.22171, "lat": 48.591358}}, {"id": 6555411, "name": "Baltmannsweiler", "state": "", "country": "DE", "coord": {"lon": 9.44983, "lat": 48.742489}}, {"id": 6555412, "name": "Bempflingen", "state": "", "country": "DE", "coord": {"lon": 9.26853, "lat": 48.571751}}, {"id": 6555413, "name": "Beuren", "state": "", "country": "DE", "coord": {"lon": 9.4043, "lat": 48.569279}}, {"id": 6555414, "name": "Bissingen an der Teck", "state": "", "country": "DE", "coord": {"lon": 9.49146, "lat": 48.599232}}, {"id": 6555415, "name": "Deizisau", "state": "", "country": "DE", "coord": {"lon": 9.38923, "lat": 48.713509}}, {"id": 6555416, "name": "Denkendorf", "state": "", "country": "DE", "coord": {"lon": 9.31847, "lat": 48.695271}}, {"id": 6555417, "name": "Dettingen unter Teck", "state": "", "country": "DE", "coord": {"lon": 9.45, "lat": 48.616699}}, {"id": 6555418, "name": "Erkenbrechtsweiler", "state": "", "country": "DE", "coord": {"lon": 9.43193, "lat": 48.556438}}, {"id": 6555419, "name": "Frickenhausen", "state": "", "country": "DE", "coord": {"lon": 9.35971, "lat": 48.593498}}, {"id": 6555420, "name": "Gro\u00dfbettlingen", "state": "", "country": "DE", "coord": {"lon": 9.30885, "lat": 48.590569}}, {"id": 6555421, "name": "Hochdorf", "state": "", "country": "DE", "coord": {"lon": 9.4615, "lat": 48.695}}, {"id": 6555422, "name": "Holzmaden", "state": "", "country": "DE", "coord": {"lon": 9.51667, "lat": 48.633301}}, {"id": 6555423, "name": "K\u00f6ngen", "state": "", "country": "DE", "coord": {"lon": 9.3691, "lat": 48.681702}}, {"id": 6555424, "name": "Kohlberg", "state": "", "country": "DE", "coord": {"lon": 9.33426, "lat": 48.55917}}, {"id": 6555425, "name": "Neckartailfingen", "state": "", "country": "DE", "coord": {"lon": 9.26418, "lat": 48.612}}, {"id": 6555426, "name": "Neckartenzlingen", "state": "", "country": "DE", "coord": {"lon": 9.23521, "lat": 48.589951}}, {"id": 6555427, "name": "Neidlingen", "state": "", "country": "DE", "coord": {"lon": 9.56446, "lat": 48.57859}}, {"id": 6555428, "name": "Neuhausen auf den Fildern", "state": "", "country": "DE", "coord": {"lon": 9.28333, "lat": 48.6833}}, {"id": 6555429, "name": "Notzingen", "state": "", "country": "DE", "coord": {"lon": 9.4575, "lat": 48.6703}}, {"id": 6555430, "name": "Oberboihingen", "state": "", "country": "DE", "coord": {"lon": 9.3662, "lat": 48.654202}}, {"id": 6555431, "name": "Ohmden", "state": "", "country": "DE", "coord": {"lon": 9.51667, "lat": 48.650002}}, {"id": 6555432, "name": "Reichenbach an der Fils", "state": "", "country": "DE", "coord": {"lon": 9.4534, "lat": 48.708}}, {"id": 6555433, "name": "Schlaitdorf", "state": "", "country": "DE", "coord": {"lon": 9.22302, "lat": 48.604252}}, {"id": 6555434, "name": "Unterensingen", "state": "", "country": "DE", "coord": {"lon": 9.3548, "lat": 48.652599}}, {"id": 6555435, "name": "Wolfschlugen", "state": "", "country": "DE", "coord": {"lon": 9.3062, "lat": 48.6455}}, {"id": 6555436, "name": "Adelberg", "state": "", "country": "DE", "coord": {"lon": 9.6, "lat": 48.766701}}, {"id": 6555437, "name": "Aichelberg", "state": "", "country": "DE", "coord": {"lon": 9.56317, "lat": 48.635571}}, {"id": 6555438, "name": "Albershausen", "state": "", "country": "DE", "coord": {"lon": 9.5654, "lat": 48.691601}}, {"id": 6555441, "name": "Immenstedt", "state": "", "country": "DE", "coord": {"lon": 9.14949, "lat": 54.5383}}, {"id": 6555446, "name": "Heek", "state": "", "country": "DE", "coord": {"lon": 7.112, "lat": 52.116001}}, {"id": 6555447, "name": "Scheidt", "state": "", "country": "DE", "coord": {"lon": 7.91667, "lat": 50.333302}}, {"id": 6555448, "name": "Offstein", "state": "", "country": "DE", "coord": {"lon": 8.23806, "lat": 49.606098}}, {"id": 6555449, "name": "Bad Ditzenbach", "state": "", "country": "DE", "coord": {"lon": 9.70397, "lat": 48.58847}}, {"id": 6555450, "name": "Bad \u00dcberkingen", "state": "", "country": "DE", "coord": {"lon": 9.79624, "lat": 48.599941}}, {"id": 6555451, "name": "Birenbach", "state": "", "country": "DE", "coord": {"lon": 9.66123, "lat": 48.74749}}, {"id": 6555452, "name": "B\u00f6hmenkirch", "state": "", "country": "DE", "coord": {"lon": 9.93333, "lat": 48.6833}}, {"id": 6555453, "name": "B\u00f6rtlingen", "state": "", "country": "DE", "coord": {"lon": 9.6318, "lat": 48.753658}}, {"id": 6555454, "name": "Boll", "state": "", "country": "DE", "coord": {"lon": 9.61317, "lat": 48.643711}}, {"id": 6555455, "name": "Deggingen", "state": "", "country": "DE", "coord": {"lon": 9.71882, "lat": 48.597191}}, {"id": 6555456, "name": "D\u00fcrnau", "state": "", "country": "DE", "coord": {"lon": 9.63522, "lat": 48.641129}}, {"id": 6555457, "name": "Eschenbach", "state": "", "country": "DE", "coord": {"lon": 9.66977, "lat": 48.652561}}, {"id": 6555458, "name": "Gammelshausen", "state": "", "country": "DE", "coord": {"lon": 9.65063, "lat": 48.64048}}, {"id": 6555459, "name": "Gingen an der Fils", "state": "", "country": "DE", "coord": {"lon": 9.7818, "lat": 48.658001}}, {"id": 6555460, "name": "Gruibingen", "state": "", "country": "DE", "coord": {"lon": 9.64376, "lat": 48.595032}}, {"id": 6555461, "name": "Hattenhofen", "state": "", "country": "DE", "coord": {"lon": 9.57476, "lat": 48.666359}}, {"id": 6555462, "name": "Heiningen", "state": "", "country": "DE", "coord": {"lon": 9.64939, "lat": 48.661942}}, {"id": 6555463, "name": "Hohenstadt", "state": "", "country": "DE", "coord": {"lon": 9.66393, "lat": 48.54417}}, {"id": 6555464, "name": "Kuchen", "state": "", "country": "DE", "coord": {"lon": 9.80011, "lat": 48.63586}}, {"id": 6555466, "name": "Ottenbach", "state": "", "country": "DE", "coord": {"lon": 9.74882, "lat": 48.736752}}, {"id": 6555467, "name": "Rechberghausen", "state": "", "country": "DE", "coord": {"lon": 9.64359, "lat": 48.730949}}, {"id": 6555468, "name": "Salach", "state": "", "country": "DE", "coord": {"lon": 9.73333, "lat": 48.6833}}, {"id": 6555469, "name": "Schlat", "state": "", "country": "DE", "coord": {"lon": 9.70651, "lat": 48.653412}},