[{"id": 6556657, "name": "Irchenrieth", "state": "", "country": "DE", "coord": {"lon": 12.2333, "lat": 49.616699}}, {"id": 6556658, "name": "Kirchendemenreuth", "state": "", "country": "DE", "coord": {"lon": 12.1, "lat": 49.783298}}, {"id": 6556659, "name": "Pirk", "state": "", "country": "DE", "coord": {"lon": 12.1667, "lat": 49.633301}}, {"id": 6556660, "name": "Trabitz", "state": "", "country": "DE", "coord": {"lon": 11.9, "lat": 49.799999}}, {"id": 6556661, "name": "P\u00fcchersreuth", "state": "", "country": "DE", "coord": {"lon": 12.2333, "lat": 49.75}}, {"id": 6556662, "name": "Schirmitz", "state": "", "country": "DE", "coord": {"lon": 12.1667, "lat": 49.650002}}, {"id": 6556663, "name": "Schlammersdorf", "state": "", "country": "DE", "coord": {"lon": 11.7333, "lat": 49.799999}}, {"id": 6556664, "name": "Schwarzenbach", "state": "", "country": "DE", "coord": {"lon": 12.0, "lat": 49.733299}}, {"id": 6556665, "name": "Speinshart", "state": "", "country": "DE", "coord": {"lon": 11.8167, "lat": 49.783298}}, {"id": 6556666, "name": "St\u00f6rnstein", "state": "", "country": "DE", "coord": {"lon": 12.2167, "lat": 49.733299}}, {"id": 6556667, "name": "Theisseil", "state": "", "country": "DE", "coord": {"lon": 12.2333, "lat": 49.700001}}, {"id": 6556668, "name": "Vorbach", "state": "", "country": "DE", "coord": {"lon": 11.75, "lat": 49.8167}}, {"id": 6556669, "name": "Weiherhammer", "state": "", "country": "DE", "coord": {"lon": 12.0667, "lat": 49.633301}}, {"id": 6556670, "name": "Bechtsrieth", "state": "", "country": "DE", "coord": {"lon": 12.2167, "lat": 49.650002}}, {"id": 6556671, "name": "Alteglofsheim", "state": "", "country": "DE", "coord": {"lon": 12.2, "lat": 48.916698}}, {"id": 6556672, "name": "Altenthann", "state": "", "country": "DE", "coord": {"lon": 12.3, "lat": 49.099998}}, {"id": 6556673, "name": "Aufhausen", "state": "", "country": "DE", "coord": {"lon": 12.2833, "lat": 48.866699}}, {"id": 6556674, "name": "Barbing", "state": "", "country": "DE", "coord": {"lon": 12.1974, "lat": 49.002102}}, {"id": 6556675, "name": "Bernhardswald", "state": "", "country": "DE", "coord": {"lon": 12.25, "lat": 49.099998}}, {"id": 6556676, "name": "Brennberg", "state": "", "country": "DE", "coord": {"lon": 12.4, "lat": 49.0667}}, {"id": 6556677, "name": "Brunn", "state": "", "country": "DE", "coord": {"lon": 11.9, "lat": 49.099998}}, {"id": 6556678, "name": "Deuerling", "state": "", "country": "DE", "coord": {"lon": 11.9, "lat": 49.033298}}, {"id": 6556679, "name": "Duggendorf", "state": "", "country": "DE", "coord": {"lon": 11.9167, "lat": 49.116699}}, {"id": 6556680, "name": "Hagelstadt", "state": "", "country": "DE", "coord": {"lon": 12.2167, "lat": 48.900002}}, {"id": 6556681, "name": "K\u00f6fering", "state": "", "country": "DE", "coord": {"lon": 12.2, "lat": 48.9333}}, {"id": 6556682, "name": "Mintraching", "state": "", "country": "DE", "coord": {"lon": 12.2333, "lat": 48.950001}}, {"id": 6556683, "name": "M\u00f6tzing", "state": "", "country": "DE", "coord": {"lon": 12.3667, "lat": 48.900002}}, {"id": 6556684, "name": "Obertraubling", "state": "", "country": "DE", "coord": {"lon": 12.175, "lat": 48.971298}}, {"id": 6556685, "name": "Pentling", "state": "", "country": "DE", "coord": {"lon": 12.0667, "lat": 48.983299}}, {"id": 6556686, "name": "Pettendorf", "state": "", "country": "DE", "coord": {"lon": 12.0, "lat": 49.0667}}, {"id": 6556687, "name": "Pfakofen", "state": "", "country": "DE", "coord": {"lon": 12.2167, "lat": 48.866699}}, {"id": 6556688, "name": "Pfatter", "state": "", "country": "DE", "coord": {"lon": 12.3833, "lat": 48.966702}}, {"id": 6556689, "name": "Pielenhofen", "state": "", "country": "DE", "coord": {"lon": 11.9575, "lat": 49.07201}}, {"id": 6556690, "name": "Riekofen", "state": "", "country": "DE", "coord": {"lon": 12.35, "lat": 48.916698}}, {"id": 6556691, "name": "Sinzing", "state": "", "country": "DE", "coord": {"lon": 12.0333, "lat": 49.0}}, {"id": 6556692, "name": "S\u00fcnching", "state": "", "country": "DE", "coord": {"lon": 12.35, "lat": 48.883301}}, {"id": 6556693, "name": "Tegernheim", "state": "", "country": "DE", "coord": {"lon": 12.1833, "lat": 49.016701}}, {"id": 6556694, "name": "Thalmassing", "state": "", "country": "DE", "coord": {"lon": 12.1667, "lat": 48.916698}}, {"id": 6556695, "name": "Wenzenbach", "state": "", "country": "DE", "coord": {"lon": 12.1942, "lat": 49.0756}}, {"id": 6556696, "name": "Wiesent", "state": "", "country": "DE", "coord": {"lon": 12.3833, "lat": 49.016701}}, {"id": 6556697, "name": "Wolfsegg", "state": "", "country": "DE", "coord": {"lon": 11.97647, "lat": 49.107079}}, {"id": 6556698, "name": "Zeitlarn", "state": "", "country": "DE", "coord": {"lon": 12.1, "lat": 49.083302}}, {"id": 6556699, "name": "Altendorf", "state": "", "country": "DE", "coord": {"lon": 12.2833, "lat": 49.400002}}, {"id": 6556700, "name": "Bodenw\u00f6hr", "state": "", "country": "DE", "coord": {"lon": 12.3167, "lat": 49.266701}}, {"id": 6556701, "name": "Dieterskirchen", "state": "", "country": "DE", "coord": {"lon": 12.4167, "lat": 49.416698}}, {"id": 6556702, "name": "Gleiritsch", "state": "", "country": "DE", "coord": {"lon": 12.3333, "lat": 49.5}}, {"id": 6556703, "name": "Guteneck", "state": "", "country": "DE", "coord": {"lon": 12.2833, "lat": 49.450001}}, {"id": 6556704, "name": "Niedermurach", "state": "", "country": "DE", "coord": {"lon": 12.3667, "lat": 49.450001}}, {"id": 6556705, "name": "Schmidgaden", "state": "", "country": "DE", "coord": {"lon": 12.0833, "lat": 49.416698}}, {"id": 6556706, "name": "Stadlern", "state": "", "country": "DE", "coord": {"lon": 12.6167, "lat": 49.5}}, {"id": 6556707, "name": "Steinberg", "state": "", "country": "DE", "coord": {"lon": 12.1833, "lat": 49.283298}}, {"id": 6556708, "name": "Stulln", "state": "", "country": "DE", "coord": {"lon": 12.1333, "lat": 49.416698}}, {"id": 6556709, "name": "Teunz", "state": "", "country": "DE", "coord": {"lon": 12.3833, "lat": 49.483299}}, {"id": 6556710, "name": "Thanstein", "state": "", "country": "DE", "coord": {"lon": 12.46965, "lat": 49.379688}}, {"id": 6556711, "name": "Trausnitz", "state": "", "country": "DE", "coord": {"lon": 12.2667, "lat": 49.516701}}, {"id": 6556712, "name": "Wackersdorf", "state": "", "country": "DE", "coord": {"lon": 12.1833, "lat": 49.3167}}, {"id": 6556713, "name": "Weiding", "state": "", "country": "DE", "coord": {"lon": 12.5667, "lat": 49.483299}}, {"id": 6556714, "name": "Brand", "state": "", "country": "DE", "coord": {"lon": 11.9, "lat": 49.950001}}, {"id": 6556715, "name": "Ebnath", "state": "", "country": "DE", "coord": {"lon": 11.9333, "lat": 49.950001}}, {"id": 6556716, "name": "Friedenfels", "state": "", "country": "DE", "coord": {"lon": 12.1167, "lat": 49.883301}}, {"id": 6556717, "name": "Immenreuth", "state": "", "country": "DE", "coord": {"lon": 11.8667, "lat": 49.900002}}, {"id": 6556718, "name": "Kastl", "state": "", "country": "DE", "coord": {"lon": 11.9, "lat": 49.833302}}, {"id": 6556719, "name": "Krummennaab", "state": "", "country": "DE", "coord": {"lon": 12.1, "lat": 49.833302}}, {"id": 6556720, "name": "Kulmain", "state": "", "country": "DE", "coord": {"lon": 11.9, "lat": 49.900002}}, {"id": 6556721, "name": "Leonberg", "state": "", "country": "DE", "coord": {"lon": 12.28246, "lat": 49.948292}}, {"id": 6556722, "name": "Neusorg", "state": "", "country": "DE", "coord": {"lon": 11.9667, "lat": 49.9333}}, {"id": 6556723, "name": "Pechbrunn", "state": "", "country": "DE", "coord": {"lon": 12.1667, "lat": 49.966702}}, {"id": 6556724, "name": "Pullenreuth", "state": "", "country": "DE", "coord": {"lon": 11.9981, "lat": 49.93045}}, {"id": 6556729, "name": "Altendorf", "state": "", "country": "DE", "coord": {"lon": 11.0167, "lat": 49.799999}}, {"id": 6556730, "name": "Bischberg", "state": "", "country": "DE", "coord": {"lon": 10.823, "lat": 49.914501}}, {"id": 6556731, "name": "Breiteng\u00fc\u00dfbach", "state": "", "country": "DE", "coord": {"lon": 10.8667, "lat": 49.950001}}, {"id": 6556732, "name": "Frensdorf", "state": "", "country": "DE", "coord": {"lon": 10.8667, "lat": 49.8167}}, {"id": 6556733, "name": "Gerach", "state": "", "country": "DE", "coord": {"lon": 10.80535, "lat": 50.032108}}, {"id": 6556734, "name": "Gundelsheim", "state": "", "country": "DE", "coord": {"lon": 10.9167, "lat": 49.9333}}, {"id": 6556735, "name": "Kemmern", "state": "", "country": "DE", "coord": {"lon": 10.8667, "lat": 49.950001}}, {"id": 6556736, "name": "K\u00f6nigsfeld", "state": "", "country": "DE", "coord": {"lon": 11.1667, "lat": 49.950001}}, {"id": 6556737, "name": "Lauter", "state": "", "country": "DE", "coord": {"lon": 10.7833, "lat": 49.966702}}, {"id": 6556739, "name": "Litzendorf", "state": "", "country": "DE", "coord": {"lon": 11.0103, "lat": 49.914398}}, {"id": 6556740, "name": "Memmelsdorf", "state": "", "country": "DE", "coord": {"lon": 10.95, "lat": 49.9333}}, {"id": 6556741, "name": "Oberhaid", "state": "", "country": "DE", "coord": {"lon": 10.8167, "lat": 49.9333}}, {"id": 6556742, "name": "Pettstadt", "state": "", "country": "DE", "coord": {"lon": 10.92719, "lat": 49.829842}}, {"id": 6556743, "name": "Pommersfelden", "state": "", "country": "DE", "coord": {"lon": 10.8167, "lat": 49.766701}}, {"id": 6556744, "name": "Priesendorf", "state": "", "country": "DE", "coord": {"lon": 10.7167, "lat": 49.900002}}, {"id": 6556745, "name": "Reckendorf", "state": "", "country": "DE", "coord": {"lon": 10.8272, "lat": 50.014702}}, {"id": 6556746, "name": "Stadelhofen", "state": "", "country": "DE", "coord": {"lon": 11.19759, "lat": 50.003151}}, {"id": 6556747, "name": "Stegaurach", "state": "", "country": "DE", "coord": {"lon": 10.8333, "lat": 49.866699}}, {"id": 6556748, "name": "Strullendorf", "state": "", "country": "DE", "coord": {"lon": 10.9622, "lat": 49.8452}}, {"id": 6556749, "name": "Viereth-Trunstadt", "state": "", "country": "DE", "coord": {"lon": 10.76317, "lat": 49.92371}}, {"id": 6556750, "name": "Walsdorf", "state": "", "country": "DE", "coord": {"lon": 10.7833, "lat": 49.866699}}, {"id": 6556751, "name": "Wattendorf", "state": "", "country": "DE", "coord": {"lon": 11.1333, "lat": 50.033298}}, {"id": 6556752, "name": "Aufse\u00df", "state": "", "country": "DE", "coord": {"lon": 11.2167, "lat": 49.900002}}, {"id": 6556753, "name": "Bindlach", "state": "", "country": "DE", "coord": {"lon": 11.5924, "lat": 50.007}}, {"id": 6556754, "name": "Bischofsgr\u00fcn", "state": "", "country": "DE", "coord": {"lon": 11.7933, "lat": 50.049301}}, {"id": 6556755, "name": "Eckersdorf", "state": "", "country": "DE", "coord": {"lon": 11.50167, "lat": 49.932949}}, {"id": 6556756, "name": "Emtmannsberg", "state": "", "country": "DE", "coord": {"lon": 11.65, "lat": 49.900002}}, {"id": 6556757, "name": "Fichtelberg", "state": "", "country": "DE", "coord": {"lon": 11.85, "lat": 50.016701}}, {"id": 6556758, "name": "Gesees", "state": "", "country": "DE", "coord": {"lon": 11.5333, "lat": 49.900002}}, {"id": 6556759, "name": "Glash\u00fctten", "state": "", "country": "DE", "coord": {"lon": 11.44887, "lat": 49.887058}}, {"id": 6556760, "name": "Haag", "state": "", "country": "DE", "coord": {"lon": 11.5667, "lat": 49.866699}}, {"id": 6556761, "name": "Heinersreuth", "state": "", "country": "DE", "coord": {"lon": 11.5333, "lat": 49.966702}}, {"id": 6556762, "name": "Kirchenpingarten", "state": "", "country": "DE", "coord": {"lon": 11.7833, "lat": 49.9333}}, {"id": 6556763, "name": "Mehlmeisel", "state": "", "country": "DE", "coord": {"lon": 11.85, "lat": 49.966702}}, {"id": 6556764, "name": "Mistelbach", "state": "", "country": "DE", "coord": {"lon": 11.5167, "lat": 49.916698}}, {"id": 6556765, "name": "Mistelgau", "state": "", "country": "DE", "coord": {"lon": 11.4667, "lat": 49.916698}}, {"id": 6556766, "name": "Prebitz", "state": "", "country": "DE", "coord": {"lon": 11.6833, "lat": 49.833302}}, {"id": 6556767, "name": "Seybothenreuth", "state": "", "country": "DE", "coord": {"lon": 11.7167, "lat": 49.900002}}, {"id": 6556768, "name": "Speichersdorf", "state": "", "country": "DE", "coord": {"lon": 11.7833, "lat": 49.883301}}, {"id": 6556769, "name": "Warmensteinach", "state": "", "country": "DE", "coord": {"lon": 11.7833, "lat": 49.983299}}, {"id": 6556770, "name": "Ahorn", "state": "", "country": "DE", "coord": {"lon": 10.927, "lat": 50.224998}}, {"id": 6556772, "name": "Gro\u00dfheirath", "state": "", "country": "DE", "coord": {"lon": 10.95, "lat": 50.1833}}, {"id": 6556773, "name": "Lautertal", "state": "", "country": "DE", "coord": {"lon": 10.9667, "lat": 50.333302}}, {"id": 6556774, "name": "Meeder", "state": "", "country": "DE", "coord": {"lon": 10.901, "lat": 50.333401}}, {"id": 6556775, "name": "Niederf\u00fcllbach", "state": "", "country": "DE", "coord": {"lon": 10.9833, "lat": 50.216702}}, {"id": 6556776, "name": "Sonnefeld", "state": "", "country": "DE", "coord": {"lon": 11.13095, "lat": 50.217949}}, {"id": 6556777, "name": "Untersiemau", "state": "", "country": "DE", "coord": {"lon": 10.98995, "lat": 50.186199}}, {"id": 6556778, "name": "Weitramsdorf", "state": "", "country": "DE", "coord": {"lon": 10.8833, "lat": 50.25}}, {"id": 6556779, "name": "Dormitz", "state": "", "country": "DE", "coord": {"lon": 11.1167, "lat": 49.599998}}, {"id": 6556780, "name": "Effeltrich", "state": "", "country": "DE", "coord": {"lon": 11.0908, "lat": 49.662201}}, {"id": 6556781, "name": "Hallerndorf", "state": "", "country": "DE", "coord": {"lon": 10.9833, "lat": 49.766701}}, {"id": 6556782, "name": "Hausen", "state": "", "country": "DE", "coord": {"lon": 11.0333, "lat": 49.6833}}, {"id": 6556783, "name": "Heroldsbach", "state": "", "country": "DE", "coord": {"lon": 10.99809, "lat": 49.693539}}, {"id": 6556784, "name": "Hetzles", "state": "", "country": "DE", "coord": {"lon": 11.12864, "lat": 49.634171}}, {"id": 6556785, "name": "Kirchehrenbach", "state": "", "country": "DE", "coord": {"lon": 11.15, "lat": 49.733299}}, {"id": 6556786, "name": "Kleinsendelbach", "state": "", "country": "DE", "coord": {"lon": 11.15816, "lat": 49.595131}}, {"id": 6556787, "name": "Kunreuth", "state": "", "country": "DE", "coord": {"lon": 11.15, "lat": 49.6833}}, {"id": 6556788, "name": "Langensendelbach", "state": "", "country": "DE", "coord": {"lon": 11.0667, "lat": 49.650002}}, {"id": 6556789, "name": "Leutenbach", "state": "", "country": "DE", "coord": {"lon": 11.1667, "lat": 49.716702}}, {"id": 6556790, "name": "Obertrubach", "state": "", "country": "DE", "coord": {"lon": 11.35, "lat": 49.700001}}, {"id": 6556791, "name": "Pinzberg", "state": "", "country": "DE", "coord": {"lon": 11.1, "lat": 49.700001}}, {"id": 6556792, "name": "Poxdorf", "state": "", "country": "DE", "coord": {"lon": 11.0667, "lat": 49.666698}}, {"id": 6556793, "name": "Unterleinleiter", "state": "", "country": "DE", "coord": {"lon": 11.1833, "lat": 49.8167}}, {"id": 6556794, "name": "Weilersbach", "state": "", "country": "DE", "coord": {"lon": 11.1167, "lat": 49.75}}, {"id": 6556795, "name": "Wei\u00dfenohe", "state": "", "country": "DE", "coord": {"lon": 11.25566, "lat": 49.630001}}, {"id": 6556796, "name": "Wiesenthau", "state": "", "country": "DE", "coord": {"lon": 11.1333, "lat": 49.716702}}, {"id": 6556797, "name": "Berg", "state": "", "country": "DE", "coord": {"lon": 11.7833, "lat": 50.383301}}, {"id": 6556798, "name": "D\u00f6hlau", "state": "", "country": "DE", "coord": {"lon": 11.95, "lat": 50.283298}}, {"id": 6556799, "name": "Feilitzsch", "state": "", "country": "DE", "coord": {"lon": 11.9333, "lat": 50.366699}}, {"id": 6556800, "name": "Gattendorf", "state": "", "country": "DE", "coord": {"lon": 12.0167, "lat": 50.3167}}, {"id": 6556801, "name": "Geroldsgr\u00fcn", "state": "", "country": "DE", "coord": {"lon": 11.6, "lat": 50.333302}}, {"id": 6556802, "name": "Issigau", "state": "", "country": "DE", "coord": {"lon": 11.72224, "lat": 50.375771}}, {"id": 6556803, "name": "K\u00f6ditz", "state": "", "country": "DE", "coord": {"lon": 11.85, "lat": 50.333302}}, {"id": 6556804, "name": "Konradsreuth", "state": "", "country": "DE", "coord": {"lon": 11.85, "lat": 50.266701}}, {"id": 6556805, "name": "Leupoldsgr\u00fcn", "state": "", "country": "DE", "coord": {"lon": 11.8, "lat": 50.299999}}, {"id": 6556806, "name": "Regnitzlosau", "state": "", "country": "DE", "coord": {"lon": 12.05, "lat": 50.299999}}, {"id": 6556807, "name": "T\u00f6pen", "state": "", "country": "DE", "coord": {"lon": 11.8667, "lat": 50.383301}}, {"id": 6556808, "name": "Wei\u00dfdorf", "state": "", "country": "DE", "coord": {"lon": 11.85, "lat": 50.1833}}, {"id": 6556809, "name": "Reichenbach", "state": "", "country": "DE", "coord": {"lon": 11.4119, "lat": 50.4226}}, {"id": 6556810, "name": "Schneckenlohe", "state": "", "country": "DE", "coord": {"lon": 11.2, "lat": 50.216702}}, {"id": 6556811, "name": "Stockheim", "state": "", "country": "DE", "coord": {"lon": 11.2667, "lat": 50.299999}}, {"id": 6556812, "name": "Tschirn", "state": "", "country": "DE", "coord": {"lon": 11.45, "lat": 50.400002}}, {"id": 6556813, "name": "Wei\u00dfenbrunn", "state": "", "country": "DE", "coord": {"lon": 11.345, "lat": 50.201698}}, {"id": 6556814, "name": "Wilhelmsthal", "state": "", "country": "DE", "coord": {"lon": 11.3806, "lat": 50.320099}}, {"id": 6556816, "name": "Harsdorf", "state": "", "country": "DE", "coord": {"lon": 11.5667, "lat": 50.033298}}, {"id": 6556817, "name": "Himmelkron", "state": "", "country": "DE", "coord": {"lon": 11.6103, "lat": 50.055351}}, {"id": 6556818, "name": "K\u00f6dnitz", "state": "", "country": "DE", "coord": {"lon": 11.5333, "lat": 50.099998}}, {"id": 6556819, "name": "Neudrossenfeld", "state": "", "country": "DE", "coord": {"lon": 11.5, "lat": 50.016701}}, {"id": 6556820, "name": "Neuenmarkt", "state": "", "country": "DE", "coord": {"lon": 11.6, "lat": 50.099998}}, {"id": 6556821, "name": "Rugendorf", "state": "", "country": "DE", "coord": {"lon": 11.4667, "lat": 50.200001}}, {"id": 6556822, "name": "Trebgast", "state": "", "country": "DE", "coord": {"lon": 11.55, "lat": 50.0667}}, {"id": 6556823, "name": "Untersteinach", "state": "", "country": "DE", "coord": {"lon": 11.5167, "lat": 50.133301}}, {"id": 6556824, "name": "Altenkunstadt", "state": "", "country": "DE", "coord": {"lon": 11.25, "lat": 50.133301}}, {"id": 6556825, "name": "Bad Alexandersbad", "state": "", "country": "DE", "coord": {"lon": 12.0167, "lat": 50.016701}}, {"id": 6556826, "name": "Nagel", "state": "", "country": "DE", "coord": {"lon": 11.9167, "lat": 49.983299}}, {"id": 6556827, "name": "R\u00f6slau", "state": "", "country": "DE", "coord": {"lon": 11.9833, "lat": 50.083302}}, {"id": 6556828, "name": "Tr\u00f6stau", "state": "", "country": "DE", "coord": {"lon": 11.95, "lat": 50.016701}}, {"id": 6556834, "name": "Adelshofen", "state": "", "country": "DE", "coord": {"lon": 10.1667, "lat": 49.4333}}, {"id": 6556835, "name": "Aurach", "state": "", "country": "DE", "coord": {"lon": 10.4155, "lat": 49.2477}}, {"id": 6556836, "name": "Bruckberg", "state": "", "country": "DE", "coord": {"lon": 10.7, "lat": 49.349998}}, {"id": 6556837, "name": "Burgoberbach", "state": "", "country": "DE", "coord": {"lon": 10.5833, "lat": 49.233299}}, {"id": 6556838, "name": "Diebach", "state": "", "country": "DE", "coord": {"lon": 10.1833, "lat": 49.299999}}, {"id": 6556839, "name": "Ehingen", "state": "", "country": "DE", "coord": {"lon": 10.5333, "lat": 49.083302}}, {"id": 6556840, "name": "Gebsattel", "state": "", "country": "DE", "coord": {"lon": 10.2, "lat": 49.349998}}, {"id": 6556841, "name": "Gerolfingen", "state": "", "country": "DE", "coord": {"lon": 10.5167, "lat": 49.049999}}, {"id": 6556842, "name": "Geslau", "state": "", "country": "DE", "coord": {"lon": 10.3, "lat": 49.366699}}, {"id": 6556843, "name": "Insingen", "state": "", "country": "DE", "coord": {"lon": 10.1667, "lat": 49.299999}}, {"id": 6556844, "name": "Langfurth", "state": "", "country": "DE", "coord": {"lon": 10.45, "lat": 49.099998}}, {"id": 6556845, "name": "Mitteleschenbach", "state": "", "country": "DE", "coord": {"lon": 10.7833, "lat": 49.216702}}, {"id": 6556846, "name": "M\u00f6nchsroth", "state": "", "country": "DE", "coord": {"lon": 10.3667, "lat": 49.016701}}, {"id": 6556847, "name": "Neuendettelsau", "state": "", "country": "DE", "coord": {"lon": 10.7833, "lat": 49.283298}}, {"id": 6556848, "name": "Oberdachstetten", "state": "", "country": "DE", "coord": {"lon": 10.4333, "lat": 49.416698}}, {"id": 6556849, "name": "Ohrenbach", "state": "", "country": "DE", "coord": {"lon": 10.2088, "lat": 49.469898}}, {"id": 6556850, "name": "Petersaurach", "state": "", "country": "DE", "coord": {"lon": 10.75, "lat": 49.299999}}, {"id": 6556851, "name": "R\u00f6ckingen", "state": "", "country": "DE", "coord": {"lon": 10.5667, "lat": 49.049999}}, {"id": 6556852, "name": "R\u00fcgland", "state": "", "country": "DE", "coord": {"lon": 10.5833, "lat": 49.400002}}, {"id": 6556853, "name": "Schnelldorf", "state": "", "country": "DE", "coord": {"lon": 10.2321, "lat": 49.170502}}, {"id": 6556854, "name": "Steinsfeld", "state": "", "country": "DE", "coord": {"lon": 10.2167, "lat": 49.416698}}, {"id": 6556855, "name": "Unterschwaningen", "state": "", "country": "DE", "coord": {"lon": 10.6333, "lat": 49.083302}}, {"id": 6556856, "name": "Weihenzell", "state": "", "country": "DE", "coord": {"lon": 10.6167, "lat": 49.349998}}, {"id": 6556857, "name": "Wettringen", "state": "", "country": "DE", "coord": {"lon": 10.15, "lat": 49.25}}, {"id": 6556858, "name": "Wieseth", "state": "", "country": "DE", "coord": {"lon": 10.4833, "lat": 49.166698}}, {"id": 6556859, "name": "Wilburgstetten", "state": "", "country": "DE", "coord": {"lon": 10.4017, "lat": 49.014198}}, {"id": 6556860, "name": "Windelsbach", "state": "", "country": "DE", "coord": {"lon": 10.3, "lat": 49.400002}}, {"id": 6556861, "name": "Wittelshofen", "state": "", "country": "DE", "coord": {"lon": 10.4833, "lat": 49.0667}}, {"id": 6556862, "name": "Adelsdorf", "state": "", "country": "DE", "coord": {"lon": 10.9, "lat": 49.716702}}, {"id": 6556863, "name": "Bubenreuth", "state": "", "country": "DE", "coord": {"lon": 11.0167, "lat": 49.633301}}, {"id": 6556864, "name": "Buckenhof", "state": "", "country": "DE", "coord": {"lon": 11.04959, "lat": 49.5933}}, {"id": 6556865, "name": "Gremsdorf", "state": "", "country": "DE", "coord": {"lon": 10.83389, "lat": 49.697948}}, {"id": 6556866, "name": "Gro\u00dfenseebach", "state": "", "country": "DE", "coord": {"lon": 10.87483, "lat": 49.632561}}, {"id": 6556867, "name": "Hemhofen", "state": "", "country": "DE", "coord": {"lon": 10.9386, "lat": 49.686901}}, {"id": 6556868, "name": "He\u00dfdorf", "state": "", "country": "DE", "coord": {"lon": 10.90968, "lat": 49.627281}}, {"id": 6556869, "name": "Kalchreuth", "state": "", "country": "DE", "coord": {"lon": 11.1333, "lat": 49.5667}}, {"id": 6556870, "name": "Marloffstein", "state": "", "country": "DE", "coord": {"lon": 11.0667, "lat": 49.616699}}, {"id": 6556871, "name": "M\u00f6hrendorf", "state": "", "country": "DE", "coord": {"lon": 11.0094, "lat": 49.6511}}, {"id": 6556872, "name": "Oberreichenbach", "state": "", "country": "DE", "coord": {"lon": 10.76986, "lat": 49.589008}}, {"id": 6556873, "name": "R\u00f6ttenbach", "state": "", "country": "DE", "coord": {"lon": 10.91835, "lat": 49.66507}}, {"id": 6556874, "name": "Spardorf", "state": "", "country": "DE", "coord": {"lon": 11.05, "lat": 49.616699}}, {"id": 6556875, "name": "Uttenreuth", "state": "", "country": "DE", "coord": {"lon": 11.07104, "lat": 49.596859}}, {"id": 6556876, "name": "Gro\u00dfhabersdorf", "state": "", "country": "DE", "coord": {"lon": 10.7854, "lat": 49.413399}}, {"id": 6556877, "name": "Obermichelbach", "state": "", "country": "DE", "coord": {"lon": 10.90942, "lat": 49.530891}}, {"id": 6556878, "name": "Puschendorf", "state": "", "country": "DE", "coord": {"lon": 10.83303, "lat": 49.524151}}, {"id": 6556879, "name": "Seukendorf", "state": "", "country": "DE", "coord": {"lon": 10.8833, "lat": 49.483299}}, {"id": 6556880, "name": "Tuchenbach", "state": "", "country": "DE", "coord": {"lon": 10.86488, "lat": 49.52916}}, {"id": 6556881, "name": "Veitsbronn", "state": "", "country": "DE", "coord": {"lon": 10.8936, "lat": 49.5047}}, {"id": 6556882, "name": "Alfeld", "state": "", "country": "DE", "coord": {"lon": 11.54328, "lat": 49.430241}}, {"id": 6556883, "name": "Burgthann", "state": "", "country": "DE", "coord": {"lon": 11.31223, "lat": 49.351238}}, {"id": 6556884, "name": "Engelthal", "state": "", "country": "DE", "coord": {"lon": 11.39986, "lat": 49.471809}}, {"id": 6556885, "name": "Happurg", "state": "", "country": "DE", "coord": {"lon": 11.4705, "lat": 49.494221}}, {"id": 6556886, "name": "Hartenstein", "state": "", "country": "DE", "coord": {"lon": 11.5167, "lat": 49.599998}}, {"id": 6556887, "name": "Henfenfeld", "state": "", "country": "DE", "coord": {"lon": 11.39042, "lat": 49.498119}}, {"id": 6556888, "name": "Kirchensittenbach", "state": "", "country": "DE", "coord": {"lon": 11.42243, "lat": 49.556011}}, {"id": 6556889, "name": "Leinburg", "state": "", "country": "DE", "coord": {"lon": 11.31, "lat": 49.451698}}, {"id": 6556890, "name": "Offenhausen", "state": "", "country": "DE", "coord": {"lon": 11.41351, "lat": 49.449162}}, {"id": 6556891, "name": "Ottensoos", "state": "", "country": "DE", "coord": {"lon": 11.34047, "lat": 49.50988}}, {"id": 6556892, "name": "Pommelsbrunn", "state": "", "country": "DE", "coord": {"lon": 11.5167, "lat": 49.5}}, {"id": 6556893, "name": "Reichenschwand", "state": "", "country": "DE", "coord": {"lon": 11.3833, "lat": 49.516701}}, {"id": 6556894, "name": "R\u00fcckersdorf", "state": "", "country": "DE", "coord": {"lon": 11.2374, "lat": 49.492199}}, {"id": 6556895, "name": "Schwarzenbruck", "state": "", "country": "DE", "coord": {"lon": 11.25175, "lat": 49.360199}}, {"id": 6556896, "name": "Simmelsdorf", "state": "", "country": "DE", "coord": {"lon": 11.34047, "lat": 49.597359}}, {"id": 6556897, "name": "Vorra", "state": "", "country": "DE", "coord": {"lon": 11.49359, "lat": 49.557678}}, {"id": 6556898, "name": "Winkelhaid", "state": "", "country": "DE", "coord": {"lon": 11.3, "lat": 49.383301}}, {"id": 6556899, "name": "Diespeck", "state": "", "country": "DE", "coord": {"lon": 10.6268, "lat": 49.595699}}, {"id": 6556900, "name": "Dietersheim", "state": "", "country": "DE", "coord": {"lon": 10.5333, "lat": 49.5667}}, {"id": 6556901, "name": "Ergersheim", "state": "", "country": "DE", "coord": {"lon": 10.3333, "lat": 49.516701}}, {"id": 6556902, "name": "Gallmersgarten", "state": "", "country": "DE", "coord": {"lon": 10.2667, "lat": 49.450001}}, {"id": 6556903, "name": "Gerhardshofen", "state": "", "country": "DE", "coord": {"lon": 10.7065, "lat": 49.619999}}, {"id": 6556904, "name": "Gollhofen", "state": "", "country": "DE", "coord": {"lon": 10.1252, "lat": 49.581402}}, {"id": 6556905, "name": "Gutenstetten", "state": "", "country": "DE", "coord": {"lon": 10.6333, "lat": 49.616699}}, {"id": 6556906, "name": "Hagenb\u00fcchach", "state": "", "country": "DE", "coord": {"lon": 10.7667, "lat": 49.533298}}, {"id": 6556907, "name": "Hemmersheim", "state": "", "country": "DE", "coord": {"lon": 10.1, "lat": 49.5667}}, {"id": 6556908, "name": "Illesheim", "state": "", "country": "DE", "coord": {"lon": 10.3833, "lat": 49.466702}}, {"id": 6556909, "name": "Langenfeld", "state": "", "country": "DE", "coord": {"lon": 10.5167, "lat": 49.616699}}, {"id": 6556914, "name": "M\u00fcnchsteinach", "state": "", "country": "DE", "coord": {"lon": 10.6, "lat": 49.633301}}, {"id": 6556915, "name": "Oberickelsheim", "state": "", "country": "DE", "coord": {"lon": 10.1333, "lat": 49.599998}}, {"id": 6556916, "name": "Simmershofen", "state": "", "country": "DE", "coord": {"lon": 10.1333, "lat": 49.533298}}, {"id": 6556917, "name": "Trautskirchen", "state": "", "country": "DE", "coord": {"lon": 10.6, "lat": 49.450001}}, {"id": 6556918, "name": "Weigenheim", "state": "", "country": "DE", "coord": {"lon": 10.2667, "lat": 49.5667}}, {"id": 6556919, "name": "Wilhelmsdorf", "state": "", "country": "DE", "coord": {"lon": 10.73819, "lat": 49.56414}}, {"id": 6556920, "name": "B\u00fcchenbach", "state": "", "country": "DE", "coord": {"lon": 11.0589, "lat": 49.267799}}, {"id": 6556921, "name": "Georgensgm\u00fcnd", "state": "", "country": "DE", "coord": {"lon": 11.0121, "lat": 49.180401}}, {"id": 6556922, "name": "Kammerstein", "state": "", "country": "DE", "coord": {"lon": 10.97388, "lat": 49.292889}}, {"id": 6556923, "name": "Rednitzhembach", "state": "", "country": "DE", "coord": {"lon": 11.0703, "lat": 49.305302}}, {"id": 6556924, "name": "R\u00f6ttenbach", "state": "", "country": "DE", "coord": {"lon": 11.032, "lat": 49.151501}}, {"id": 6556925, "name": "Rohr", "state": "", "country": "DE", "coord": {"lon": 10.8833, "lat": 49.349998}}, {"id": 6556926, "name": "Alesheim", "state": "", "country": "DE", "coord": {"lon": 10.8667, "lat": 49.049999}}, {"id": 6556927, "name": "Bergen", "state": "", "country": "DE", "coord": {"lon": 11.1167, "lat": 49.083302}}, {"id": 6556928, "name": "Burgsalach", "state": "", "country": "DE", "coord": {"lon": 11.1, "lat": 49.033298}}, {"id": 6556929, "name": "Dittenheim", "state": "", "country": "DE", "coord": {"lon": 10.8, "lat": 49.049999}}, {"id": 6556930, "name": "Haundorf", "state": "", "country": "DE", "coord": {"lon": 10.7667, "lat": 49.1833}}, {"id": 6556931, "name": "H\u00f6ttingen", "state": "", "country": "DE", "coord": {"lon": 11.0167, "lat": 49.0667}}, {"id": 6556932, "name": "Langenaltheim", "state": "", "country": "DE", "coord": {"lon": 10.9333, "lat": 48.900002}}, {"id": 6556934, "name": "Pfofeld", "state": "", "country": "DE", "coord": {"lon": 10.8333, "lat": 49.116699}}, {"id": 6556935, "name": "Polsingen", "state": "", "country": "DE", "coord": {"lon": 10.7167, "lat": 48.9333}}, {"id": 6556936, "name": "Raitenbuch", "state": "", "country": "DE", "coord": {"lon": 11.1333, "lat": 49.016701}}, {"id": 6556937, "name": "Solnhofen", "state": "", "country": "DE", "coord": {"lon": 11.0, "lat": 48.900002}}, {"id": 6556939, "name": "Westheim", "state": "", "country": "DE", "coord": {"lon": 10.6667, "lat": 49.0}}, {"id": 6556943, "name": "Blankenbach", "state": "", "country": "DE", "coord": {"lon": 9.23333, "lat": 50.0667}}, {"id": 6556944, "name": "Geiselbach", "state": "", "country": "DE", "coord": {"lon": 9.2, "lat": 50.116699}}, {"id": 6556945, "name": "Glattbach", "state": "", "country": "DE", "coord": {"lon": 9.15, "lat": 50.0}}, {"id": 6556946, "name": "Haibach", "state": "", "country": "DE", "coord": {"lon": 9.204, "lat": 49.9646}}, {"id": 6556947, "name": "Heigenbr\u00fccken", "state": "", "country": "DE", "coord": {"lon": 9.3754, "lat": 50.027802}}, {"id": 6556948, "name": "Heimbuchenthal", "state": "", "country": "DE", "coord": {"lon": 9.29556, "lat": 49.889198}}, {"id": 6556949, "name": "Heinrichsthal", "state": "", "country": "DE", "coord": {"lon": 9.35, "lat": 50.0667}}, {"id": 6556950, "name": "Johannesberg", "state": "", "country": "DE", "coord": {"lon": 9.13333, "lat": 50.033298}}, {"id": 6556951, "name": "Kleinostheim", "state": "", "country": "DE", "coord": {"lon": 9.06195, "lat": 50.002701}}, {"id": 6556952, "name": "Krombach", "state": "", "country": "DE", "coord": {"lon": 9.21667, "lat": 50.083302}}, {"id": 6556953, "name": "Laufach", "state": "", "country": "DE", "coord": {"lon": 9.2715, "lat": 50.008202}}, {"id": 6556954, "name": "Mainaschaff", "state": "", "country": "DE", "coord": {"lon": 9.09, "lat": 49.981701}}, {"id": 6556955, "name": "Mespelbrunn", "state": "", "country": "DE", "coord": {"lon": 9.2991, "lat": 49.9035}}, {"id": 6556956, "name": "Rothenbuch", "state": "", "country": "DE", "coord": {"lon": 9.39389, "lat": 49.965302}}, {"id": 6556957, "name": "Sailauf", "state": "", "country": "DE", "coord": {"lon": 9.25, "lat": 50.016701}}, {"id": 6556958, "name": "Sommerkahl", "state": "", "country": "DE", "coord": {"lon": 9.26667, "lat": 50.0667}}, {"id": 6556959, "name": "Waldaschaff", "state": "", "country": "DE", "coord": {"lon": 9.2768, "lat": 49.981899}}, {"id": 6556960, "name": "Weibersbrunn", "state": "", "country": "DE", "coord": {"lon": 9.3758, "lat": 49.9277}}, {"id": 6556961, "name": "Wiesen", "state": "", "country": "DE", "coord": {"lon": 9.36667, "lat": 50.116699}}, {"id": 6556962, "name": "Fuchsstadt", "state": "", "country": "DE", "coord": {"lon": 9.9262, "lat": 50.107601}}, {"id": 6556963, "name": "Motten", "state": "", "country": "DE", "coord": {"lon": 9.7684, "lat": 50.373402}}, {"id": 6556964, "name": "N\u00fcdlingen", "state": "", "country": "DE", "coord": {"lon": 10.125, "lat": 50.221699}}, {"id": 6556965, "name": "Oberleichtersbach", "state": "", "country": "DE", "coord": {"lon": 9.8, "lat": 50.283298}}, {"id": 6556966, "name": "Oerlenbach", "state": "", "country": "DE", "coord": {"lon": 10.1342, "lat": 50.143299}}, {"id": 6556967, "name": "Ramsthal", "state": "", "country": "DE", "coord": {"lon": 10.0667, "lat": 50.133301}}, {"id": 6556968, "name": "Rannungen", "state": "", "country": "DE", "coord": {"lon": 10.2167, "lat": 50.166698}}, {"id": 6556969, "name": "Riedenberg", "state": "", "country": "DE", "coord": {"lon": 9.85, "lat": 50.3167}}, {"id": 6556970, "name": "Wartmannsroth", "state": "", "country": "DE", "coord": {"lon": 9.78333, "lat": 50.166698}}, {"id": 6556971, "name": "Aubstadt", "state": "", "country": "DE", "coord": {"lon": 10.4333, "lat": 50.333302}}, {"id": 6556972, "name": "Bastheim", "state": "", "country": "DE", "coord": {"lon": 10.2, "lat": 50.400002}}, {"id": 6556973, "name": "Gro\u00dfbardorf", "state": "", "country": "DE", "coord": {"lon": 10.3667, "lat": 50.266701}}, {"id": 6556974, "name": "Gro\u00dfeibstadt", "state": "", "country": "DE", "coord": {"lon": 10.4167, "lat": 50.299999}}, {"id": 6556975, "name": "Hausen", "state": "", "country": "DE", "coord": {"lon": 10.125, "lat": 50.5056}}, {"id": 6556976, "name": "Hendungen", "state": "", "country": "DE", "coord": {"lon": 10.35, "lat": 50.400002}}, {"id": 6556977, "name": "Herbstadt", "state": "", "country": "DE", "coord": {"lon": 10.5, "lat": 50.333302}}, {"id": 6556978, "name": "Heustreu", "state": "", "country": "DE", "coord": {"lon": 10.25, "lat": 50.349998}}, {"id": 6556979, "name": "H\u00f6chheim", "state": "", "country": "DE", "coord": {"lon": 10.45, "lat": 50.366699}}, {"id": 6556980, "name": "Hohenroth", "state": "", "country": "DE", "coord": {"lon": 10.1833, "lat": 50.3167}}, {"id": 6556981, "name": "Hollstadt", "state": "", "country": "DE", "coord": {"lon": 10.3, "lat": 50.349998}}, {"id": 6556982, "name": "Niederlauer", "state": "", "country": "DE", "coord": {"lon": 10.1833, "lat": 50.283298}}, {"id": 6556983, "name": "Oberstreu", "state": "", "country": "DE", "coord": {"lon": 10.2833, "lat": 50.400002}}, {"id": 6556984, "name": "R\u00f6delmaier", "state": "", "country": "DE", "coord": {"lon": 10.2833, "lat": 50.3167}}, {"id": 6556985, "name": "Salz", "state": "", "country": "DE", "coord": {"lon": 10.2167, "lat": 50.299999}}, {"id": 6556986, "name": "Sandberg", "state": "", "country": "DE", "coord": {"lon": 10.0, "lat": 50.349998}}, {"id": 6556987, "name": "Stockheim", "state": "", "country": "DE", "coord": {"lon": 10.2833, "lat": 50.450001}}, {"id": 6556988, "name": "Strahlungen", "state": "", "country": "DE", "coord": {"lon": 10.2333, "lat": 50.283298}}, {"id": 6556989, "name": "Sulzfeld", "state": "", "country": "DE", "coord": {"lon": 10.40689, "lat": 50.259331}}, {"id": 6556990, "name": "Unsleben", "state": "", "country": "DE", "coord": {"lon": 10.2551, "lat": 50.374699}}, {"id": 6556991, "name": "Willmars", "state": "", "country": "DE", "coord": {"lon": 10.25, "lat": 50.5}}, {"id": 6556992, "name": "Wollbach", "state": "", "country": "DE", "coord": {"lon": 10.2333, "lat": 50.366699}}, {"id": 6556993, "name": "Burglauer", "state": "", "country": "DE", "coord": {"lon": 10.1833, "lat": 50.266701}}, {"id": 6556994, "name": "Aidhausen", "state": "", "country": "DE", "coord": {"lon": 10.4333, "lat": 50.150002}}, {"id": 6556995, "name": "Breitbrunn", "state": "", "country": "DE", "coord": {"lon": 10.7, "lat": 50.016701}}, {"id": 6556996, "name": "Bundorf", "state": "", "country": "DE", "coord": {"lon": 10.5167, "lat": 50.216702}}, {"id": 6556997, "name": "Ebelsbach", "state": "", "country": "DE", "coord": {"lon": 10.6919, "lat": 49.996201}}, {"id": 6556998, "name": "G\u00e4dheim", "state": "", "country": "DE", "coord": {"lon": 10.35, "lat": 50.033298}}, {"id": 6557000, "name": "Kirchlauter", "state": "", "country": "DE", "coord": {"lon": 10.7167, "lat": 50.049999}}, {"id": 6557001, "name": "Knetzgau", "state": "", "country": "DE", "coord": {"lon": 10.5553, "lat": 49.981899}}, {"id": 6557003, "name": "Pfarrweisach", "state": "", "country": "DE", "coord": {"lon": 10.7333, "lat": 50.150002}}, {"id": 6557004, "name": "Stettfeld", "state": "", "country": "DE", "coord": {"lon": 10.7167, "lat": 49.966702}}, {"id": 6557005, "name": "Untermerzbach", "state": "", "country": "DE", "coord": {"lon": 10.8578, "lat": 50.127571}}, {"id": 6557006, "name": "Wonfurt", "state": "", "country": "DE", "coord": {"lon": 10.4667, "lat": 50.016701}}, {"id": 6557007, "name": "Ermershausen", "state": "", "country": "DE", "coord": {"lon": 10.6167, "lat": 50.216702}}, {"id": 6557008, "name": "Albertshofen", "state": "", "country": "DE", "coord": {"lon": 10.1667, "lat": 49.766701}}, {"id": 6557009, "name": "Biebelried", "state": "", "country": "DE", "coord": {"lon": 10.0833, "lat": 49.766701}}, {"id": 6557010, "name": "Buchbrunn", "state": "", "country": "DE", "coord": {"lon": 10.1369, "lat": 49.75}}, {"id": 6557011, "name": "Castell", "state": "", "country": "DE", "coord": {"lon": 10.3508, "lat": 49.7411}}, {"id": 6557012, "name": "Mainstockheim", "state": "", "country": "DE", "coord": {"lon": 10.15, "lat": 49.783298}}, {"id": 6557014, "name": "Martinsheim", "state": "", "country": "DE", "coord": {"lon": 10.15, "lat": 49.616699}}, {"id": 6557015, "name": "R\u00f6delsee", "state": "", "country": "DE", "coord": {"lon": 10.25, "lat": 49.733299}}, {"id": 6557016, "name": "Segnitz", "state": "", "country": "DE", "coord": {"lon": 10.1333, "lat": 49.666698}}, {"id": 6557017, "name": "Sommerach", "state": "", "country": "DE", "coord": {"lon": 10.2, "lat": 49.833302}}, {"id": 6557018, "name": "Wiesenbronn", "state": "", "country": "DE", "coord": {"lon": 10.3, "lat": 49.75}}, {"id": 6557019, "name": "Altenbuch", "state": "", "country": "DE", "coord": {"lon": 9.40928, "lat": 49.8265}}, {"id": 6557020, "name": "Dorfprozelten", "state": "", "country": "DE", "coord": {"lon": 9.38028, "lat": 49.780602}}, {"id": 6557021, "name": "Eichenb\u00fchl", "state": "", "country": "DE", "coord": {"lon": 9.32917, "lat": 49.705601}}, {"id": 6557022, "name": "Faulbach", "state": "", "country": "DE", "coord": {"lon": 9.44417, "lat": 49.785301}}, {"id": 6557023, "name": "Gro\u00dfwallstadt", "state": "", "country": "DE", "coord": {"lon": 9.16667, "lat": 49.883301}}, {"id": 6557024, "name": "Hausen", "state": "", "country": "DE", "coord": {"lon": 9.21028, "lat": 49.869701}}, {"id": 6557025, "name": "Laudenbach", "state": "", "country": "DE", "coord": {"lon": 9.17611, "lat": 49.7458}}, {"id": 6557026, "name": "Leidersbach", "state": "", "country": "DE", "coord": {"lon": 9.22167, "lat": 49.901402}}, {"id": 6557027, "name": "M\u00f6mlingen", "state": "", "country": "DE", "coord": {"lon": 9.0912, "lat": 49.846199}}, {"id": 6557028, "name": "Neunkirchen", "state": "", "country": "DE", "coord": {"lon": 9.4025, "lat": 49.707199}}, {"id": 6557029, "name": "Niedernberg", "state": "", "country": "DE", "coord": {"lon": 9.13694, "lat": 49.912201}}, {"id": 6557030, "name": "R\u00fcdenau", "state": "", "country": "DE", "coord": {"lon": 9.17917, "lat": 49.711399}}, {"id": 6557031, "name": "Birkenfeld", "state": "", "country": "DE", "coord": {"lon": 9.69556, "lat": 49.858601}}, {"id": 6557032, "name": "Bischbrunn", "state": "", "country": "DE", "coord": {"lon": 9.48917, "lat": 49.8703}}, {"id": 6557033, "name": "Esselbach", "state": "", "country": "DE", "coord": {"lon": 9.5313, "lat": 49.8507}}, {"id": 6557034, "name": "Eu\u00dfenheim", "state": "", "country": "DE", "coord": {"lon": 9.81667, "lat": 49.983299}}, {"id": 6557035, "name": "Fellen", "state": "", "country": "DE", "coord": {"lon": 9.58333, "lat": 50.150002}}, {"id": 6557036, "name": "G\u00f6ssenheim", "state": "", "country": "DE", "coord": {"lon": 9.78333, "lat": 50.016701}}, {"id": 6557037, "name": "Gr\u00e4fendorf", "state": "", "country": "DE", "coord": {"lon": 9.75, "lat": 50.116699}}, {"id": 6557038, "name": "Hafenlohr", "state": "", "country": "DE", "coord": {"lon": 9.60222, "lat": 49.8694}}, {"id": 6557039, "name": "Hasloch", "state": "", "country": "DE", "coord": {"lon": 9.49361, "lat": 49.791901}}, {"id": 6557040, "name": "Himmelstadt", "state": "", "country": "DE", "coord": {"lon": 9.80167, "lat": 49.923901}}, {"id": 6557041, "name": "Karsbach", "state": "", "country": "DE", "coord": {"lon": 9.78333, "lat": 50.049999}}, {"id": 6557042, "name": "Mittelsinn", "state": "", "country": "DE", "coord": {"lon": 9.61667, "lat": 50.200001}}, {"id": 6557043, "name": "Neuendorf", "state": "", "country": "DE", "coord": {"lon": 9.65, "lat": 50.033298}}, {"id": 6557044, "name": "Neuh\u00fctten", "state": "", "country": "DE", "coord": {"lon": 9.41667, "lat": 50.0}}, {"id": 6557045, "name": "Partenstein", "state": "", "country": "DE", "coord": {"lon": 9.51667, "lat": 50.049999}}, {"id": 6557046, "name": "Rechtenbach", "state": "", "country": "DE", "coord": {"lon": 9.50833, "lat": 49.983101}}, {"id": 6557047, "name": "Retzstadt", "state": "", "country": "DE", "coord": {"lon": 9.88194, "lat": 49.912498}}, {"id": 6557048, "name": "Roden", "state": "", "country": "DE", "coord": {"lon": 9.62639, "lat": 49.895599}}, {"id": 6557049, "name": "Schollbrunn", "state": "", "country": "DE", "coord": {"lon": 9.46389, "lat": 49.834999}}, {"id": 6557050, "name": "Steinfeld", "state": "", "country": "DE", "coord": {"lon": 9.66944, "lat": 49.952801}}, {"id": 6557051, "name": "Urspringen", "state": "", "country": "DE", "coord": {"lon": 9.67417, "lat": 49.900299}}, {"id": 6557052, "name": "Bergrheinfeld", "state": "", "country": "DE", "coord": {"lon": 10.1818, "lat": 50.008202}}, {"id": 6557053, "name": "Dingolshausen", "state": "", "country": "DE", "coord": {"lon": 10.4, "lat": 49.900002}}, {"id": 6557054, "name": "Dittelbrunn", "state": "", "country": "DE", "coord": {"lon": 10.2242, "lat": 50.068501}}, {"id": 6557055, "name": "Donnersdorf", "state": "", "country": "DE", "coord": {"lon": 10.4167, "lat": 49.966702}}, {"id": 6557056, "name": "Euerbach", "state": "", "country": "DE", "coord": {"lon": 10.1333, "lat": 50.0667}}, {"id": 6557057, "name": "Frankenwinheim", "state": "", "country": "DE", "coord": {"lon": 10.31426, "lat": 49.887291}}, {"id": 6557058, "name": "Geldersheim", "state": "", "country": "DE", "coord": {"lon": 10.15, "lat": 50.049999}}, {"id": 6557059, "name": "Gochsheim", "state": "", "country": "DE", "coord": {"lon": 10.27597, "lat": 50.021568}}, {"id": 6557060, "name": "Grafenrheinfeld", "state": "", "country": "DE", "coord": {"lon": 10.1982, "lat": 50.000198}}, {"id": 6557061, "name": "Grettstadt", "state": "", "country": "DE", "coord": {"lon": 10.3162, "lat": 49.9837}}, {"id": 6557062, "name": "Kolitzheim", "state": "", "country": "DE", "coord": {"lon": 10.2333, "lat": 49.916698}}, {"id": 6557063, "name": "L\u00fclsfeld", "state": "", "country": "DE", "coord": {"lon": 10.3333, "lat": 49.866699}}, {"id": 6557064, "name": "Niederwerrn", "state": "", "country": "DE", "coord": {"lon": 10.1833, "lat": 50.0667}}, {"id": 6557065, "name": "Poppenhausen", "state": "", "country": "DE", "coord": {"lon": 10.15, "lat": 50.099998}}, {"id": 6557066, "name": "R\u00f6thlein", "state": "", "country": "DE", "coord": {"lon": 10.2167, "lat": 49.983299}}, {"id": 6557067, "name": "Schonungen", "state": "", "country": "DE", "coord": {"lon": 10.30215, "lat": 50.0513}}, {"id": 6557068, "name": "Schwanfeld", "state": "", "country": "DE", "coord": {"lon": 10.1333, "lat": 49.916698}}, {"id": 6557069, "name": "Schwebheim", "state": "", "country": "DE", "coord": {"lon": 10.25, "lat": 49.983299}}, {"id": 6557070, "name": "Sennfeld", "state": "", "country": "DE", "coord": {"lon": 10.2667, "lat": 50.033298}}, {"id": 6557071, "name": "Sulzheim", "state": "", "country": "DE", "coord": {"lon": 10.3333, "lat": 49.950001}}, {"id": 6557072, "name": "\u00dcchtelhausen", "state": "", "country": "DE", "coord": {"lon": 10.2667, "lat": 50.083302}}, {"id": 6557073, "name": "Waigolshausen", "state": "", "country": "DE", "coord": {"lon": 10.1333, "lat": 49.950001}}, {"id": 6557074, "name": "Wasserlosen", "state": "", "country": "DE", "coord": {"lon": 10.0333, "lat": 50.099998}}, {"id": 6557075, "name": "Wipfeld", "state": "", "country": "DE", "coord": {"lon": 10.1667, "lat": 49.916698}}, {"id": 6557076, "name": "Bergtheim", "state": "", "country": "DE", "coord": {"lon": 10.0667, "lat": 49.900002}}, {"id": 6557077, "name": "Bieberehren", "state": "", "country": "DE", "coord": {"lon": 10.0, "lat": 49.516701}}, {"id": 6557078, "name": "Eisingen", "state": "", "country": "DE", "coord": {"lon": 9.831, "lat": 49.759499}}, {"id": 6557079, "name": "Erlabrunn", "state": "", "country": "DE", "coord": {"lon": 9.84417, "lat": 49.859699}}, {"id": 6557080, "name": "Estenfeld", "state": "", "country": "DE", "coord": {"lon": 9.9986, "lat": 49.8284}}, {"id": 6557081, "name": "Gauk\u00f6nigshofen", "state": "", "country": "DE", "coord": {"lon": 10.0, "lat": 49.633301}}, {"id": 6557082, "name": "Gerbrunn", "state": "", "country": "DE", "coord": {"lon": 9.99361, "lat": 49.775299}}, {"id": 6557083, "name": "Geroldshausen", "state": "", "country": "DE", "coord": {"lon": 9.90222, "lat": 49.683601}}, {"id": 6557084, "name": "Greu\u00dfenheim", "state": "", "country": "DE", "coord": {"lon": 9.76667, "lat": 49.8167}}, {"id": 6557085, "name": "G\u00fcntersleben", "state": "", "country": "DE", "coord": {"lon": 9.905, "lat": 49.869701}}, {"id": 6557086, "name": "Hettstadt", "state": "", "country": "DE", "coord": {"lon": 9.815, "lat": 49.7994}}, {"id": 6557087, "name": "Holzkirchen", "state": "", "country": "DE", "coord": {"lon": 9.68028, "lat": 49.781399}}, {"id": 6557088, "name": "Kirchheim", "state": "", "country": "DE", "coord": {"lon": 9.86667, "lat": 49.650002}}, {"id": 6557089, "name": "Kist", "state": "", "country": "DE", "coord": {"lon": 9.845, "lat": 49.746101}}, {"id": 6557090, "name": "Kleinrinderfeld", "state": "", "country": "DE", "coord": {"lon": 9.84472, "lat": 49.700298}}, {"id": 6557091, "name": "K\u00fcrnach", "state": "", "country": "DE", "coord": {"lon": 10.0333, "lat": 49.849998}}, {"id": 6557092, "name": "Margetsh\u00f6chheim", "state": "", "country": "DE", "coord": {"lon": 9.86389, "lat": 49.837502}}, {"id": 6557094, "name": "Oberpleichfeld", "state": "", "country": "DE", "coord": {"lon": 10.0833, "lat": 49.883301}}, {"id": 6557095, "name": "Prosselsheim", "state": "", "country": "DE", "coord": {"lon": 10.1333, "lat": 49.866699}}, {"id": 6557096, "name": "Riedenheim", "state": "", "country": "DE", "coord": {"lon": 9.97806, "lat": 49.557201}}, {"id": 6557097, "name": "Rottendorf", "state": "", "country": "DE", "coord": {"lon": 10.0247, "lat": 49.790401}}, {"id": 6557098, "name": "Sonderhofen", "state": "", "country": "DE", "coord": {"lon": 10.0, "lat": 49.599998}}, {"id": 6557099, "name": "Tauberrettersheim", "state": "", "country": "DE", "coord": {"lon": 9.93667, "lat": 49.4944}}, {"id": 6557100, "name": "Theilheim", "state": "", "country": "DE", "coord": {"lon": 10.0333, "lat": 49.75}}, {"id": 6557101, "name": "Th\u00fcngersheim", "state": "", "country": "DE", "coord": {"lon": 9.84917, "lat": 49.8783}}, {"id": 6557102, "name": "Uettingen", "state": "", "country": "DE", "coord": {"lon": 9.73056, "lat": 49.794701}}, {"id": 6557103, "name": "Unterpleichfeld", "state": "", "country": "DE", "coord": {"lon": 10.05, "lat": 49.866699}}, {"id": 6557104, "name": "Veitsh\u00f6chheim", "state": "", "country": "DE", "coord": {"lon": 9.8792, "lat": 49.824402}}, {"id": 6557105, "name": "Waldbrunn", "state": "", "country": "DE", "coord": {"lon": 9.80361, "lat": 49.758598}}, {"id": 6557106, "name": "Waldb\u00fcttelbrunn", "state": "", "country": "DE", "coord": {"lon": 9.84667, "lat": 49.7883}}, {"id": 6557110, "name": "Adelzhausen", "state": "", "country": "DE", "coord": {"lon": 11.1377, "lat": 48.356201}}, {"id": 6557111, "name": "Affing", "state": "", "country": "DE", "coord": {"lon": 10.9833, "lat": 48.466702}}, {"id": 6557112, "name": "Dasing", "state": "", "country": "DE", "coord": {"lon": 11.0637, "lat": 48.39045}}, {"id": 6557113, "name": "Eurasburg", "state": "", "country": "DE", "coord": {"lon": 11.0833, "lat": 48.333302}}, {"id": 6557114, "name": "Hollenbach", "state": "", "country": "DE", "coord": {"lon": 11.0667, "lat": 48.483299}}, {"id": 6557115, "name": "Kissing", "state": "", "country": "DE", "coord": {"lon": 10.9648, "lat": 48.297199}}, {"id": 6557116, "name": "Merching", "state": "", "country": "DE", "coord": {"lon": 10.9833, "lat": 48.25}}, {"id": 6557117, "name": "Obergriesbach", "state": "", "country": "DE", "coord": {"lon": 11.0667, "lat": 48.416698}}, {"id": 6557118, "name": "Petersdorf", "state": "", "country": "DE", "coord": {"lon": 11.0333, "lat": 48.516701}}, {"id": 6557119, "name": "Rehling", "state": "", "country": "DE", "coord": {"lon": 10.9333, "lat": 48.483299}}, {"id": 6557120, "name": "Ried", "state": "", "country": "DE", "coord": {"lon": 11.05, "lat": 48.299999}}, {"id": 6557121, "name": "Schiltberg", "state": "", "country": "DE", "coord": {"lon": 11.2333, "lat": 48.466702}}, {"id": 6557122, "name": "Schmiechen", "state": "", "country": "DE", "coord": {"lon": 10.9667, "lat": 48.216702}}, {"id": 6557123, "name": "Sielenbach", "state": "", "country": "DE", "coord": {"lon": 11.1667, "lat": 48.400002}}, {"id": 6557124, "name": "Steindorf", "state": "", "country": "DE", "coord": {"lon": 11.0067, "lat": 48.2132}}, {"id": 6557125, "name": "Todtenweis", "state": "", "country": "DE", "coord": {"lon": 10.9333, "lat": 48.516701}}, {"id": 6557126, "name": "Adelsried", "state": "", "country": "DE", "coord": {"lon": 10.7167, "lat": 48.416698}}, {"id": 6557127, "name": "Allmannshofen", "state": "", "country": "DE", "coord": {"lon": 10.8, "lat": 48.616699}}, {"id": 6557128, "name": "Altenm\u00fcnster", "state": "", "country": "DE", "coord": {"lon": 10.6, "lat": 48.466702}}, {"id": 6557129, "name": "Aystetten", "state": "", "country": "DE", "coord": {"lon": 10.7667, "lat": 48.400002}}, {"id": 6557130, "name": "Bonstetten", "state": "", "country": "DE", "coord": {"lon": 10.7, "lat": 48.4333}}, {"id": 6557131, "name": "Ehingen", "state": "", "country": "DE", "coord": {"lon": 10.8, "lat": 48.599998}}, {"id": 6557132, "name": "Ellgau", "state": "", "country": "DE", "coord": {"lon": 10.8667, "lat": 48.599998}}, {"id": 6557133, "name": "Emersacker", "state": "", "country": "DE", "coord": {"lon": 10.6667, "lat": 48.5}}, {"id": 6557134, "name": "Gablingen", "state": "", "country": "DE", "coord": {"lon": 10.8167, "lat": 48.450001}}, {"id": 6557135, "name": "Gessertshausen", "state": "", "country": "DE", "coord": {"lon": 10.73105, "lat": 48.330101}}, {"id": 6557136, "name": "Gro\u00dfaitingen", "state": "", "country": "DE", "coord": {"lon": 10.7833, "lat": 48.233299}}, {"id": 6557137, "name": "Heretsried", "state": "", "country": "DE", "coord": {"lon": 10.7333, "lat": 48.466702}}, {"id": 6557138, "name": "Hiltenfingen", "state": "", "country": "DE", "coord": {"lon": 10.7167, "lat": 48.166698}}, {"id": 6557139, "name": "Horgau", "state": "", "country": "DE", "coord": {"lon": 10.6833, "lat": 48.400002}}, {"id": 6557140, "name": "Kleinaitingen", "state": "", "country": "DE", "coord": {"lon": 10.8333, "lat": 48.216702}}, {"id": 6557141, "name": "Klosterlechfeld", "state": "", "country": "DE", "coord": {"lon": 10.8263, "lat": 48.159}}, {"id": 6557142, "name": "K\u00fchlenthal", "state": "", "country": "DE", "coord": {"lon": 10.8167, "lat": 48.5667}}, {"id": 6557143, "name": "Kutzenhausen", "state": "", "country": "DE", "coord": {"lon": 10.7, "lat": 48.333302}}, {"id": 6557144, "name": "Langenneufnach", "state": "", "country": "DE", "coord": {"lon": 10.6, "lat": 48.266701}}, {"id": 6557145, "name": "Langerringen", "state": "", "country": "DE", "coord": {"lon": 10.7667, "lat": 48.150002}}, {"id": 6557146, "name": "Mickhausen", "state": "", "country": "DE", "coord": {"lon": 10.6333, "lat": 48.25}}, {"id": 6557147, "name": "Mittelneufnach", "state": "", "country": "DE", "coord": {"lon": 10.6, "lat": 48.1833}}, {"id": 6557148, "name": "Nordendorf", "state": "", "country": "DE", "coord": {"lon": 10.8333, "lat": 48.599998}}, {"id": 6557149, "name": "Oberottmarshausen", "state": "", "country": "DE", "coord": {"lon": 10.85, "lat": 48.233299}}, {"id": 6557150, "name": "Scherstetten", "state": "", "country": "DE", "coord": {"lon": 10.6333, "lat": 48.1833}}, {"id": 6557151, "name": "Untermeitingen", "state": "", "country": "DE", "coord": {"lon": 10.8, "lat": 48.166698}}, {"id": 6557152, "name": "Ustersbach", "state": "", "country": "DE", "coord": {"lon": 10.6371, "lat": 48.314301}}, {"id": 6557153, "name": "Walkertshofen", "state": "", "country": "DE", "coord": {"lon": 10.5833, "lat": 48.233299}}, {"id": 6557154, "name": "Wehringen", "state": "", "country": "DE", "coord": {"lon": 10.8, "lat": 48.25}}, {"id": 6557155, "name": "Westendorf", "state": "", "country": "DE", "coord": {"lon": 10.8333, "lat": 48.5667}}, {"id": 6557156, "name": "Bachhagel", "state": "", "country": "DE", "coord": {"lon": 10.3167, "lat": 48.633301}}, {"id": 6557157, "name": "Blindheim", "state": "", "country": "DE", "coord": {"lon": 10.6333, "lat": 48.633301}}, {"id": 6557158, "name": "Buttenwiesen", "state": "", "country": "DE", "coord": {"lon": 10.7167, "lat": 48.599998}}, {"id": 6557159, "name": "Gl\u00f6tt", "state": "", "country": "DE", "coord": {"lon": 10.4833, "lat": 48.5}}, {"id": 6557160, "name": "Haunsheim", "state": "", "country": "DE", "coord": {"lon": 10.37418, "lat": 48.599709}}, {"id": 6557161, "name": "Holzheim", "state": "", "country": "DE", "coord": {"lon": 10.5333, "lat": 48.516701}}, {"id": 6557162, "name": "Laugna", "state": "", "country": "DE", "coord": {"lon": 10.7, "lat": 48.533298}}, {"id": 6557163, "name": "Lutzingen", "state": "", "country": "DE", "coord": {"lon": 10.55, "lat": 48.650002}}, {"id": 6557164, "name": "M\u00f6dingen", "state": "", "country": "DE", "coord": {"lon": 10.4333, "lat": 48.650002}}, {"id": 6557165, "name": "Finningen", "state": "", "country": "DE", "coord": {"lon": 10.5, "lat": 48.650002}}, {"id": 6557166, "name": "Medlingen", "state": "", "country": "DE", "coord": {"lon": 10.31608, "lat": 48.57019}}, {"id": 6557167, "name": "Schwenningen", "state": "", "country": "DE", "coord": {"lon": 10.65, "lat": 48.650002}}, {"id": 6557168, "name": "Ziertheim", "state": "", "country": "DE", "coord": {"lon": 10.3833, "lat": 48.650002}}, {"id": 6557169, "name": "Z\u00f6schingen", "state": "", "country": "DE", "coord": {"lon": 10.3167, "lat": 48.666698}}, {"id": 6557170, "name": "Aletshausen", "state": "", "country": "DE", "coord": {"lon": 10.3833, "lat": 48.200001}}, {"id": 6557171, "name": "Balzhausen", "state": "", "country": "DE", "coord": {"lon": 10.5, "lat": 48.233299}}, {"id": 6557172, "name": "Breitenthal", "state": "", "country": "DE", "coord": {"lon": 10.3, "lat": 48.233299}}, {"id": 6557173, "name": "Bubesheim", "state": "", "country": "DE", "coord": {"lon": 10.25, "lat": 48.4333}}, {"id": 6557174, "name": "Deisenhausen", "state": "", "country": "DE", "coord": {"lon": 10.3333, "lat": 48.25}}, {"id": 6557175, "name": "D\u00fcrrlauingen", "state": "", "country": "DE", "coord": {"lon": 10.4333, "lat": 48.466702}}, {"id": 6557176, "name": "Ebershausen", "state": "", "country": "DE", "coord": {"lon": 10.3167, "lat": 48.200001}}, {"id": 6557177, "name": "Ellzee", "state": "", "country": "DE", "coord": {"lon": 10.3167, "lat": 48.333302}}, {"id": 6557178, "name": "Haldenwang", "state": "", "country": "DE", "coord": {"lon": 10.45, "lat": 48.4333}}, {"id": 6557179, "name": "Landensberg", "state": "", "country": "DE", "coord": {"lon": 10.5333, "lat": 48.4333}}, {"id": 6557180, "name": "Aichen", "state": "", "country": "DE", "coord": {"lon": 10.55, "lat": 48.233299}}, {"id": 6557181, "name": "Rettenbach", "state": "", "country": "DE", "coord": {"lon": 10.35, "lat": 48.466702}}, {"id": 6557182, "name": "R\u00f6fingen", "state": "", "country": "DE", "coord": {"lon": 10.4333, "lat": 48.4333}}, {"id": 6557183, "name": "Waltenhausen", "state": "", "country": "DE", "coord": {"lon": 10.3667, "lat": 48.200001}}, {"id": 6557184, "name": "Winterbach", "state": "", "country": "DE", "coord": {"lon": 10.4833, "lat": 48.466702}}, {"id": 6557185, "name": "Bellenberg", "state": "", "country": "DE", "coord": {"lon": 10.1, "lat": 48.25}}, {"id": 6557186, "name": "Holzheim", "state": "", "country": "DE", "coord": {"lon": 10.1, "lat": 48.383301}}, {"id": 6557187, "name": "Nersingen", "state": "", "country": "DE", "coord": {"lon": 10.1333, "lat": 48.4333}}, {"id": 6557188, "name": "Oberroth", "state": "", "country": "DE", "coord": {"lon": 10.1833, "lat": 48.166698}}, {"id": 6557189, "name": "Osterberg", "state": "", "country": "DE", "coord": {"lon": 10.1667, "lat": 48.150002}}, {"id": 6557190, "name": "Roggenburg", "state": "", "country": "DE", "coord": {"lon": 10.2333, "lat": 48.283298}}, {"id": 6557191, "name": "Unterroth", "state": "", "country": "DE", "coord": {"lon": 10.1667, "lat": 48.200001}}, {"id": 6557192, "name": "Bodolz", "state": "", "country": "DE", "coord": {"lon": 9.66667, "lat": 47.5667}}, {"id": 6557193, "name": "Gestratz", "state": "", "country": "DE", "coord": {"lon": 9.98333, "lat": 47.650002}}, {"id": 6557194, "name": "Gr\u00fcnenbach", "state": "", "country": "DE", "coord": {"lon": 10.0167, "lat": 47.616699}}, {"id": 6557195, "name": "Hergensweiler", "state": "", "country": "DE", "coord": {"lon": 9.7708, "lat": 47.613701}}, {"id": 6557196, "name": "Maierh\u00f6fen", "state": "", "country": "DE", "coord": {"lon": 10.05, "lat": 47.650002}}, {"id": 6557197, "name": "Nonnenhorn", "state": "", "country": "DE", "coord": {"lon": 9.61667, "lat": 47.583302}}, {"id": 6557198, "name": "Oberreute", "state": "", "country": "DE", "coord": {"lon": 9.95, "lat": 47.5667}}, {"id": 6557199, "name": "Opfenbach", "state": "", "country": "DE", "coord": {"lon": 9.83333, "lat": 47.633301}}, {"id": 6557201, "name": "Sigmarszell", "state": "", "country": "DE", "coord": {"lon": 9.76667, "lat": 47.583302}}, {"id": 6557202, "name": "Stiefenhofen", "state": "", "country": "DE", "coord": {"lon": 10.0, "lat": 47.599998}}, {"id": 6557204, "name": "Wei\u00dfensberg", "state": "", "country": "DE", "coord": {"lon": 9.73333, "lat": 47.583302}}, {"id": 6557205, "name": "Hergatz", "state": "", "country": "DE", "coord": {"lon": 9.83333, "lat": 47.650002}}, {"id": 6557206, "name": "Aitrang", "state": "", "country": "DE", "coord": {"lon": 10.5333, "lat": 47.8167}}, {"id": 6557207, "name": "Biessenhofen", "state": "", "country": "DE", "coord": {"lon": 10.6333, "lat": 47.833302}}, {"id": 6557208, "name": "Baisweil", "state": "", "country": "DE", "coord": {"lon": 10.55, "lat": 47.950001}}, {"id": 6557209, "name": "Bidingen", "state": "", "country": "DE", "coord": {"lon": 10.7333, "lat": 47.833302}}, {"id": 6557210, "name": "Eggenthal", "state": "", "country": "DE", "coord": {"lon": 10.5167, "lat": 47.916698}}, {"id": 6557211, "name": "Eisenberg (Allg\u00e4u)", "state": "", "country": "DE", "coord": {"lon": 10.6, "lat": 47.599998}}, {"id": 6557212, "name": "Friesenried", "state": "", "country": "DE", "coord": {"lon": 10.5333, "lat": 47.866699}}, {"id": 6557213, "name": "G\u00f6risried", "state": "", "country": "DE", "coord": {"lon": 10.5, "lat": 47.700001}}, {"id": 6557214, "name": "Hopferau", "state": "", "country": "DE", "coord": {"lon": 10.6357, "lat": 47.611649}}, {"id": 6557215, "name": "G\u00fcnzach", "state": "", "country": "DE", "coord": {"lon": 10.45, "lat": 47.8167}}, {"id": 6557216, "name": "Jengen", "state": "", "country": "DE", "coord": {"lon": 10.7333, "lat": 48.0}}, {"id": 6557217, "name": "Kraftisried", "state": "", "country": "DE", "coord": {"lon": 10.4667, "lat": 47.783298}}, {"id": 6557218, "name": "Lamerdingen", "state": "", "country": "DE", "coord": {"lon": 10.7333, "lat": 48.083302}}, {"id": 6557219, "name": "Lengenwang", "state": "", "country": "DE", "coord": {"lon": 10.6, "lat": 47.700001}}, {"id": 6557220, "name": "Mauerstetten", "state": "", "country": "DE", "coord": {"lon": 10.6667, "lat": 47.883301}}, {"id": 6557221, "name": "Oberostendorf", "state": "", "country": "DE", "coord": {"lon": 10.75, "lat": 47.9333}}, {"id": 6557222, "name": "Osterzell", "state": "", "country": "DE", "coord": {"lon": 10.75, "lat": 47.883301}}, {"id": 6557223, "name": "Pforzen", "state": "", "country": "DE", "coord": {"lon": 10.6128, "lat": 47.929699}}, {"id": 6557225, "name": "Rieden", "state": "", "country": "DE", "coord": {"lon": 10.65, "lat": 47.950001}}, {"id": 6557226, "name": "Ro\u00dfhaupten", "state": "", "country": "DE", "coord": {"lon": 10.7167, "lat": 47.650002}}, {"id": 6557227, "name": "Ruderatshofen", "state": "", "country": "DE", "coord": {"lon": 10.5833, "lat": 47.8167}}, {"id": 6557228, "name": "R\u00fcckholz", "state": "", "country": "DE", "coord": {"lon": 10.55, "lat": 47.666698}}, {"id": 6557229, "name": "Schwangau", "state": "", "country": "DE", "coord": {"lon": 10.7721, "lat": 47.560398}}, {"id": 6557230, "name": "Seeg", "state": "", "country": "DE", "coord": {"lon": 10.6085, "lat": 47.654301}}, {"id": 6557231, "name": "St\u00f6ttwang", "state": "", "country": "DE", "coord": {"lon": 10.7167, "lat": 47.883301}}, {"id": 6557232, "name": "Halblech", "state": "", "country": "DE", "coord": {"lon": 10.8276, "lat": 47.640999}}, {"id": 6557233, "name": "Untrasried", "state": "", "country": "DE", "coord": {"lon": 10.3833, "lat": 47.833302}}, {"id": 6557234, "name": "Wald", "state": "", "country": "DE", "coord": {"lon": 10.55, "lat": 47.716702}}, {"id": 6557235, "name": "Westendorf", "state": "", "country": "DE", "coord": {"lon": 10.7167, "lat": 47.9333}}, {"id": 6557236, "name": "Amberg", "state": "", "country": "DE", "coord": {"lon": 10.6833, "lat": 48.0667}}, {"id": 6557237, "name": "Apfeltrach", "state": "", "country": "DE", "coord": {"lon": 10.5, "lat": 48.016701}}, {"id": 6557238, "name": "Benningen", "state": "", "country": "DE", "coord": {"lon": 10.2167, "lat": 47.966702}}, {"id": 6557239, "name": "B\u00f6hen", "state": "", "country": "DE", "coord": {"lon": 10.3, "lat": 47.883301}}, {"id": 6557240, "name": "Boos", "state": "", "country": "DE", "coord": {"lon": 10.2, "lat": 48.0667}}, {"id": 6557241, "name": "Breitenbrunn", "state": "", "country": "DE", "coord": {"lon": 10.4, "lat": 48.133301}}, {"id": 6557242, "name": "Buxheim", "state": "", "country": "DE", "coord": {"lon": 10.1333, "lat": 48.0}}, {"id": 6557243, "name": "Eppishausen", "state": "", "country": "DE", "coord": {"lon": 10.5167, "lat": 48.166698}}, {"id": 6557244, "name": "Ettringen", "state": "", "country": "DE", "coord": {"lon": 10.65, "lat": 48.099998}}, {"id": 6557245, "name": "Hawangen", "state": "", "country": "DE", "coord": {"lon": 10.2667, "lat": 47.966702}}, {"id": 6557246, "name": "Heimertingen", "state": "", "country": "DE", "coord": {"lon": 10.15, "lat": 48.033298}}, {"id": 6557247, "name": "Holzg\u00fcnz", "state": "", "country": "DE", "coord": {"lon": 10.2667, "lat": 48.016701}}, {"id": 6557248, "name": "Kirchhaslach", "state": "", "country": "DE", "coord": {"lon": 10.3, "lat": 48.150002}}, {"id": 6557249, "name": "Lachen", "state": "", "country": "DE", "coord": {"lon": 10.2333, "lat": 47.950001}}, {"id": 6557250, "name": "Lauben", "state": "", "country": "DE", "coord": {"lon": 10.2833, "lat": 48.049999}}, {"id": 6557251, "name": "Lautrach", "state": "", "country": "DE", "coord": {"lon": 10.1333, "lat": 47.900002}}, {"id": 6557254, "name": "Memmingerberg", "state": "", "country": "DE", "coord": {"lon": 10.2167, "lat": 47.983299}}, {"id": 6557255, "name": "Niederrieden", "state": "", "country": "DE", "coord": {"lon": 10.1833, "lat": 48.049999}}, {"id": 6557256, "name": "Oberrieden", "state": "", "country": "DE", "coord": {"lon": 10.4333, "lat": 48.083302}}, {"id": 6557257, "name": "Obersch\u00f6negg", "state": "", "country": "DE", "coord": {"lon": 10.3, "lat": 48.099998}}, {"id": 6557258, "name": "Salgen", "state": "", "country": "DE", "coord": {"lon": 10.4833, "lat": 48.133301}}, {"id": 6557259, "name": "Sontheim", "state": "", "country": "DE", "coord": {"lon": 10.35, "lat": 48.0}}, {"id": 6557260, "name": "Stetten", "state": "", "country": "DE", "coord": {"lon": 10.4333, "lat": 48.033298}}, {"id": 6557261, "name": "Trunkelsberg", "state": "", "country": "DE", "coord": {"lon": 10.2167, "lat": 48.0}}, {"id": 6557262, "name": "Ungerhausen", "state": "", "country": "DE", "coord": {"lon": 10.2667, "lat": 48.016701}}, {"id": 6557263, "name": "Westerheim", "state": "", "country": "DE", "coord": {"lon": 10.3, "lat": 48.016701}}, {"id": 6557264, "name": "Wiedergeltingen", "state": "", "country": "DE", "coord": {"lon": 10.6667, "lat": 48.033298}}, {"id": 6557265, "name": "Winterrieden", "state": "", "country": "DE", "coord": {"lon": 10.2167, "lat": 48.116699}}, {"id": 6557266, "name": "Wolfertschwenden", "state": "", "country": "DE", "coord": {"lon": 10.2667, "lat": 47.883301}}, {"id": 6557267, "name": "Woringen", "state": "", "country": "DE", "coord": {"lon": 10.2, "lat": 47.916698}}, {"id": 6557268, "name": "Kettershausen", "state": "", "country": "DE", "coord": {"lon": 10.2667, "lat": 48.1833}}, {"id": 6557269, "name": "Alerheim", "state": "", "country": "DE", "coord": {"lon": 10.6167, "lat": 48.849998}}, {"id": 6557270, "name": "Amerdingen", "state": "", "country": "DE", "coord": {"lon": 10.4833, "lat": 48.733299}}, {"id": 6557271, "name": "Asbach-B\u00e4umenheim", "state": "", "country": "DE", "coord": {"lon": 10.8167, "lat": 48.6833}}, {"id": 6557272, "name": "Auhausen", "state": "", "country": "DE", "coord": {"lon": 10.6333, "lat": 49.016701}}, {"id": 6557273, "name": "Buchdorf", "state": "", "country": "DE", "coord": {"lon": 10.8333, "lat": 48.783298}}, {"id": 6557274, "name": "Daiting", "state": "", "country": "DE", "coord": {"lon": 10.9, "lat": 48.799999}}, {"id": 6557275, "name": "Deiningen", "state": "", "country": "DE", "coord": {"lon": 10.5667, "lat": 48.866699}}, {"id": 6557276, "name": "Ederheim", "state": "", "country": "DE", "coord": {"lon": 10.4667, "lat": 48.8167}}, {"id": 6557277, "name": "Forheim", "state": "", "country": "DE", "coord": {"lon": 10.45, "lat": 48.766701}}, {"id": 6557278, "name": "Fremdingen", "state": "", "country": "DE", "coord": {"lon": 10.4667, "lat": 48.966702}}, {"id": 6557279, "name": "F\u00fcnfstetten", "state": "", "country": "DE", "coord": {"lon": 10.7667, "lat": 48.8167}}, {"id": 6557280, "name": "Genderkingen", "state": "", "country": "DE", "coord": {"lon": 10.8833, "lat": 48.700001}}, {"id": 6557281, "name": "Hainsfarth", "state": "", "country": "DE", "coord": {"lon": 10.6167, "lat": 48.966702}}, {"id": 6557282, "name": "Hohenaltheim", "state": "", "country": "DE", "coord": {"lon": 10.5333, "lat": 48.783298}}, {"id": 6557283, "name": "Holzheim", "state": "", "country": "DE", "coord": {"lon": 10.9667, "lat": 48.6208}}, {"id": 6557284, "name": "Huisheim", "state": "", "country": "DE", "coord": {"lon": 10.7, "lat": 48.833302}}, {"id": 6557285, "name": "Maihingen", "state": "", "country": "DE", "coord": {"lon": 10.5, "lat": 48.9333}}, {"id": 6557286, "name": "Marktoffingen", "state": "", "country": "DE", "coord": {"lon": 10.4833, "lat": 48.9333}}, {"id": 6557287, "name": "Marxheim", "state": "", "country": "DE", "coord": {"lon": 10.95, "lat": 48.75}}, {"id": 6557288, "name": "Megesheim", "state": "", "country": "DE", "coord": {"lon": 10.65, "lat": 48.9333}}, {"id": 6557289, "name": "Mertingen", "state": "", "country": "DE", "coord": {"lon": 10.7833, "lat": 48.650002}}, {"id": 6557290, "name": "M\u00f6nchsdeggingen", "state": "", "country": "DE", "coord": {"lon": 10.5833, "lat": 48.783298}}, {"id": 6557291, "name": "M\u00f6ttingen", "state": "", "country": "DE", "coord": {"lon": 10.59016, "lat": 48.809269}}, {"id": 6557292, "name": "M\u00fcnster", "state": "", "country": "DE", "coord": {"lon": 10.8981, "lat": 48.6208}}, {"id": 6557293, "name": "Munningen", "state": "", "country": "DE", "coord": {"lon": 10.6, "lat": 48.916698}}, {"id": 6557294, "name": "Niedersch\u00f6nenfeld", "state": "", "country": "DE", "coord": {"lon": 10.9333, "lat": 48.716702}}, {"id": 6557295, "name": "Otting", "state": "", "country": "DE", "coord": {"lon": 10.8, "lat": 48.883301}}, {"id": 6557296, "name": "Reimlingen", "state": "", "country": "DE", "coord": {"lon": 10.5167, "lat": 48.8167}}, {"id": 6557297, "name": "R\u00f6gling", "state": "", "country": "DE", "coord": {"lon": 10.95, "lat": 48.849998}}, {"id": 6557298, "name": "Tagmersheim", "state": "", "country": "DE", "coord": {"lon": 10.9667, "lat": 48.8167}}, {"id": 6557299, "name": "Tapfheim", "state": "", "country": "DE", "coord": {"lon": 10.6833, "lat": 48.666698}}, {"id": 6557300, "name": "Wechingen", "state": "", "country": "DE", "coord": {"lon": 10.6167, "lat": 48.900002}}, {"id": 6557301, "name": "Wolferstadt", "state": "", "country": "DE", "coord": {"lon": 10.7833, "lat": 48.916698}}, {"id": 6557302, "name": "Balderschwang", "state": "", "country": "DE", "coord": {"lon": 10.1, "lat": 47.466702}}, {"id": 6557303, "name": "Betzigau", "state": "", "country": "DE", "coord": {"lon": 10.3833, "lat": 47.733299}}, {"id": 6557304, "name": "Blaichach", "state": "", "country": "DE", "coord": {"lon": 10.2667, "lat": 47.533298}}, {"id": 6557305, "name": "Bolsterlang", "state": "", "country": "DE", "coord": {"lon": 10.2333, "lat": 47.466702}}, {"id": 6557306, "name": "Durach", "state": "", "country": "DE", "coord": {"lon": 10.35, "lat": 47.700001}}, {"id": 6557307, "name": "Haldenwang", "state": "", "country": "DE", "coord": {"lon": 10.35, "lat": 47.799999}}, {"id": 6557308, "name": "Lauben", "state": "", "country": "DE", "coord": {"lon": 10.3, "lat": 47.783298}}, {"id": 6557309, "name": "Missen-Wilhams", "state": "", "country": "DE", "coord": {"lon": 10.1167, "lat": 47.599998}}, {"id": 6557310, "name": "Oy-Mittelberg", "state": "", "country": "DE", "coord": {"lon": 10.4333, "lat": 47.633301}}, {"id": 6557311, "name": "Obermaiselstein", "state": "", "country": "DE", "coord": {"lon": 10.2333, "lat": 47.450001}}, {"id": 6557312, "name": "Ofterschwang", "state": "", "country": "DE", "coord": {"lon": 10.2333, "lat": 47.5}}, {"id": 6557313, "name": "Rettenberg", "state": "", "country": "DE", "coord": {"lon": 10.3, "lat": 47.583302}}, {"id": 6557314, "name": "Waltenhofen", "state": "", "country": "DE", "coord": {"lon": 10.3, "lat": 47.666698}}, {"id": 6557315, "name": "Wildpoldsried", "state": "", "country": "DE", "coord": {"lon": 10.4, "lat": 47.766701}}, {"id": 6557378, "name": "Helmstedt", "state": "", "country": "DE", "coord": {"lon": 11.00176, "lat": 52.231602}}, {"id": 6557387, "name": "Uslar", "state": "", "country": "DE", "coord": {"lon": 9.65, "lat": 51.666698}}, {"id": 6557392, "name": "Peine", "state": "", "country": "DE", "coord": {"lon": 10.23065, "lat": 52.323299}}, {"id": 6557396, "name": "Barsinghausen", "state": "", "country": "DE", "coord": {"lon": 9.4561, "lat": 52.310532}}, {"id": 6557397, "name": "Burgdorf", "state": "", "country": "DE", "coord": {"lon": 10.00743, "lat": 52.455311}}, {"id": 6557403, "name": "Lehrte", "state": "", "country": "DE", "coord": {"lon": 9.97174, "lat": 52.375259}}, {"id": 6557404, "name": "Neustadt am R\u00fcbenberge", "state": "", "country": "DE", "coord": {"lon": 9.4743, "lat": 52.4991}}, {"id": 6557405, "name": "Pattensen", "state": "", "country": "DE", "coord": {"lon": 9.76633, "lat": 52.261871}}, {"id": 6557418, "name": "Hessisch Oldendorf", "state": "", "country": "DE", "coord": {"lon": 9.2344, "lat": 52.17355}}, {"id": 6557421, "name": "Bockenem", "state": "", "country": "DE", "coord": {"lon": 10.1295, "lat": 52.006699}}, {"id": 6557422, "name": "Elze", "state": "", "country": "DE", "coord": {"lon": 9.7259, "lat": 52.115601}}, {"id": 6557427, "name": "Eschershausen", "state": "", "country": "DE", "coord": {"lon": 9.6245, "lat": 51.926601}}, {"id": 6557456, "name": "Achim", "state": "", "country": "DE", "coord": {"lon": 9.033, "lat": 53.0112}}, {"id": 6557516, "name": "Hamminkeln", "state": "", "country": "DE", "coord": {"lon": 6.62263, "lat": 51.737431}}, {"id": 6557561, "name": "Bad Honnef", "state": "", "country": "DE", "coord": {"lon": 7.26114, "lat": 50.647579}}, {"id": 6557629, "name": "H\u00f6xter", "state": "", "country": "DE", "coord": {"lon": 9.39737, "lat": 51.796371}}, {"id": 6557637, "name": "Horn-Bad Meinberg", "state": "", "country": "DE", "coord": {"lon": 8.94768, "lat": 51.87352}}, {"id": 6557814, "name": "Grebenstein", "state": "", "country": "DE", "coord": {"lon": 9.41667, "lat": 51.450001}}, {"id": 6557968, "name": "Korntal-M\u00fcnchingen", "state": "", "country": "DE", "coord": {"lon": 9.12234, "lat": 48.83139}}, {"id": 6558039, "name": "Rheinstetten", "state": "", "country": "DE", "coord": {"lon": 8.30704, "lat": 48.968498}}, {"id": 6558129, "name": "V\u00f6hrenbach", "state": "", "country": "DE", "coord": {"lon": 8.3, "lat": 48.049999}}, {"id": 6558241, "name": "Waldkirchen", "state": "", "country": "DE", "coord": {"lon": 13.6, "lat": 48.733299}}, {"id": 6558414, "name": "Illertissen", "state": "", "country": "DE", "coord": {"lon": 10.1026, "lat": 48.222698}}, {"id": 6558429, "name": "Hohenwestedt", "state": "", "country": "DE", "coord": {"lon": 9.6509, "lat": 54.078899}}, {"id": 6558434, "name": "Estorf", "state": "", "country": "DE", "coord": {"lon": 9.14739, "lat": 52.592499}}, {"id": 6558435, "name": "Heemsen", "state": "", "country": "DE", "coord": {"lon": 9.26667, "lat": 52.700001}}, {"id": 6558436, "name": "Landesbergen", "state": "", "country": "DE", "coord": {"lon": 9.13333, "lat": 52.5667}}, {"id": 6558439, "name": "Steimbke", "state": "", "country": "DE", "coord": {"lon": 9.40414, "lat": 52.662201}}, {"id": 6558440, "name": "Stolzenau", "state": "", "country": "DE", "coord": {"lon": 9.03611, "lat": 52.5079}}, {"id": 6558441, "name": "Apelern", "state": "", "country": "DE", "coord": {"lon": 9.31588, "lat": 52.302299}}, {"id": 6558442, "name": "Auetal", "state": "", "country": "DE", "coord": {"lon": 9.2516, "lat": 52.2388}}, {"id": 6558443, "name": "Auhagen", "state": "", "country": "DE", "coord": {"lon": 9.29725, "lat": 52.4058}}, {"id": 6558446, "name": "Heuer\u00dfen", "state": "", "country": "DE", "coord": {"lon": 9.28457, "lat": 52.334}}, {"id": 6558447, "name": "Hohnhorst", "state": "", "country": "DE", "coord": {"lon": 9.35401, "lat": 52.3657}}, {"id": 6558448, "name": "H\u00fclsede", "state": "", "country": "DE", "coord": {"lon": 9.36278, "lat": 52.249298}}, {"id": 6558449, "name": "Lauenhagen", "state": "", "country": "DE", "coord": {"lon": 9.21805, "lat": 52.3629}}, {"id": 6558450, "name": "Lindhorst", "state": "", "country": "DE", "coord": {"lon": 9.287, "lat": 52.357899}}, {"id": 6558451, "name": "L\u00fcdersfeld", "state": "", "country": "DE", "coord": {"lon": 9.25057, "lat": 52.349701}}, {"id": 6558452, "name": "Meerbeck", "state": "", "country": "DE", "coord": {"lon": 9.14938, "lat": 52.342579}}, {"id": 6558453, "name": "Messenkamp", "state": "", "country": "DE", "coord": {"lon": 9.39714, "lat": 52.260201}}, {"id": 6558458, "name": "Seggebruch", "state": "", "country": "DE", "coord": {"lon": 9.09427, "lat": 52.302299}}, {"id": 6558461, "name": "W\u00f6lpinghausen", "state": "", "country": "DE", "coord": {"lon": 9.25574, "lat": 52.419498}}, {"id": 6558462, "name": "Damnatz", "state": "", "country": "DE", "coord": {"lon": 11.1716, "lat": 53.143299}}, {"id": 6558464, "name": "G\u00f6hrde", "state": "", "country": "DE", "coord": {"lon": 10.956, "lat": 53.130901}}, {"id": 6558465, "name": "Gorleben", "state": "", "country": "DE", "coord": {"lon": 11.3717, "lat": 53.047699}}, {"id": 6558466, "name": "Jameln", "state": "", "country": "DE", "coord": {"lon": 11.0471, "lat": 53.041302}}, {"id": 6558467, "name": "Karwitz", "state": "", "country": "DE", "coord": {"lon": 11.0166, "lat": 53.088402}}, {"id": 6558468, "name": "K\u00fcsten", "state": "", "country": "DE", "coord": {"lon": 11.0667, "lat": 52.983299}}, {"id": 6558469, "name": "Schnega", "state": "", "country": "DE", "coord": {"lon": 10.8701, "lat": 52.882801}}, {"id": 6558470, "name": "Waddeweitz", "state": "", "country": "DE", "coord": {"lon": 10.971, "lat": 53.006401}}, {"id": 6558472, "name": "Hinte", "state": "", "country": "DE", "coord": {"lon": 7.19717, "lat": 53.4221}}, {"id": 6558477, "name": "Wiesmoor", "state": "", "country": "DE", "coord": {"lon": 7.71717, "lat": 53.412899}}, {"id": 6558478, "name": "Dornum", "state": "", "country": "DE", "coord": {"lon": 7.43019, "lat": 53.655499}}, {"id": 6558480, "name": "Sande", "state": "", "country": "DE", "coord": {"lon": 8.01447, "lat": 53.496498}}, {"id": 6558481, "name": "Schortens", "state": "", "country": "DE", "coord": {"lon": 7.96113, "lat": 53.5396}}, {"id": 6558482, "name": "Zetel", "state": "", "country": "DE", "coord": {"lon": 7.96454, "lat": 53.402199}}, {"id": 6558483, "name": "Friedeburg", "state": "", "country": "DE", "coord": {"lon": 7.84016, "lat": 53.4529}}, {"id": 6558484, "name": "Ochtersum", "state": "", "country": "DE", "coord": {"lon": 7.51616, "lat": 53.606899}}, {"id": 6558494, "name": "Wallmerod", "state": "", "country": "DE", "coord": {"lon": 7.95, "lat": 50.483299}}, {"id": 6558495, "name": "Wied", "state": "", "country": "DE", "coord": {"lon": 7.75, "lat": 50.633301}}, {"id": 6558503, "name": "Murr", "state": "", "country": "DE", "coord": {"lon": 9.25877, "lat": 48.962189}}, {"id": 6558504, "name": "Bergh\u00fclen", "state": "", "country": "DE", "coord": {"lon": 9.76138, "lat": 48.465}}, {"id": 6558506, "name": "Dornstadt", "state": "", "country": "DE", "coord": {"lon": 9.94366, "lat": 48.466999}}, {"id": 6558508, "name": "Merklingen", "state": "", "country": "DE", "coord": {"lon": 9.75487, "lat": 48.51149}}, {"id": 6558509, "name": "Nellingen", "state": "", "country": "DE", "coord": {"lon": 9.79165, "lat": 48.541729}}, {"id": 6558512, "name": "Eberhardzell", "state": "", "country": "DE", "coord": {"lon": 9.82441, "lat": 48.002701}}, {"id": 6558526, "name": "Wegscheid, Markt", "state": "", "country": "DE", "coord": {"lon": 13.78647, "lat": 48.601131}}, {"id": 6558834, "name": "R\u00f6hrnbach, Markt", "state": "", "country": "DE", "coord": {"lon": 13.5234, "lat": 48.739071}}, {"id": 6558862, "name": "Lutter am Barenberge, Flecken", "state": "", "country": "DE", "coord": {"lon": 10.2667, "lat": 51.983299}}, {"id": 6558876, "name": "Beverstedt", "state": "", "country": "DE", "coord": {"lon": 8.81827, "lat": 53.434841}}, {"id": 6558948, "name": "Berg bei Neumarkt in der Oberpfalz", "state": "", "country": "DE", "coord": {"lon": 11.4403, "lat": 49.331699}}, {"id": 6559065, "name": "Hannover, Landeshauptstadt", "state": "", "country": "DE", "coord": {"lon": 9.73711, "lat": 52.373619}}, {"id": 6559086, "name": "Bad Bodenteich, Flecken", "state": "", "country": "DE", "coord": {"lon": 10.6833, "lat": 52.833302}}, {"id": 6559101, "name": "Hennef (Sieg)", "state": "", "country": "DE", "coord": {"lon": 7.28456, "lat": 50.77565}}, {"id": 6559224, "name": "M\u00fcnstertal/Schwarzwald", "state": "", "country": "DE", "coord": {"lon": 7.78333, "lat": 47.849998}}, {"id": 6559229, "name": "Sch\u00f6nefeld", "state": "", "country": "DE", "coord": {"lon": 13.60407, "lat": 52.359421}}, {"id": 6559244, "name": "Plattenburg", "state": "", "country": "DE", "coord": {"lon": 11.95937, "lat": 52.964619}}, {"id": 6559245, "name": "Schenkend\u00f6bern", "state": "", "country": "DE", "coord": {"lon": 14.54538, "lat": 51.95805}}, {"id": 6559246, "name": "Am Mellensee", "state": "", "country": "DE", "coord": {"lon": 13.38251, "lat": 52.14856}}, {"id": 6559249, "name": "Biendorf", "state": "", "country": "DE", "coord": {"lon": 11.6683, "lat": 54.001511}}, {"id": 6559250, "name": "Hohenfelde", "state": "", "country": "DE", "coord": {"lon": 11.88422, "lat": 54.09943}}, {"id": 6559251, "name": "Retschow", "state": "", "country": "DE", "coord": {"lon": 11.88422, "lat": 54.09943}}, {"id": 6559255, "name": "Baumgarten", "state": "", "country": "DE", "coord": {"lon": 11.9208, "lat": 53.838718}}, {"id": 6559256, "name": "Bernitt", "state": "", "country": "DE", "coord": {"lon": 11.92475, "lat": 53.887909}}, {"id": 6559257, "name": "Plaaz", "state": "", "country": "DE", "coord": {"lon": 12.30272, "lat": 53.76849}}, {"id": 6559260, "name": "Schwasdorf", "state": "", "country": "DE", "coord": {"lon": 12.58877, "lat": 53.872478}}, {"id": 6559262, "name": "Dettmannsdorf", "state": "", "country": "DE", "coord": {"lon": 12.61539, "lat": 54.127178}}, {"id": 6559264, "name": "L\u00fcbstorf", "state": "", "country": "DE", "coord": {"lon": 11.41471, "lat": 53.725609}}, {"id": 6559269, "name": "Drebach", "state": "", "country": "DE", "coord": {"lon": 13.045, "lat": 50.706532}}, {"id": 6559275, "name": "Naundorf", "state": "", "country": "DE", "coord": {"lon": 13.11778, "lat": 51.33485}}, {"id": 6559287, "name": "Wingerode", "state": "", "country": "DE", "coord": {"lon": 10.30873, "lat": 51.380508}}, {"id": 6559288, "name": "Neustadt/Harz", "state": "", "country": "DE", "coord": {"lon": 10.83388, "lat": 51.557308}}, {"id": 6559291, "name": "Gierst\u00e4dt", "state": "", "country": "DE", "coord": {"lon": 10.86262, "lat": 51.036179}}, {"id": 6559292, "name": "Bockstadt", "state": "", "country": "DE", "coord": {"lon": 10.88554, "lat": 50.442032}}, {"id": 6559293, "name": "Grub", "state": "", "country": "DE", "coord": {"lon": 10.55765, "lat": 50.579041}}, {"id": 6559294, "name": "Haina", "state": "", "country": "DE", "coord": {"lon": 10.48233, "lat": 50.42915}}, {"id": 6559298, "name": "Breitenhain", "state": "", "country": "DE", "coord": {"lon": 11.72176, "lat": 50.714512}}, {"id": 6559299, "name": "Burgk", "state": "", "country": "DE", "coord": {"lon": 11.80966, "lat": 50.60199}}, {"id": 6559300, "name": "Chursdorf", "state": "", "country": "DE", "coord": {"lon": 11.80966, "lat": 50.60199}}, {"id": 6559301, "name": "Kospoda", "state": "", "country": "DE", "coord": {"lon": 11.72176, "lat": 50.714512}}, {"id": 6559302, "name": "Mo\u00dfbach", "state": "", "country": "DE", "coord": {"lon": 11.80966, "lat": 50.60199}}, {"id": 6559303, "name": "Stanau", "state": "", "country": "DE", "coord": {"lon": 11.72176, "lat": 50.714512}}, {"id": 6559304, "name": "Bocka", "state": "", "country": "DE", "coord": {"lon": 11.93643, "lat": 50.820801}}, {"id": 6559305, "name": "Heyersdorf", "state": "", "country": "DE", "coord": {"lon": 12.30895, "lat": 50.893028}}, {"id": 6559306, "name": "Immenstedt", "state": "", "country": "DE", "coord": {"lon": 9.31784, "lat": 54.147041}}, {"id": 6559309, "name": "Bornholt", "state": "", "country": "DE", "coord": {"lon": 9.41056, "lat": 54.130909}}, {"id": 6559310, "name": "Delingsdorf", "state": "", "country": "DE", "coord": {"lon": 10.25583, "lat": 53.72834}}, {"id": 6559312, "name": "Hammoor", "state": "", "country": "DE", "coord": {"lon": 10.25583, "lat": 53.72834}}, {"id": 6559315, "name": "R\u00fcmmelsheim", "state": "", "country": "DE", "coord": {"lon": 7.81029, "lat": 49.905762}}, {"id": 6559317, "name": "Welcherath", "state": "", "country": "DE", "coord": {"lon": 6.91143, "lat": 50.300831}}, {"id": 6559318, "name": "Greimerath", "state": "", "country": "DE", "coord": {"lon": 6.69401, "lat": 49.59362}}, {"id": 6559319, "name": "Relsberg", "state": "", "country": "DE", "coord": {"lon": 7.63404, "lat": 49.580841}}, {"id": 6559320, "name": "Halsbach", "state": "", "country": "DE", "coord": {"lon": 12.68307, "lat": 48.115711}}, {"id": 6559321, "name": "Albaching", "state": "", "country": "DE", "coord": {"lon": 12.11191, "lat": 48.10701}}, {"id": 6559322, "name": "Binswangen", "state": "", "country": "DE", "coord": {"lon": 10.67217, "lat": 48.543991}}, {"id": 6559323, "name": "Villenbach", "state": "", "country": "DE", "coord": {"lon": 10.67217, "lat": 48.543991}}, {"id": 6559324, "name": "Zusamaltheim", "state": "", "country": "DE", "coord": {"lon": 10.67217, "lat": 48.543991}}, {"id": 6559325, "name": "Wielen", "state": "", "country": "DE", "coord": {"lon": 6.76672, "lat": 52.51524}}, {"id": 6559422, "name": "Aci Trezza", "state": "", "country": "IT", "coord": {"lon": 15.16136, "lat": 37.563862}}, {"id": 6559490, "name": "Demre", "state": "", "country": "TR", "coord": {"lon": 29.977699, "lat": 36.2537}}, {"id": 6559492, "name": "Oravsk\u00e1 Lesn\u00e1", "state": "", "country": "SK", "coord": {"lon": 19.180929, "lat": 49.366718}}, {"id": 6559494, "name": "Tywyn", "state": "", "country": "GB", "coord": {"lon": -4.09276, "lat": 52.585781}}, {"id": 6559502, "name": "Pego", "state": "", "country": "ES", "coord": {"lon": -0.11707, "lat": 38.843048}}, {"id": 6559503, "name": "l'Alf\u00e0s del Pi", "state": "", "country": "ES", "coord": {"lon": -0.10321, "lat": 38.580551}}, {"id": 6559504, "name": "Deltebre", "state": "", "country": "ES", "coord": {"lon": 0.70835, "lat": 40.71944}}, {"id": 6559543, "name": "Bettmeralp", "state": "", "country": "CH", "coord": {"lon": 8.06254, "lat": 46.390221}}, {"id": 6559559, "name": "Horishni Plavni", "state": "", "country": "UA", "coord": {"lon": 33.645458, "lat": 49.009731}}, {"id": 6559561, "name": "Sedella", "state": "", "country": "ES", "coord": {"lon": -4.03314, "lat": 36.86232}}, {"id": 6559635, "name": "Breganzona", "state": "", "country": "CH", "coord": {"lon": 8.92898, "lat": 46.006939}}, {"id": 6559641, "name": "Las Gabias", "state": "", "country": "ES", "coord": {"lon": -3.69765, "lat": 37.132961}}, {"id": 6559643, "name": "Sant Climent", "state": "", "country": "ES", "coord": {"lon": 4.20874, "lat": 39.872059}}, {"id": 6559645, "name": "San Jos\u00e9 del Valle", "state": "", "country": "ES", "coord": {"lon": -5.79895, "lat": 36.605541}}, {"id": 6559647, "name": "Endo", "state": "", "country": "ES", "coord": {"lon": 0.89934, "lat": 42.367378}}, {"id": 6559648, "name": "Camarles", "state": "", "country": "ES", "coord": {"lon": 0.65509, "lat": 40.781689}}, {"id": 6559656, "name": "Langkampfen", "state": "", "country": "AT", "coord": {"lon": 12.09325, "lat": 47.551109}}, {"id": 6559781, "name": "El Carmen", "state": "", "country": "PE", "coord": {"lon": -78.315002, "lat": -9.47056}}, {"id": 6559994, "name": "Buenos Aires", "state": "", "country": "PE", "coord": {"lon": -78.497498, "lat": -9.12417}}, {"id": 6565267, "name": "Kro\u015bcienko nad Dunajcem", "state": "", "country": "PL", "coord": {"lon": 20.426241, "lat": 49.440811}}, {"id": 6567631, "name": "Jiuli", "state": "", "country": "CN", "coord": {"lon": 117.1371, "lat": 34.293411}}, {"id": 6569475, "name": "Marawi City", "state": "", "country": "PH", "coord": {"lon": 124.295853, "lat": 8.02769}}, {"id": 6569685, "name": "Cagayan De Oro City", "state": "", "country": "PH", "coord": {"lon": 124.688889, "lat": 8.46917}}, {"id": 6569804, "name": "Cabanglasan", "state": "", "country": "PH", "coord": {"lon": 125.301941, "lat": 8.09083}}, {"id": 6571507, "name": "Samjeon-dong", "state": "", "country": "KR", "coord": {"lon": 127.090561, "lat": 37.501671}}, {"id": 6573030, "name": "Namhyang-dong", "state": "", "country": "KR", "coord": {"lon": 127.021393, "lat": 37.283611}}, {"id": 6573457, "name": "Wonteo", "state": "", "country": "KR", "coord": {"lon": 127.056107, "lat": 37.443329}}, {"id": 6573747, "name": "Dongjinwon", "state": "", "country": "KR", "coord": {"lon": 127.145828, "lat": 37.282501}}, {"id": 6575423, "name": "Haejeong", "state": "", "country": "KR", "coord": {"lon": 127.024437, "lat": 37.096111}}, {"id": 6575822, "name": "Sangdeok", "state": "", "country": "KR", "coord": {"lon": 127.17028, "lat": 37.212219}}, {"id": 6575866, "name": "Samga-dong", "state": "", "country": "KR", "coord": {"lon": 127.159439, "lat": 37.238892}}, {"id": 6575883, "name": "Seryui-dong", "state": "", "country": "KR", "coord": {"lon": 127.008888, "lat": 37.244438}}, {"id": 6575891, "name": "Yeongtongi-dong", "state": "", "country": "KR", "coord": {"lon": 127.06472, "lat": 37.251389}}, {"id": 6576320, "name": "Subu-mal", "state": "", "country": "KR", "coord": {"lon": 127.53167, "lat": 37.40139}}, {"id": 6581396, "name": "Palasari", "state": "", "country": "ID", "coord": {"lon": 107.914719, "lat": -6.85222}}, {"id": 6588093, "name": "Cibeber", "state": "", "country": "ID", "coord": {"lon": 107.07917, "lat": -6.99861}}, {"id": 6589202, "name": "Gioviano", "state": "", "country": "IT", "coord": {"lon": 10.52701, "lat": 44.0116}}, {"id": 6597903, "name": "Pabaton", "state": "", "country": "ID", "coord": {"lon": 106.792503, "lat": -6.58944}}, {"id": 6599990, "name": "Wuyi", "state": "", "country": "TW", "coord": {"lon": 120.73278, "lat": 22.041941}}, {"id": 6600589, "name": "Shalun", "state": "", "country": "TW", "coord": {"lon": 120.945, "lat": 24.81361}}, {"id": 6601472, "name": "Gunungkalong", "state": "", "country": "ID", "coord": {"lon": 106.798332, "lat": -6.99611}}, {"id": 6603652, "name": "Bojonggaling", "state": "", "country": "ID", "coord": {"lon": 106.640831, "lat": -6.99667}}, {"id": 6603657, "name": "Sindangsari", "state": "", "country": "ID", "coord": {"lon": 106.674721, "lat": -6.99306}}, {"id": 6604595, "name": "Kadaka", "state": "", "country": "ID", "coord": {"lon": 106.499802, "lat": -6.519}}, {"id": 6604897, "name": "Sidoger Lebak", "state": "", "country": "ID", "coord": {"lon": 106.513062, "lat": -6.59278}}, {"id": 6606791, "name": "Sembang Ilon", "state": "", "country": "ID", "coord": {"lon": 107.399437, "lat": -6.32139}}, {"id": 6607350, "name": "Lis\u2019i Yamki", "state": "", "country": "RU", "coord": {"lon": 43.839512, "lat": 56.119339}}, {"id": 6607360, "name": "Chernukha", "state": "", "country": "RU", "coord": {"lon": 43.00798, "lat": 56.213879}}, {"id": 6607491, "name": "Novoye Doskino", "state": "", "country": "RU", "coord": {"lon": 43.757721, "lat": 56.269569}}, {"id": 6607632, "name": "Alchan", "state": "", "country": "RU", "coord": {"lon": 134.320557, "lat": 46.631111}}, {"id": 6607759, "name": "Taynovo", "state": "", "country": "RU", "coord": {"lon": 43.970554, "lat": 56.41861}}, {"id": 6607797, "name": "Kireyevo", "state": "", "country": "RU", "coord": {"lon": 43.860001, "lat": 56.479168}}, {"id": 6607800, "name": "Shaposhnoye", "state": "", "country": "RU", "coord": {"lon": 43.900002, "lat": 56.450001}}, {"id": 6607801, "name": "Filino", "state": "", "country": "RU", "coord": {"lon": 43.880001, "lat": 56.48}}, {"id": 6607802, "name": "Petukhovo", "state": "", "country": "RU", "coord": {"lon": 43.900002, "lat": 56.439999}}, {"id": 6607803, "name": "Ogolikhino", "state": "", "country": "RU", "coord": {"lon": 43.919998, "lat": 56.43}}, {"id": 6607806, "name": "Markovo", "state": "", "country": "RU", "coord": {"lon": 43.889999, "lat": 56.459999}}, {"id": 6607812, "name": "Medvedkovo", "state": "", "country": "RU", "coord": {"lon": 43.959999, "lat": 56.419998}}, {"id": 6607877, "name": "Sannikovo", "state": "", "country": "RU", "coord": {"lon": 43.740002, "lat": 56.549999}}, {"id": 6607889, "name": "Kartashikha", "state": "", "country": "RU", "coord": {"lon": 43.746944, "lat": 56.558334}}, {"id": 6607930, "name": "Sidorovo", "state": "", "country": "RU", "coord": {"lon": 43.799999, "lat": 56.529999}}, {"id": 6607941, "name": "Yelevo", "state": "", "country": "RU", "coord": {"lon": 43.834999, "lat": 56.531113}}, {"id": 6607944, "name": "Pudovo", "state": "", "country": "RU", "coord": {"lon": 43.84, "lat": 56.5}}, {"id": 6607949, "name": "Maksimovskoye", "state": "", "country": "RU", "coord": {"lon": 43.84, "lat": 56.52}}, {"id": 6607952, "name": "Polezhayki", "state": "", "country": "RU", "coord": {"lon": 43.860001, "lat": 56.5}}, {"id": 6607953, "name": "Sitnikovo", "state": "", "country": "RU", "coord": {"lon": 43.866268, "lat": 56.500389}}, {"id": 6607965, "name": "Filino", "state": "", "country": "RU", "coord": {"lon": 43.0, "lat": 56.59}}, {"id": 6607967, "name": "Vorontsovo", "state": "", "country": "RU", "coord": {"lon": 43.06472, "lat": 56.613335}}, {"id": 6607968, "name": "Il\u2019inka", "state": "", "country": "RU", "coord": {"lon": 43.05978, "lat": 56.600151}}, {"id": 6607980, "name": "Shekhovskaya", "state": "", "country": "RU", "coord": {"lon": 43.23, "lat": 56.619999}}, {"id": 6607981, "name": "Urkovo", "state": "", "country": "RU", "coord": {"lon": 43.259167, "lat": 56.629166}}, {"id": 6608029, "name": "Rozhkovo", "state": "", "country": "RU", "coord": {"lon": 43.529999, "lat": 56.619999}}, {"id": 6608040, "name": "Gorbunovo", "state": "", "country": "RU", "coord": {"lon": 43.557777, "lat": 56.614166}}, {"id": 6608053, "name": "Volovoye", "state": "", "country": "RU", "coord": {"lon": 43.586945, "lat": 56.602779}}, {"id": 6608061, "name": "Arkhipikha", "state": "", "country": "RU", "coord": {"lon": 43.610001, "lat": 56.611668}}, {"id": 6608071, "name": "Karaikha", "state": "", "country": "RU", "coord": {"lon": 43.626945, "lat": 56.605556}}, {"id": 6608084, "name": "Lomki", "state": "", "country": "RU", "coord": {"lon": 43.66, "lat": 56.59}}, {"id": 6608093, "name": "Nechaikha", "state": "", "country": "RU", "coord": {"lon": 43.669998, "lat": 56.580002}}, {"id": 6608095, "name": "Kozhukhova", "state": "", "country": "RU", "coord": {"lon": 43.688889, "lat": 56.585556}}, {"id": 6608121, "name": "Red\u2019kino", "state": "", "country": "RU", "coord": {"lon": 43.740002, "lat": 56.57}}, {"id": 6608290, "name": "Baryshikha", "state": "", "country": "RU", "coord": {"lon": 43.092789, "lat": 56.65527}}, {"id": 6608295, "name": "Maloye Chukhovo", "state": "", "country": "RU", "coord": {"lon": 43.09, "lat": 56.650002}}, {"id": 6608298, "name": "Kuznetsovo", "state": "", "country": "RU", "coord": {"lon": 43.111111, "lat": 56.63361}}, {"id": 6608299, "name": "Kruglovo", "state": "", "country": "RU", "coord": {"lon": 43.152222, "lat": 56.630554}}, {"id": 6608304, "name": "Trofonovo", "state": "", "country": "RU", "coord": {"lon": 43.194721, "lat": 56.631943}}, {"id": 6608309, "name": "Vypolzovo", "state": "", "country": "RU", "coord": {"lon": 43.337776, "lat": 56.641945}}, {"id": 6608392, "name": "Ivanovo", "state": "", "country": "RU", "coord": {"lon": 43.416111, "lat": 56.691387}}, {"id": 6608407, "name": "Zaborovo", "state": "", "country": "RU", "coord": {"lon": 43.436668, "lat": 56.683056}}, {"id": 6608408, "name": "Tarkhanovo", "state": "", "country": "RU", "coord": {"lon": 43.451111, "lat": 56.674168}}, {"id": 6608411, "name": "Skol\u2019zikhino", "state": "", "country": "RU", "coord": {"lon": 43.48, "lat": 56.720001}}, {"id": 6608412, "name": "Beschastnoye", "state": "", "country": "RU", "coord": {"lon": 43.473919, "lat": 56.720509}}, {"id": 6608413, "name": "Sotnevo", "state": "", "country": "RU", "coord": {"lon": 43.460899, "lat": 56.701149}}, {"id": 6608414, "name": "Povalikhino", "state": "", "country": "RU", "coord": {"lon": 43.470001, "lat": 56.689999}}, {"id": 6608415, "name": "Kunorino", "state": "", "country": "RU", "coord": {"lon": 43.473331, "lat": 56.684166}}, {"id": 6608416, "name": "Nozdrino", "state": "", "country": "RU", "coord": {"lon": 43.509998, "lat": 56.73}}, {"id": 6608584, "name": "Beloglazovo", "state": "", "country": "RU", "coord": {"lon": 43.55389, "lat": 56.794998}}, {"id": 6608587, "name": "Bledny", "state": "", "country": "RU", "coord": {"lon": 43.557919, "lat": 56.783428}}, {"id": 6608597, "name": "Yefutino", "state": "", "country": "RU", "coord": {"lon": 43.559444, "lat": 56.806389}}, {"id": 6608599, "name": "Bastranovo", "state": "", "country": "RU", "coord": {"lon": 43.563332, "lat": 56.798058}}, {"id": 6608603, "name": "Chegen\u00ebvo", "state": "", "country": "RU", "coord": {"lon": 43.583332, "lat": 56.800278}}, {"id": 6608675, "name": "Kazakovo", "state": "", "country": "RU", "coord": {"lon": 42.051666, "lat": 56.824165}}, {"id": 6608705, "name": "Zimnitsy Malyye", "state": "", "country": "RU", "coord": {"lon": 42.099998, "lat": 56.854168}}, {"id": 6608708, "name": "Bokari", "state": "", "country": "RU", "coord": {"lon": 42.076111, "lat": 56.851112}}, {"id": 6608762, "name": "Lapino", "state": "", "country": "RU", "coord": {"lon": 43.57, "lat": 56.82}}, {"id": 6608763, "name": "Goryushki", "state": "", "country": "RU", "coord": {"lon": 43.565556, "lat": 56.814999}}, {"id": 6608774, "name": "Kosolapovo", "state": "", "country": "RU", "coord": {"lon": 43.587776, "lat": 56.831944}}, {"id": 6608777, "name": "Privalovo", "state": "", "country": "RU", "coord": {"lon": 43.599998, "lat": 56.84}}, {"id": 6608780, "name": "Karlovo", "state": "", "country": "RU", "coord": {"lon": 43.623611, "lat": 56.87278}}, {"id": 6608783, "name": "Yevdokimovo", "state": "", "country": "RU", "coord": {"lon": 43.647499, "lat": 56.88139}}, {"id": 6608785, "name": "Kalinki", "state": "", "country": "RU", "coord": {"lon": 43.624722, "lat": 56.849167}}, {"id": 6608850, "name": "Krivonosovo", "state": "", "country": "RU", "coord": {"lon": 43.64389, "lat": 56.895}}, {"id": 6608858, "name": "Martynovo", "state": "", "country": "RU", "coord": {"lon": 43.68, "lat": 56.919998}}, {"id": 6608860, "name": "Osokovo", "state": "", "country": "RU", "coord": {"lon": 43.68214, "lat": 56.921421}}, {"id": 6608861, "name": "Vysokovo", "state": "", "country": "RU", "coord": {"lon": 43.68972, "lat": 56.922501}}, {"id": 6608866, "name": "Vorotilovo", "state": "", "country": "RU", "coord": {"lon": 43.719723, "lat": 56.956669}}, {"id": 6608867, "name": "Krasnaya Ramen\u2019", "state": "", "country": "RU", "coord": {"lon": 43.671944, "lat": 56.909721}}, {"id": 6608927, "name": "Krutovo", "state": "", "country": "RU", "coord": {"lon": 43.853058, "lat": 56.953609}}, {"id": 6608930, "name": "Utkino", "state": "", "country": "RU", "coord": {"lon": 43.865276, "lat": 56.955555}}, {"id": 6608950, "name": "Okul\u2019tsevo", "state": "", "country": "RU", "coord": {"lon": 42.220001, "lat": 56.84}}, {"id": 6609009, "name": "Martynovo", "state": "", "country": "RU", "coord": {"lon": 42.34, "lat": 56.799999}}, {"id": 6609011, "name": "Vanino", "state": "", "country": "RU", "coord": {"lon": 42.283054, "lat": 56.849445}}, {"id": 6609032, "name": "Khmelino", "state": "", "country": "RU", "coord": {"lon": 42.358612, "lat": 56.771389}}, {"id": 6609038, "name": "Yerovo", "state": "", "country": "RU", "coord": {"lon": 42.39806, "lat": 56.765301}}, {"id": 6609039, "name": "Malakhovo", "state": "", "country": "RU", "coord": {"lon": 42.380001, "lat": 56.77}}, {"id": 6609139, "name": "Sakharovo", "state": "", "country": "RU", "coord": {"lon": 42.470001, "lat": 56.75}}, {"id": 6609143, "name": "Parshukovo", "state": "", "country": "RU", "coord": {"lon": 42.509998, "lat": 56.740002}}, {"id": 6609220, "name": "Lovygino", "state": "", "country": "RU", "coord": {"lon": 43.84, "lat": 57.02}}, {"id": 6609221, "name": "Zadorino", "state": "", "country": "RU", "coord": {"lon": 43.915279, "lat": 56.979443}}, {"id": 6609240, "name": "Zarubino", "state": "", "country": "RU", "coord": {"lon": 42.562222, "lat": 56.735001}}, {"id": 6609241, "name": "Bolobino", "state": "", "country": "RU", "coord": {"lon": 42.55389, "lat": 56.740555}}, {"id": 6609244, "name": "Mal\u2019yanovo", "state": "", "country": "RU", "coord": {"lon": 42.59, "lat": 56.740002}}, {"id": 6609438, "name": "Timagino", "state": "", "country": "RU", "coord": {"lon": 42.611111, "lat": 56.725555}}, {"id": 6609446, "name": "Pogorelka", "state": "", "country": "RU", "coord": {"lon": 42.630001, "lat": 56.720001}}, {"id": 6609459, "name": "Timakovo", "state": "", "country": "RU", "coord": {"lon": 42.737778, "lat": 56.679722}}, {"id": 6609461, "name": "Polyakovo", "state": "", "country": "RU", "coord": {"lon": 42.709999, "lat": 56.68}},