[{"id": 7042150, "name": "Yuxikou", "state": "", "country": "CN", "coord": {"lon": 118.303032, "lat": 31.43358}}, {"id": 7042475, "name": "Suromna", "state": "", "country": "RU", "coord": {"lon": 40.49033, "lat": 56.192139}}, {"id": 7042546, "name": "Plyasitsyno", "state": "", "country": "RU", "coord": {"lon": 40.770931, "lat": 56.411598}}, {"id": 7042649, "name": "Ratnitskoye", "state": "", "country": "RU", "coord": {"lon": 40.25351, "lat": 56.516239}}, {"id": 7042807, "name": "Mal\u2019chikha", "state": "", "country": "RU", "coord": {"lon": 40.869541, "lat": 56.800159}}, {"id": 7042847, "name": "Maslovo", "state": "", "country": "RU", "coord": {"lon": 40.851372, "lat": 56.815689}}, {"id": 7043153, "name": "Jiujiang", "state": "", "country": "CN", "coord": {"lon": 118.377243, "lat": 31.36994}}, {"id": 7043574, "name": "Iqbal Camp", "state": "", "country": "PK", "coord": {"lon": 74.396202, "lat": 31.5151}}, {"id": 7043829, "name": "Orlovka", "state": "", "country": "RU", "coord": {"lon": 44.574451, "lat": 48.855282}}, {"id": 7043838, "name": "Zarechenskiy", "state": "", "country": "RU", "coord": {"lon": 44.57579, "lat": 48.81065}}, {"id": 7043934, "name": "Tat\u2019yanka", "state": "", "country": "RU", "coord": {"lon": 44.606689, "lat": 48.54171}}, {"id": 7043956, "name": "Chapurniki", "state": "", "country": "RU", "coord": {"lon": 44.500061, "lat": 48.451279}}, {"id": 7044034, "name": "Akbar\u0101b\u0101d", "state": "", "country": "IR", "coord": {"lon": 58.416851, "lat": 29.084021}}, {"id": 7044425, "name": "Zhangzhen", "state": "", "country": "CN", "coord": {"lon": 118.530823, "lat": 31.306459}}, {"id": 7045142, "name": "Sitdik-Mullino", "state": "", "country": "RU", "coord": {"lon": 55.99659, "lat": 53.97504}}, {"id": 7046438, "name": "Zaliznychne", "state": "", "country": "UA", "coord": {"lon": 34.512772, "lat": 46.01931}}, {"id": 7046674, "name": "Novyy Trud", "state": "", "country": "UA", "coord": {"lon": 34.551159, "lat": 46.07766}}, {"id": 7046678, "name": "Sal\u2019kove", "state": "", "country": "UA", "coord": {"lon": 34.606331, "lat": 46.175251}}, {"id": 7046679, "name": "Krasnoye Znamya", "state": "", "country": "UA", "coord": {"lon": 34.575668, "lat": 46.083031}}, {"id": 7046808, "name": "Moskalenka", "state": "", "country": "UA", "coord": {"lon": 34.741928, "lat": 46.286369}}, {"id": 7046809, "name": "Rivne", "state": "", "country": "UA", "coord": {"lon": 34.757729, "lat": 46.360168}}, {"id": 7046810, "name": "Kommunarskoye", "state": "", "country": "UA", "coord": {"lon": 34.785191, "lat": 46.372169}}, {"id": 7046940, "name": "K\u0101n\u012b \u2018Abd\u016b", "state": "", "country": "IQ", "coord": {"lon": 41.84935, "lat": 36.30209}}, {"id": 7047778, "name": "Xiexiang", "state": "", "country": "CN", "coord": {"lon": 118.045372, "lat": 31.82469}}, {"id": 7047779, "name": "Shanhou", "state": "", "country": "CN", "coord": {"lon": 118.155937, "lat": 31.874929}}, {"id": 7047845, "name": "Limiao", "state": "", "country": "CN", "coord": {"lon": 109.898659, "lat": 34.05254}}, {"id": 7048101, "name": "Xiwang", "state": "", "country": "CN", "coord": {"lon": 109.05677, "lat": 34.287682}}, {"id": 7048173, "name": "Dongyang", "state": "", "country": "CN", "coord": {"lon": 109.627663, "lat": 34.384281}}, {"id": 7048205, "name": "Daming", "state": "", "country": "CN", "coord": {"lon": 109.672302, "lat": 34.42944}}, {"id": 7048208, "name": "Jinhui", "state": "", "country": "CN", "coord": {"lon": 109.700081, "lat": 34.430779}}, {"id": 7048263, "name": "Xinglin", "state": "", "country": "CN", "coord": {"lon": 109.760696, "lat": 34.49371}}, {"id": 7048301, "name": "Longbei", "state": "", "country": "CN", "coord": {"lon": 109.571693, "lat": 34.543781}}, {"id": 7048311, "name": "Xinzhuang", "state": "", "country": "CN", "coord": {"lon": 109.671043, "lat": 34.55909}}, {"id": 7048330, "name": "Bijia", "state": "", "country": "CN", "coord": {"lon": 109.838448, "lat": 34.582439}}, {"id": 7048362, "name": "Novoyefremivka", "state": "", "country": "UA", "coord": {"lon": 34.93766, "lat": 46.478409}}, {"id": 7048363, "name": "Druzhba", "state": "", "country": "UA", "coord": {"lon": 34.994579, "lat": 46.54496}}, {"id": 7048397, "name": "Nanshi", "state": "", "country": "CN", "coord": {"lon": 109.627777, "lat": 34.65097}}, {"id": 7048451, "name": "Dongshangguan", "state": "", "country": "CN", "coord": {"lon": 109.216431, "lat": 34.729839}}, {"id": 7048630, "name": "Dongyang", "state": "", "country": "CN", "coord": {"lon": 109.629929, "lat": 34.927521}}, {"id": 7049343, "name": "Sanshan", "state": "", "country": "CN", "coord": {"lon": 118.229858, "lat": 31.21244}}, {"id": 7050080, "name": "Jinjiazhuang", "state": "", "country": "CN", "coord": {"lon": 118.488113, "lat": 31.720261}}, {"id": 7050502, "name": "Jinping", "state": "", "country": "CN", "coord": {"lon": 110.958344, "lat": 29.247101}}, {"id": 7050525, "name": "Yanghe", "state": "", "country": "CN", "coord": {"lon": 110.704102, "lat": 29.26502}}, {"id": 7050615, "name": "Xilian", "state": "", "country": "CN", "coord": {"lon": 110.7286, "lat": 29.67918}}, {"id": 7050674, "name": "Yujiazui", "state": "", "country": "CN", "coord": {"lon": 110.562691, "lat": 29.353359}}, {"id": 7050692, "name": "Liulang", "state": "", "country": "CN", "coord": {"lon": 110.50946, "lat": 29.29306}}, {"id": 7050713, "name": "Jianxin", "state": "", "country": "CN", "coord": {"lon": 110.550232, "lat": 29.14315}}, {"id": 7051026, "name": "Huancheng", "state": "", "country": "CN", "coord": {"lon": 112.539467, "lat": 33.01453}}, {"id": 7051040, "name": "Pushan", "state": "", "country": "CN", "coord": {"lon": 112.594788, "lat": 33.119701}}, {"id": 7051062, "name": "Watulumbung", "state": "", "country": "ID", "coord": {"lon": 111.512001, "lat": -7.0052}}, {"id": 7051063, "name": "Suruhan", "state": "", "country": "ID", "coord": {"lon": 111.515701, "lat": -7.0046}}, {"id": 7051752, "name": "Tirtoyudo", "state": "", "country": "ID", "coord": {"lon": 112.816002, "lat": -8.2446}}, {"id": 7052787, "name": "Gh\u014drm\u0101ch", "state": "", "country": "AF", "coord": {"lon": 63.77898, "lat": 35.731049}}, {"id": 7052836, "name": "\u1e28asan\u0101b\u0101d", "state": "", "country": "IR", "coord": {"lon": 61.054298, "lat": 36.546501}}, {"id": 7052970, "name": "Zheshan", "state": "", "country": "CN", "coord": {"lon": 112.351669, "lat": 33.04464}}, {"id": 7055418, "name": "Banjar Wangsian", "state": "", "country": "ID", "coord": {"lon": 115.423424, "lat": -8.49497}}, {"id": 7055895, "name": "Taishanmiao", "state": "", "country": "CN", "coord": {"lon": 112.643127, "lat": 33.39637}}, {"id": 7056293, "name": "Mityana District", "state": "", "country": "UG", "coord": {"lon": 32.066971, "lat": 0.43213}}, {"id": 7056294, "name": "Nakaseke District", "state": "", "country": "UG", "coord": {"lon": 32.189678, "lat": 1.04063}}, {"id": 7056341, "name": "Longxing", "state": "", "country": "CN", "coord": {"lon": 112.406471, "lat": 33.197369}}, {"id": 7057435, "name": "Yaoshan", "state": "", "country": "CN", "coord": {"lon": 112.383728, "lat": 33.752628}}, {"id": 7059190, "name": "Kuzhuping", "state": "", "country": "CN", "coord": {"lon": 110.084129, "lat": 29.647079}}, {"id": 7059368, "name": "Suoziqiu", "state": "", "country": "CN", "coord": {"lon": 110.366203, "lat": 29.54324}}, {"id": 7059369, "name": "Zoumaping", "state": "", "country": "CN", "coord": {"lon": 110.441498, "lat": 29.471889}}, {"id": 7059370, "name": "Huochiyu", "state": "", "country": "CN", "coord": {"lon": 110.471848, "lat": 29.462839}}, {"id": 7059417, "name": "Guluoshan", "state": "", "country": "CN", "coord": {"lon": 110.191963, "lat": 29.58802}}, {"id": 7059421, "name": "Xiaobutou", "state": "", "country": "CN", "coord": {"lon": 110.097511, "lat": 29.46072}}, {"id": 7059424, "name": "Kongkeshu", "state": "", "country": "CN", "coord": {"lon": 110.344322, "lat": 29.439951}}, {"id": 7059452, "name": "Zouma", "state": "", "country": "CN", "coord": {"lon": 110.42836, "lat": 29.829929}}, {"id": 7059463, "name": "Baiguo", "state": "", "country": "CN", "coord": {"lon": 110.456146, "lat": 29.8841}}, {"id": 7059538, "name": "Fengxianggang", "state": "", "country": "CN", "coord": {"lon": 110.393883, "lat": 29.110069}}, {"id": 7059550, "name": "Sifangyan", "state": "", "country": "CN", "coord": {"lon": 110.447884, "lat": 29.104959}}, {"id": 7059590, "name": "Xiangjiazhai", "state": "", "country": "CN", "coord": {"lon": 110.005081, "lat": 29.20685}}, {"id": 7059662, "name": "Xiaoyuwan", "state": "", "country": "CN", "coord": {"lon": 110.419891, "lat": 29.27384}}, {"id": 7059688, "name": "Shadi", "state": "", "country": "CN", "coord": {"lon": 110.462921, "lat": 29.18998}}, {"id": 7059698, "name": "Yinjiaxi", "state": "", "country": "CN", "coord": {"lon": 110.409248, "lat": 29.137171}}, {"id": 7059716, "name": "Qingping", "state": "", "country": "CN", "coord": {"lon": 110.228081, "lat": 29.02824}}, {"id": 7060470, "name": "Xiheshan", "state": "", "country": "CN", "coord": {"lon": 118.34893, "lat": 31.44302}}, {"id": 7060472, "name": "Jinghu", "state": "", "country": "CN", "coord": {"lon": 118.368294, "lat": 31.34758}}, {"id": 7060474, "name": "Yijiang", "state": "", "country": "CN", "coord": {"lon": 118.360527, "lat": 31.31546}}, {"id": 7060590, "name": "Yonghe", "state": "", "country": "CN", "coord": {"lon": 118.551231, "lat": 31.1661}}, {"id": 7060987, "name": "Louziqiu", "state": "", "country": "CN", "coord": {"lon": 110.366203, "lat": 29.54324}}, {"id": 7060990, "name": "Wuli", "state": "", "country": "CN", "coord": {"lon": 110.344978, "lat": 29.89646}}, {"id": 7061167, "name": "Cangtou", "state": "", "country": "CN", "coord": {"lon": 112.791557, "lat": 33.87598}}, {"id": 7061713, "name": "Zhanbei", "state": "", "country": "CN", "coord": {"lon": 113.444069, "lat": 33.777931}}, {"id": 7061735, "name": "Ziyun", "state": "", "country": "CN", "coord": {"lon": 113.429459, "lat": 33.81974}}, {"id": 7061781, "name": "Fenchen", "state": "", "country": "CN", "coord": {"lon": 113.530762, "lat": 33.970711}}, {"id": 7061864, "name": "Lianhua", "state": "", "country": "CN", "coord": {"lon": 113.819656, "lat": 33.597679}}, {"id": 7062006, "name": "Tianzhuang", "state": "", "country": "CN", "coord": {"lon": 113.353722, "lat": 33.567471}}, {"id": 7062138, "name": "Provincia de Santa Elena", "state": "", "country": "EC", "coord": {"lon": -80.583328, "lat": -2.08333}}, {"id": 7062967, "name": "Nyanza", "state": "", "country": "RW", "coord": {"lon": 29.750891, "lat": -2.35187}}, {"id": 7063415, "name": "Sipo", "state": "", "country": "CN", "coord": {"lon": 113.517181, "lat": 33.280972}}, {"id": 7063426, "name": "Yuanling", "state": "", "country": "CN", "coord": {"lon": 113.459602, "lat": 33.282341}}, {"id": 7063439, "name": "Zhulan", "state": "", "country": "CN", "coord": {"lon": 113.529457, "lat": 33.319118}}, {"id": 7063446, "name": "Kuangshan", "state": "", "country": "CN", "coord": {"lon": 113.495728, "lat": 33.378738}}, {"id": 7063452, "name": "Zaolin", "state": "", "country": "CN", "coord": {"lon": 113.584396, "lat": 33.365749}}, {"id": 7063875, "name": "Zhuyu", "state": "", "country": "CN", "coord": {"lon": 108.039017, "lat": 34.135609}}, {"id": 7063902, "name": "Diantou", "state": "", "country": "CN", "coord": {"lon": 108.010002, "lat": 34.54026}}, {"id": 7063937, "name": "Xujia", "state": "", "country": "CN", "coord": {"lon": 108.962502, "lat": 34.34}}, {"id": 7063941, "name": "Xinjiamiao", "state": "", "country": "CN", "coord": {"lon": 108.988319, "lat": 34.3055}}, {"id": 7063942, "name": "Xicheng", "state": "", "country": "CN", "coord": {"lon": 108.441681, "lat": 34.308048}}, {"id": 7063956, "name": "Gudu", "state": "", "country": "CN", "coord": {"lon": 108.69313, "lat": 34.3456}}, {"id": 7063957, "name": "Weiyang", "state": "", "country": "CN", "coord": {"lon": 108.739487, "lat": 34.35487}}, {"id": 7063958, "name": "Weicheng", "state": "", "country": "CN", "coord": {"lon": 108.716911, "lat": 34.331402}}, {"id": 7063959, "name": "Qindu", "state": "", "country": "CN", "coord": {"lon": 108.708237, "lat": 34.341862}}, {"id": 7063961, "name": "Weiyang", "state": "", "country": "CN", "coord": {"lon": 108.935539, "lat": 34.2906}}, {"id": 7063962, "name": "Xincheng", "state": "", "country": "CN", "coord": {"lon": 108.949539, "lat": 34.26321}}, {"id": 7063963, "name": "Beilin", "state": "", "country": "CN", "coord": {"lon": 108.915657, "lat": 34.228458}}, {"id": 7063964, "name": "Wangsi", "state": "", "country": "CN", "coord": {"lon": 108.793808, "lat": 34.250648}}, {"id": 7064006, "name": "Tongchuan", "state": "", "country": "CN", "coord": {"lon": 108.950562, "lat": 34.8988}}, {"id": 7064007, "name": "Zhangjiabao", "state": "", "country": "CN", "coord": {"lon": 108.937027, "lat": 34.329128}}, {"id": 7064008, "name": "Dianzicheng", "state": "", "country": "CN", "coord": {"lon": 108.904129, "lat": 34.191719}}, {"id": 7064009, "name": "Changyanbao", "state": "", "country": "CN", "coord": {"lon": 108.94989, "lat": 34.19352}}, {"id": 7064011, "name": "Lianhu", "state": "", "country": "CN", "coord": {"lon": 108.924202, "lat": 34.25848}}, {"id": 7064165, "name": "Kampung Pamaguan", "state": "", "country": "MY", "coord": {"lon": 118.062202, "lat": 5.958}}, {"id": 7064487, "name": "Longmenfan", "state": "", "country": "CN", "coord": {"lon": 117.651131, "lat": 28.50046}}, {"id": 7064497, "name": "Qingban", "state": "", "country": "CN", "coord": {"lon": 117.572021, "lat": 28.509541}}, {"id": 7064530, "name": "Qinghu", "state": "", "country": "CN", "coord": {"lon": 117.351631, "lat": 28.34532}}, {"id": 7064531, "name": "Nanyan", "state": "", "country": "CN", "coord": {"lon": 117.447777, "lat": 28.399389}}, {"id": 7064541, "name": "Guifeng", "state": "", "country": "CN", "coord": {"lon": 117.374092, "lat": 28.325701}}, {"id": 7064559, "name": "Zhukeng", "state": "", "country": "CN", "coord": {"lon": 117.512749, "lat": 28.39263}}, {"id": 7064569, "name": "Lianhe", "state": "", "country": "CN", "coord": {"lon": 117.631073, "lat": 28.389151}}, {"id": 7064576, "name": "Sipu", "state": "", "country": "CN", "coord": {"lon": 117.708679, "lat": 28.43663}}, {"id": 7064593, "name": "Bangluo", "state": "", "country": "CN", "coord": {"lon": 117.793777, "lat": 28.30575}}, {"id": 7064594, "name": "Qingxi", "state": "", "country": "CN", "coord": {"lon": 117.863907, "lat": 28.30447}}, {"id": 7064608, "name": "Yongping", "state": "", "country": "CN", "coord": {"lon": 117.777702, "lat": 28.21554}}, {"id": 7064650, "name": "Dieshan", "state": "", "country": "CN", "coord": {"lon": 117.508659, "lat": 28.214211}}, {"id": 7064674, "name": "Liukou", "state": "", "country": "CN", "coord": {"lon": 117.257019, "lat": 28.2815}}, {"id": 7064678, "name": "Jianzhu", "state": "", "country": "CN", "coord": {"lon": 117.32579, "lat": 28.26413}}, {"id": 7064737, "name": "Yanglin", "state": "", "country": "CN", "coord": {"lon": 117.691879, "lat": 28.141171}}, {"id": 7064744, "name": "Hufang", "state": "", "country": "CN", "coord": {"lon": 117.553574, "lat": 28.161249}}, {"id": 7064757, "name": "Chenfang", "state": "", "country": "CN", "coord": {"lon": 117.543922, "lat": 28.052771}}, {"id": 7064787, "name": "Zixi", "state": "", "country": "CN", "coord": {"lon": 117.783997, "lat": 28.06949}}, {"id": 7064796, "name": "Sanxianling", "state": "", "country": "CN", "coord": {"lon": 117.32692, "lat": 28.67049}}, {"id": 7064797, "name": "Zhongfan", "state": "", "country": "CN", "coord": {"lon": 117.378197, "lat": 28.54038}}, {"id": 7064799, "name": "Xinhuang", "state": "", "country": "CN", "coord": {"lon": 117.601379, "lat": 28.713539}}, {"id": 7064801, "name": "Wanli", "state": "", "country": "CN", "coord": {"lon": 117.373138, "lat": 28.45364}}, {"id": 7064802, "name": "Gexi", "state": "", "country": "CN", "coord": {"lon": 117.458771, "lat": 28.464239}}, {"id": 7064803, "name": "Xintan", "state": "", "country": "CN", "coord": {"lon": 117.679413, "lat": 28.333179}}, {"id": 7064804, "name": "Xuguang", "state": "", "country": "CN", "coord": {"lon": 117.424583, "lat": 28.26829}}, {"id": 7064805, "name": "Jiaxuan", "state": "", "country": "CN", "coord": {"lon": 117.824722, "lat": 28.18836}}, {"id": 7064836, "name": "Huatanshan", "state": "", "country": "CN", "coord": {"lon": 117.815079, "lat": 28.710899}}, {"id": 7064864, "name": "Shiren", "state": "", "country": "CN", "coord": {"lon": 117.897812, "lat": 28.655951}}, {"id": 7064915, "name": "Wangcun", "state": "", "country": "CN", "coord": {"lon": 117.964973, "lat": 28.59696}}, {"id": 7064916, "name": "Qingshui", "state": "", "country": "CN", "coord": {"lon": 117.885391, "lat": 28.546459}}, {"id": 7064920, "name": "Huanggu", "state": "", "country": "CN", "coord": {"lon": 117.980949, "lat": 28.58083}}, {"id": 7064958, "name": "Chaoyang", "state": "", "country": "CN", "coord": {"lon": 118.069588, "lat": 28.44392}}, {"id": 7064959, "name": "Lingxi", "state": "", "country": "CN", "coord": {"lon": 118.025749, "lat": 28.498989}}, {"id": 7064965, "name": "Shishi", "state": "", "country": "CN", "coord": {"lon": 117.97348, "lat": 28.501801}}, {"id": 7065042, "name": "Chating", "state": "", "country": "CN", "coord": {"lon": 117.887978, "lat": 28.35668}}, {"id": 7065063, "name": "Huangshaling", "state": "", "country": "CN", "coord": {"lon": 117.952812, "lat": 28.24358}}, {"id": 7065111, "name": "Sishiba", "state": "", "country": "CN", "coord": {"lon": 118.027618, "lat": 28.22991}}, {"id": 7065290, "name": "Sanqing", "state": "", "country": "CN", "coord": {"lon": 118.093147, "lat": 28.9258}}, {"id": 7065291, "name": "Zihu", "state": "", "country": "CN", "coord": {"lon": 118.154579, "lat": 28.905621}}, {"id": 7065390, "name": "Nanshan", "state": "", "country": "CN", "coord": {"lon": 118.085411, "lat": 28.80344}}, {"id": 7065462, "name": "Danan", "state": "", "country": "CN", "coord": {"lon": 118.244041, "lat": 28.548519}}, {"id": 7065530, "name": "Huacun", "state": "", "country": "CN", "coord": {"lon": 118.29451, "lat": 28.587749}}, {"id": 7065541, "name": "Gaozhou", "state": "", "country": "CN", "coord": {"lon": 118.07402, "lat": 28.1285}}, {"id": 7065542, "name": "Wufushan", "state": "", "country": "CN", "coord": {"lon": 118.047432, "lat": 28.143299}}, {"id": 7065574, "name": "Baitian", "state": "", "country": "CN", "coord": {"lon": 117.256317, "lat": 28.5096}}, {"id": 7065614, "name": "Zhiguang", "state": "", "country": "CN", "coord": {"lon": 117.077232, "lat": 28.361}}, {"id": 7065643, "name": "Binjiang", "state": "", "country": "CN", "coord": {"lon": 117.184441, "lat": 28.295259}}, {"id": 7065656, "name": "Luohe", "state": "", "country": "CN", "coord": {"lon": 117.177368, "lat": 28.210171}}, {"id": 7065668, "name": "Jintun", "state": "", "country": "CN", "coord": {"lon": 117.227783, "lat": 28.12571}}, {"id": 7065721, "name": "Tangwan", "state": "", "country": "CN", "coord": {"lon": 117.225632, "lat": 28.07686}}, {"id": 7065744, "name": "Yujia", "state": "", "country": "CN", "coord": {"lon": 117.024117, "lat": 28.175381}}, {"id": 7065785, "name": "Huaqiao", "state": "", "country": "CN", "coord": {"lon": 117.042877, "lat": 28.51614}}, {"id": 7065798, "name": "Dayuan", "state": "", "country": "CN", "coord": {"lon": 117.177406, "lat": 28.738251}}, {"id": 7065989, "name": "Longtoushan", "state": "", "country": "CN", "coord": {"lon": 117.839638, "lat": 28.947929}}, {"id": 7066113, "name": "Zhenqiao", "state": "", "country": "CN", "coord": {"lon": 117.035477, "lat": 28.89809}}, {"id": 7066209, "name": "Wuyishan", "state": "", "country": "CN", "coord": {"lon": 117.811378, "lat": 28.00473}}, {"id": 7066210, "name": "Huanggangshan", "state": "", "country": "CN", "coord": {"lon": 117.741447, "lat": 28.01063}}, {"id": 7066216, "name": "Tongfan", "state": "", "country": "CN", "coord": {"lon": 118.310417, "lat": 28.30817}}, {"id": 7066221, "name": "Xiatang", "state": "", "country": "CN", "coord": {"lon": 118.099152, "lat": 28.615311}}, {"id": 7066223, "name": "Bimu", "state": "", "country": "CN", "coord": {"lon": 118.098961, "lat": 28.67662}}, {"id": 7066231, "name": "Songfeng", "state": "", "country": "CN", "coord": {"lon": 118.393837, "lat": 28.359909}}, {"id": 7066232, "name": "Quanbo", "state": "", "country": "CN", "coord": {"lon": 118.334213, "lat": 28.38077}}, {"id": 7066245, "name": "Xiaxi", "state": "", "country": "CN", "coord": {"lon": 118.186691, "lat": 28.459789}}, {"id": 7066247, "name": "Guancun", "state": "", "country": "CN", "coord": {"lon": 118.424492, "lat": 28.475861}}, {"id": 7066458, "name": "Lingyang", "state": "", "country": "CN", "coord": {"lon": 117.608543, "lat": 28.42341}}, {"id": 7066459, "name": "Hekou", "state": "", "country": "CN", "coord": {"lon": 117.714371, "lat": 28.31958}}, {"id": 7066460, "name": "Yiyang", "state": "", "country": "CN", "coord": {"lon": 117.432159, "lat": 28.40521}}, {"id": 7066461, "name": "Chenying", "state": "", "country": "CN", "coord": {"lon": 117.067123, "lat": 28.69441}}, {"id": 7066462, "name": "Zhushan", "state": "", "country": "CN", "coord": {"lon": 117.065903, "lat": 28.70573}}, {"id": 7067051, "name": "Zhiyang", "state": "", "country": "CN", "coord": {"lon": 113.135017, "lat": 33.786839}}, {"id": 7067066, "name": "Nanguzhuang", "state": "", "country": "CN", "coord": {"lon": 112.876572, "lat": 33.900188}}, {"id": 7067102, "name": "Geyang", "state": "", "country": "CN", "coord": {"lon": 102.803261, "lat": 24.93125}}, {"id": 7067109, "name": "Jiujie", "state": "", "country": "CN", "coord": {"lon": 102.68428, "lat": 24.109079}}, {"id": 7067319, "name": "Xuzhen", "state": "", "country": "CN", "coord": {"lon": 118.406807, "lat": 31.06394}}, {"id": 7067329, "name": "Hongyang", "state": "", "country": "CN", "coord": {"lon": 118.538841, "lat": 31.070601}}, {"id": 7067440, "name": "Liqiao", "state": "", "country": "CN", "coord": {"lon": 118.920227, "lat": 31.221121}}, {"id": 7067456, "name": "Liulang", "state": "", "country": "CN", "coord": {"lon": 118.537292, "lat": 31.240931}}, {"id": 7067527, "name": "Baiqiao", "state": "", "country": "CN", "coord": {"lon": 118.30793, "lat": 31.536699}}, {"id": 7067534, "name": "Laoqiao", "state": "", "country": "CN", "coord": {"lon": 118.303703, "lat": 31.60906}}, {"id": 7068135, "name": "Kampung Lemal", "state": "", "country": "MY", "coord": {"lon": 102.141258, "lat": 6.03021}}, {"id": 7069018, "name": "Zhishan", "state": "", "country": "CN", "coord": {"lon": 118.325233, "lat": 27.04373}}, {"id": 7069199, "name": "Wuhu", "state": "", "country": "CN", "coord": {"lon": 118.564651, "lat": 31.146299}}, {"id": 7069322, "name": "Dongzhou", "state": "", "country": "CN", "coord": {"lon": 112.807053, "lat": 33.784409}}, {"id": 7069422, "name": "Huayuan", "state": "", "country": "CN", "coord": {"lon": 113.319641, "lat": 32.722389}}, {"id": 7069457, "name": "Tongshan", "state": "", "country": "CN", "coord": {"lon": 113.556938, "lat": 32.772598}}, {"id": 7069527, "name": "Taishanmiao", "state": "", "country": "CN", "coord": {"lon": 113.208344, "lat": 32.86924}}, {"id": 7069734, "name": "Cuizhuang", "state": "", "country": "CN", "coord": {"lon": 112.393448, "lat": 33.530579}}, {"id": 7069735, "name": "Chengjiao", "state": "", "country": "CN", "coord": {"lon": 112.440422, "lat": 33.48756}}, {"id": 7069745, "name": "Huanghou", "state": "", "country": "CN", "coord": {"lon": 112.756981, "lat": 33.480042}}, {"id": 7069747, "name": "Yangji", "state": "", "country": "CN", "coord": {"lon": 112.992569, "lat": 33.327209}}, {"id": 7069748, "name": "Qinghe", "state": "", "country": "CN", "coord": {"lon": 112.905312, "lat": 33.250679}}, {"id": 7070437, "name": "Wuxiang", "state": "", "country": "CN", "coord": {"lon": 121.687347, "lat": 29.846029}}, {"id": 7070567, "name": "Liu\u2019ao", "state": "", "country": "CN", "coord": {"lon": 121.590134, "lat": 29.085199}}, {"id": 7070575, "name": "Minggang", "state": "", "country": "CN", "coord": {"lon": 121.637749, "lat": 29.19132}}, {"id": 7070622, "name": "Duantang", "state": "", "country": "CN", "coord": {"lon": 121.524544, "lat": 29.85063}}, {"id": 7070623, "name": "Dongqianhu", "state": "", "country": "CN", "coord": {"lon": 121.632156, "lat": 29.79147}}, {"id": 7070639, "name": "Tangtou", "state": "", "country": "CN", "coord": {"lon": 121.71344, "lat": 29.669889}}, {"id": 7070644, "name": "Yongjiang", "state": "", "country": "CN", "coord": {"lon": 121.578651, "lat": 29.90387}}, {"id": 7070648, "name": "Dongjiao", "state": "", "country": "CN", "coord": {"lon": 121.586617, "lat": 29.8752}}, {"id": 7070921, "name": "Daying", "state": "", "country": "CN", "coord": {"lon": 112.893822, "lat": 33.933899}}, {"id": 7070927, "name": "Qianying", "state": "", "country": "CN", "coord": {"lon": 112.909264, "lat": 33.979649}}, {"id": 7071012, "name": "Jingang", "state": "", "country": "CN", "coord": {"lon": 112.495941, "lat": 33.014839}}, {"id": 7071013, "name": "Chengjiao", "state": "", "country": "CN", "coord": {"lon": 112.254723, "lat": 33.041779}}, {"id": 7071227, "name": "Choujiang", "state": "", "country": "CN", "coord": {"lon": 120.027557, "lat": 29.28339}}, {"id": 7071293, "name": "Dachen", "state": "", "country": "CN", "coord": {"lon": 120.125267, "lat": 29.452101}}, {"id": 7071355, "name": "Longshan", "state": "", "country": "CN", "coord": {"lon": 120.182037, "lat": 29.023199}}, {"id": 7071409, "name": "Chenzhai", "state": "", "country": "CN", "coord": {"lon": 120.336578, "lat": 29.497629}}, {"id": 7071551, "name": "Nanshi", "state": "", "country": "CN", "coord": {"lon": 120.229736, "lat": 29.14875}}, {"id": 7071576, "name": "Wuning", "state": "", "country": "CN", "coord": {"lon": 120.231079, "lat": 29.258869}}, {"id": 7071582, "name": "Jiangbei", "state": "", "country": "CN", "coord": {"lon": 120.232224, "lat": 29.30028}}, {"id": 7071603, "name": "Chengdong", "state": "", "country": "CN", "coord": {"lon": 120.322807, "lat": 29.286461}}, {"id": 7071654, "name": "Haoba", "state": "", "country": "CN", "coord": {"lon": 120.847748, "lat": 29.955299}}, {"id": 7071719, "name": "Zhutiantou", "state": "", "country": "CN", "coord": {"lon": 120.578331, "lat": 29.776461}}, {"id": 7071797, "name": "Fushan", "state": "", "country": "CN", "coord": {"lon": 120.55912, "lat": 29.998199}}, {"id": 7071799, "name": "Jianhu", "state": "", "country": "CN", "coord": {"lon": 120.571243, "lat": 29.97986}}, {"id": 7071800, "name": "Chengnan", "state": "", "country": "CN", "coord": {"lon": 120.567436, "lat": 29.97237}}, {"id": 7071804, "name": "Jishan", "state": "", "country": "CN", "coord": {"lon": 120.60508, "lat": 29.970261}}, {"id": 7071824, "name": "Yongheshi", "state": "", "country": "CN", "coord": {"lon": 121.04541, "lat": 29.9727}}, {"id": 7072184, "name": "Daijia", "state": "", "country": "CN", "coord": {"lon": 121.45089, "lat": 29.82752}}, {"id": 7072188, "name": "Dongqiao", "state": "", "country": "CN", "coord": {"lon": 121.402962, "lat": 29.780741}}, {"id": 7072236, "name": "Jinping", "state": "", "country": "CN", "coord": {"lon": 121.40226, "lat": 29.662951}}, {"id": 7072290, "name": "Chengguan", "state": "", "country": "CN", "coord": {"lon": 121.431503, "lat": 29.28746}}, {"id": 7072317, "name": "Zhu\u2019ao", "state": "", "country": "CN", "coord": {"lon": 121.285896, "lat": 29.069719}}, {"id": 7072392, "name": "Meizhu", "state": "", "country": "CN", "coord": {"lon": 120.797791, "lat": 29.47715}}, {"id": 7072678, "name": "Dacun", "state": "", "country": "CN", "coord": {"lon": 121.197906, "lat": 29.05574}}, {"id": 7072825, "name": "Pan\u2019an", "state": "", "country": "CN", "coord": {"lon": 120.437576, "lat": 29.05368}}, {"id": 7072944, "name": "Sop Pong", "state": "", "country": "TH", "coord": {"lon": 98.260422, "lat": 19.51881}}, {"id": 7073137, "name": "Muzhijie", "state": "", "country": "CN", "coord": {"lon": 112.165237, "lat": 33.962212}}, {"id": 7073339, "name": "Arzak", "state": "", "country": "CN", "coord": {"lon": 76.120171, "lat": 39.676159}}, {"id": 7073440, "name": "Tangzhuang", "state": "", "country": "CN", "coord": {"lon": 112.948219, "lat": 33.10342}}, {"id": 7073550, "name": "Chengjiao", "state": "", "country": "CN", "coord": {"lon": 112.925858, "lat": 33.049351}}, {"id": 7074978, "name": "Afaha Oku", "state": "", "country": "NG", "coord": {"lon": 7.9217, "lat": 5.04827}}, {"id": 7076382, "name": "Sadovyy", "state": "", "country": "RU", "coord": {"lon": 73.295021, "lat": 54.97411}}, {"id": 7076549, "name": "Liujia", "state": "", "country": "CN", "coord": {"lon": 122.113281, "lat": 41.50008}}, {"id": 7076550, "name": "Wujia", "state": "", "country": "CN", "coord": {"lon": 121.998734, "lat": 41.45874}}, {"id": 7076551, "name": "Baojia", "state": "", "country": "CN", "coord": {"lon": 121.711327, "lat": 41.499809}}, {"id": 7076552, "name": "Beizhen", "state": "", "country": "CN", "coord": {"lon": 121.796638, "lat": 41.59584}}, {"id": 7076747, "name": "Shanxi", "state": "", "country": "CN", "coord": {"lon": 120.542923, "lat": 40.937889}}, {"id": 7076762, "name": "Baimashi", "state": "", "country": "CN", "coord": {"lon": 120.350166, "lat": 40.915668}}, {"id": 7076796, "name": "Heiiyugou", "state": "", "country": "CN", "coord": {"lon": 120.55368, "lat": 40.804298}}, {"id": 7076873, "name": "Jinjiao", "state": "", "country": "CN", "coord": {"lon": 120.846519, "lat": 40.744781}}, {"id": 7076878, "name": "Yuhuang", "state": "", "country": "CN", "coord": {"lon": 120.88517, "lat": 40.731701}}, {"id": 7076881, "name": "Longgang", "state": "", "country": "CN", "coord": {"lon": 120.925583, "lat": 40.721458}}, {"id": 7076882, "name": "Cishan", "state": "", "country": "CN", "coord": {"lon": 120.900848, "lat": 40.74445}}, {"id": 7076883, "name": "Dabaimashi", "state": "", "country": "CN", "coord": {"lon": 120.904297, "lat": 40.765221}}, {"id": 7077223, "name": "Malyye Kabany", "state": "", "country": "RU", "coord": {"lon": 49.274281, "lat": 55.61602}}, {"id": 7077487, "name": "Tyukhtovo", "state": "", "country": "RU", "coord": {"lon": 39.437649, "lat": 56.199699}}, {"id": 7078365, "name": "Soksheyki", "state": "", "country": "RU", "coord": {"lon": 39.489929, "lat": 57.99575}}, {"id": 7080233, "name": "Stankeyevo", "state": "", "country": "RU", "coord": {"lon": 28.265421, "lat": 56.83831}}, {"id": 7080898, "name": "Zatur\u2019ye", "state": "", "country": "RU", "coord": {"lon": 28.502199, "lat": 56.287701}}, {"id": 7081603, "name": "Tuliskriyo", "state": "", "country": "ID", "coord": {"lon": 112.151901, "lat": -8.1341}}, {"id": 7081604, "name": "Klampok", "state": "", "country": "ID", "coord": {"lon": 112.161697, "lat": -8.1299}}, {"id": 7081611, "name": "Minggirsari Dua", "state": "", "country": "ID", "coord": {"lon": 112.169701, "lat": -8.142}}, {"id": 7081621, "name": "Karangsono", "state": "", "country": "ID", "coord": {"lon": 112.206139, "lat": -8.1402}}, {"id": 7081633, "name": "Jegu", "state": "", "country": "ID", "coord": {"lon": 112.234901, "lat": -8.1512}}, {"id": 7081636, "name": "Satrejan", "state": "", "country": "ID", "coord": {"lon": 112.220596, "lat": -8.1429}}, {"id": 7081642, "name": "Serut", "state": "", "country": "ID", "coord": {"lon": 112.193199, "lat": -8.1435}}, {"id": 7081648, "name": "Plosorejo", "state": "", "country": "ID", "coord": {"lon": 112.170799, "lat": -8.157}}, {"id": 7081654, "name": "Tenggong", "state": "", "country": "ID", "coord": {"lon": 112.132599, "lat": -8.1539}}, {"id": 7081656, "name": "Dawuhan", "state": "", "country": "ID", "coord": {"lon": 112.131203, "lat": -8.168}}, {"id": 7081661, "name": "Sumberjati", "state": "", "country": "ID", "coord": {"lon": 112.146202, "lat": -8.1653}}, {"id": 7081664, "name": "Darungan Satu", "state": "", "country": "ID", "coord": {"lon": 112.176498, "lat": -8.1598}}, {"id": 7081671, "name": "Kembangarum", "state": "", "country": "ID", "coord": {"lon": 112.216797, "lat": -8.1593}}, {"id": 7081674, "name": "Wonorejo", "state": "", "country": "ID", "coord": {"lon": 112.218239, "lat": -8.17021}}, {"id": 7081675, "name": "Sukorejo", "state": "", "country": "ID", "coord": {"lon": 112.231003, "lat": -8.1717}}, {"id": 7081676, "name": "Jinglong", "state": "", "country": "ID", "coord": {"lon": 112.230759, "lat": -8.16576}}, {"id": 7081683, "name": "Bacem", "state": "", "country": "ID", "coord": {"lon": 112.232071, "lat": -8.1946}}, {"id": 7081692, "name": "Klampok", "state": "", "country": "ID", "coord": {"lon": 112.194778, "lat": -8.18198}}, {"id": 7081694, "name": "Kedungbunder", "state": "", "country": "ID", "coord": {"lon": 112.208298, "lat": -8.1775}}, {"id": 7081695, "name": "Sutojayan", "state": "", "country": "ID", "coord": {"lon": 112.216217, "lat": -8.17849}}, {"id": 7081696, "name": "Sumberrejo", "state": "", "country": "ID", "coord": {"lon": 112.2379, "lat": -8.1802}}, {"id": 7081711, "name": "Wonotirto", "state": "", "country": "ID", "coord": {"lon": 112.153999, "lat": -8.2245}}, {"id": 7081715, "name": "Pasiraman", "state": "", "country": "ID", "coord": {"lon": 112.1287, "lat": -8.2437}}, {"id": 7081717, "name": "Sumberboto Satu", "state": "", "country": "ID", "coord": {"lon": 112.1474, "lat": -8.2279}}, {"id": 7081733, "name": "Becirto", "state": "", "country": "ID", "coord": {"lon": 112.241798, "lat": -8.22648}}, {"id": 7081735, "name": "Kanigoro", "state": "", "country": "ID", "coord": {"lon": 112.218964, "lat": -8.13003}}, {"id": 7081757, "name": "Tumpang Satu", "state": "", "country": "ID", "coord": {"lon": 112.760849, "lat": -8.00635}}, {"id": 7081775, "name": "Pandansari", "state": "", "country": "ID", "coord": {"lon": 112.804398, "lat": -8.0699}}, {"id": 7081778, "name": "Karanganyar", "state": "", "country": "ID", "coord": {"lon": 112.756798, "lat": -8.0658}}, {"id": 7081818, "name": "Nongkosewu", "state": "", "country": "ID", "coord": {"lon": 112.764, "lat": -8.0461}}, {"id": 7081819, "name": "Wates", "state": "", "country": "ID", "coord": {"lon": 112.7677, "lat": -8.0413}}, {"id": 7081824, "name": "Krajan", "state": "", "country": "ID", "coord": {"lon": 112.7696, "lat": -8.013}}, {"id": 7081826, "name": "Belung Satu", "state": "", "country": "ID", "coord": {"lon": 112.769203, "lat": -8.0338}}, {"id": 7081829, "name": "Wonorejo", "state": "", "country": "ID", "coord": {"lon": 112.781197, "lat": -8.0453}}, {"id": 7081834, "name": "Simpanganduwet", "state": "", "country": "ID", "coord": {"lon": 112.797501, "lat": -8.0321}}, {"id": 7081842, "name": "Kedampul", "state": "", "country": "ID", "coord": {"lon": 112.813202, "lat": -8.0097}}, {"id": 7081844, "name": "Krajan", "state": "", "country": "ID", "coord": {"lon": 112.819, "lat": -8.0189}}, {"id": 7082481, "name": "Khuzdar", "state": "", "country": "PK", "coord": {"lon": 66.643356, "lat": 27.73838}}, {"id": 7082996, "name": "Gaplek", "state": "", "country": "ID", "coord": {"lon": 113.627502, "lat": -8.1294}}, {"id": 7083057, "name": "Krajan", "state": "", "country": "ID", "coord": {"lon": 113.7416, "lat": -8.1298}}, {"id": 7083064, "name": "Plalangan", "state": "", "country": "ID", "coord": {"lon": 113.710403, "lat": -8.1359}}, {"id": 7083070, "name": "Jumerto", "state": "", "country": "ID", "coord": {"lon": 113.688103, "lat": -8.1379}}, {"id": 7083083, "name": "Serut", "state": "", "country": "ID", "coord": {"lon": 113.637901, "lat": -8.1523}}, {"id": 7083090, "name": "Sukorambi", "state": "", "country": "ID", "coord": {"lon": 113.665199, "lat": -8.1571}}, {"id": 7083091, "name": "Krajan", "state": "", "country": "ID", "coord": {"lon": 113.667297, "lat": -8.1531}}, {"id": 7083099, "name": "Kebonwaru Satu", "state": "", "country": "ID", "coord": {"lon": 113.672096, "lat": -8.1532}}, {"id": 7083103, "name": "Puring Kulon", "state": "", "country": "ID", "coord": {"lon": 113.690269, "lat": -8.14919}}, {"id": 7083110, "name": "Patrang", "state": "", "country": "ID", "coord": {"lon": 113.719597, "lat": -8.1446}}, {"id": 7083111, "name": "Tegalgede Kulon", "state": "", "country": "ID", "coord": {"lon": 113.722488, "lat": -8.15454}}, {"id": 7083127, "name": "Krajan", "state": "", "country": "ID", "coord": {"lon": 113.705482, "lat": -8.15856}}, {"id": 7083142, "name": "Dukuhmencek Lor", "state": "", "country": "ID", "coord": {"lon": 113.648903, "lat": -8.169}}, {"id": 7083151, "name": "Kaliwates", "state": "", "country": "ID", "coord": {"lon": 113.671204, "lat": -8.1821}}, {"id": 7083154, "name": "Kepatihan", "state": "", "country": "ID", "coord": {"lon": 113.702499, "lat": -8.1746}}, {"id": 7083160, "name": "Sumberketangi", "state": "", "country": "ID", "coord": {"lon": 113.738098, "lat": -8.1868}}, {"id": 7083162, "name": "Kloncing", "state": "", "country": "ID", "coord": {"lon": 113.726997, "lat": -8.1848}}, {"id": 7083175, "name": "Telengsari", "state": "", "country": "ID", "coord": {"lon": 113.691704, "lat": -8.1814}}, {"id": 7083178, "name": "Sumberdangdang", "state": "", "country": "ID", "coord": {"lon": 113.703598, "lat": -8.1839}}, {"id": 7083181, "name": "Sumbersari Wetan", "state": "", "country": "ID", "coord": {"lon": 113.718262, "lat": -8.17399}}, {"id": 7083193, "name": "Krajan", "state": "", "country": "ID", "coord": {"lon": 113.664803, "lat": -8.1857}}, {"id": 7083205, "name": "Jubung", "state": "", "country": "ID", "coord": {"lon": 113.637398, "lat": -8.1968}}, {"id": 7083207, "name": "Mangli", "state": "", "country": "ID", "coord": {"lon": 113.651604, "lat": -8.191}}, {"id": 7083225, "name": "Langsepan", "state": "", "country": "ID", "coord": {"lon": 113.725372, "lat": -8.20787}}, {"id": 7083227, "name": "Muktisari", "state": "", "country": "ID", "coord": {"lon": 113.696602, "lat": -8.2066}}, {"id": 7083232, "name": "Ajung", "state": "", "country": "ID", "coord": {"lon": 113.655998, "lat": -8.2059}}, {"id": 7083259, "name": "Krasak", "state": "", "country": "ID", "coord": {"lon": 113.6558, "lat": -8.2207}}, {"id": 7083266, "name": "Klompangan", "state": "", "country": "ID", "coord": {"lon": 113.653801, "lat": -8.234}}, {"id": 7083271, "name": "Renes", "state": "", "country": "ID", "coord": {"lon": 113.701698, "lat": -8.2306}}, {"id": 7083287, "name": "Durenan", "state": "", "country": "ID", "coord": {"lon": 113.653603, "lat": -8.2441}}, {"id": 7083362, "name": "Bedadung", "state": "", "country": "ID", "coord": {"lon": 113.759598, "lat": -8.1326}}, {"id": 7083373, "name": "Ajung", "state": "", "country": "ID", "coord": {"lon": 113.820702, "lat": -8.1335}}, {"id": 7083386, "name": "Krajan Satu", "state": "", "country": "ID", "coord": {"lon": 113.833, "lat": -8.1396}}, {"id": 7083398, "name": "Tlogowetan", "state": "", "country": "ID", "coord": {"lon": 113.754997, "lat": -8.1465}}, {"id": 7083401, "name": "Karangsadang", "state": "", "country": "ID", "coord": {"lon": 113.780098, "lat": -8.1432}}, {"id": 7083421, "name": "Gambiran Wetan", "state": "", "country": "ID", "coord": {"lon": 113.808594, "lat": -8.15529}}, {"id": 7083438, "name": "Suren", "state": "", "country": "ID", "coord": {"lon": 113.855103, "lat": -8.1661}}, {"id": 7083448, "name": "Sumberpinang Satu", "state": "", "country": "ID", "coord": {"lon": 113.8181, "lat": -8.1732}}, {"id": 7083460, "name": "Pakusari", "state": "", "country": "ID", "coord": {"lon": 113.776604, "lat": -8.1798}}, {"id": 7083470, "name": "Sumberkejayan", "state": "", "country": "ID", "coord": {"lon": 113.833687, "lat": -8.17687}}, {"id": 7083481, "name": "Klayu Wetan", "state": "", "country": "ID", "coord": {"lon": 113.801399, "lat": -8.1844}}, {"id": 7083484, "name": "Kertosari", "state": "", "country": "ID", "coord": {"lon": 113.761902, "lat": -8.1862}}, {"id": 7083497, "name": "Sidomukti", "state": "", "country": "ID", "coord": {"lon": 113.827904, "lat": -8.2051}}, {"id": 7083500, "name": "Seputih", "state": "", "country": "ID", "coord": {"lon": 113.784103, "lat": -8.2019}}, {"id": 7083505, "name": "Karangkedawung", "state": "", "country": "ID", "coord": {"lon": 113.772003, "lat": -8.2142}}, {"id": 7083523, "name": "Sumberagung", "state": "", "country": "ID", "coord": {"lon": 113.755943, "lat": -8.2409}}, {"id": 7083566, "name": "Mayang", "state": "", "country": "ID", "coord": {"lon": 113.795799, "lat": -8.1762}}, {"id": 7083567, "name": "Sumberpinang", "state": "", "country": "ID", "coord": {"lon": 113.767197, "lat": -8.156}}, {"id": 7083633, "name": "Mulyorejo", "state": "", "country": "ID", "coord": {"lon": 112.78392, "lat": -7.26287}}, {"id": 7083634, "name": "Pacarkeling", "state": "", "country": "ID", "coord": {"lon": 112.758102, "lat": -7.258}}, {"id": 7083635, "name": "Gununganyar", "state": "", "country": "ID", "coord": {"lon": 112.782097, "lat": -7.3409}}, {"id": 7083636, "name": "Prapen", "state": "", "country": "ID", "coord": {"lon": 112.756668, "lat": -7.31453}}, {"id": 7083717, "name": "Semarapura", "state": "", "country": "ID", "coord": {"lon": 115.402199, "lat": -8.5346}}, {"id": 7083822, "name": "Dawan", "state": "", "country": "ID", "coord": {"lon": 115.442497, "lat": -8.5408}}, {"id": 7083874, "name": "Dawan", "state": "", "country": "ID", "coord": {"lon": 115.442497, "lat": -8.5408}}, {"id": 7083875, "name": "Semarapura", "state": "", "country": "ID", "coord": {"lon": 115.402199, "lat": -8.5346}}, {"id": 7083896, "name": "Krajan", "state": "", "country": "ID", "coord": {"lon": 114.111053, "lat": -8.38046}}, {"id": 7083898, "name": "Balokan", "state": "", "country": "ID", "coord": {"lon": 114.119843, "lat": -8.38898}}, {"id": 7083907, "name": "Blokagung", "state": "", "country": "ID", "coord": {"lon": 114.104317, "lat": -8.43989}}, {"id": 7083918, "name": "Barurejo", "state": "", "country": "ID", "coord": {"lon": 114.114197, "lat": -8.4815}}, {"id": 7083968, "name": "Kluncing", "state": "", "country": "ID", "coord": {"lon": 114.230492, "lat": -8.18966}}, {"id": 7083969, "name": "Krajan", "state": "", "country": "ID", "coord": {"lon": 114.228867, "lat": -8.19738}}, {"id": 7083982, "name": "Plataran", "state": "", "country": "ID", "coord": {"lon": 114.197647, "lat": -8.22047}}, {"id": 7084003, "name": "Songgon", "state": "", "country": "ID", "coord": {"lon": 114.204376, "lat": -8.2351}}, {"id": 7084005, "name": "Songgon Krajan", "state": "", "country": "ID", "coord": {"lon": 114.206322, "lat": -8.23732}}, {"id": 7084009, "name": "Sragikrajan", "state": "", "country": "ID", "coord": {"lon": 114.170052, "lat": -8.23938}}, {"id": 7084014, "name": "Sumberagung", "state": "", "country": "ID", "coord": {"lon": 114.172623, "lat": -8.21746}}, {"id": 7084015, "name": "Sumberarumkrajan", "state": "", "country": "ID", "coord": {"lon": 114.156357, "lat": -8.21304}}, {"id": 7084161, "name": "Tirtopuro", "state": "", "country": "ID", "coord": {"lon": 114.357002, "lat": -8.1805}}, {"id": 7084167, "name": "Krajanputuk", "state": "", "country": "ID", "coord": {"lon": 114.336502, "lat": -8.189}}, {"id": 7084183, "name": "Krajan", "state": "", "country": "ID", "coord": {"lon": 114.332497, "lat": -8.1671}}, {"id": 7084201, "name": "Detik Satu", "state": "", "country": "ID", "coord": {"lon": 114.323303, "lat": -8.1993}}, {"id": 7084208, "name": "Krajan", "state": "", "country": "ID", "coord": {"lon": 114.2985, "lat": -8.1959}}, {"id": 7084214, "name": "Krajan", "state": "", "country": "ID", "coord": {"lon": 114.266602, "lat": -8.1928}}, {"id": 7084223, "name": "Krajan", "state": "", "country": "ID", "coord": {"lon": 114.282539, "lat": -8.17358}}, {"id": 7084239, "name": "Segobang", "state": "", "country": "ID", "coord": {"lon": 114.257698, "lat": -8.2067}}, {"id": 7084242, "name": "Krajan", "state": "", "country": "ID", "coord": {"lon": 114.269798, "lat": -8.2057}}, {"id": 7084247, "name": "Krajan", "state": "", "country": "ID", "coord": {"lon": 114.279099, "lat": -8.2152}}, {"id": 7084249, "name": "Krajan", "state": "", "country": "ID", "coord": {"lon": 114.280602, "lat": -8.2234}}, {"id": 7084273, "name": "Krajan", "state": "", "country": "ID", "coord": {"lon": 114.303802, "lat": -8.2221}}, {"id": 7084276, "name": "Krajan", "state": "", "country": "ID", "coord": {"lon": 114.3106, "lat": -8.2184}}, {"id": 7084278, "name": "Olehsari", "state": "", "country": "ID", "coord": {"lon": 114.319298, "lat": -8.2158}}, {"id": 7084279, "name": "Krajan", "state": "", "country": "ID", "coord": {"lon": 114.322304, "lat": -8.2158}}, {"id": 7084286, "name": "Krajan", "state": "", "country": "ID", "coord": {"lon": 114.320503, "lat": -8.2047}}, {"id": 7084289, "name": "Krajan", "state": "", "country": "ID", "coord": {"lon": 114.297997, "lat": -8.2094}}, {"id": 7084302, "name": "Krajan", "state": "", "country": "ID", "coord": {"lon": 114.332001, "lat": -8.2296}}, {"id": 7084315, "name": "Gaplak", "state": "", "country": "ID", "coord": {"lon": 114.346901, "lat": -8.219}}, {"id": 7084318, "name": "Krajan", "state": "", "country": "ID", "coord": {"lon": 114.340698, "lat": -8.2131}}, {"id": 7084323, "name": "Krajan Satu", "state": "", "country": "ID", "coord": {"lon": 114.3563, "lat": -8.2072}}, {"id": 7084325, "name": "Krajan", "state": "", "country": "ID", "coord": {"lon": 114.3582, "lat": -8.1996}}, {"id": 7084333, "name": "Wirodayan", "state": "", "country": "ID", "coord": {"lon": 114.370102, "lat": -8.2133}}, {"id": 7084340, "name": "Krajan", "state": "", "country": "ID", "coord": {"lon": 114.371002, "lat": -8.2192}}, {"id": 7084341, "name": "Krajan Selatan", "state": "", "country": "ID", "coord": {"lon": 114.3703, "lat": -8.2227}}, {"id": 7084343, "name": "Krajan", "state": "", "country": "ID", "coord": {"lon": 114.374496, "lat": -8.2261}}, {"id": 7084348, "name": "Cungking", "state": "", "country": "ID", "coord": {"lon": 114.354301, "lat": -8.217}}, {"id": 7084350, "name": "Krajan", "state": "", "country": "ID", "coord": {"lon": 114.361397, "lat": -8.2321}}, {"id": 7084351, "name": "Krajan Satu", "state": "", "country": "ID", "coord": {"lon": 114.3591, "lat": -8.2314}}, {"id": 7084361, "name": "Krajan", "state": "", "country": "ID", "coord": {"lon": 114.3554, "lat": -8.2432}}, {"id": 7084364, "name": "Kepuh Wetan", "state": "", "country": "ID", "coord": {"lon": 114.356903, "lat": -8.2489}}, {"id": 7084389, "name": "Kertosari", "state": "", "country": "ID", "coord": {"lon": 114.323997, "lat": -8.2396}}, {"id": 7084404, "name": "Krajan", "state": "", "country": "ID", "coord": {"lon": 114.373001, "lat": -8.2039}}, {"id": 7084409, "name": "Banyuwangi", "state": "", "country": "ID", "coord": {"lon": 114.364601, "lat": -8.2215}}, {"id": 7084521, "name": "Seririt", "state": "", "country": "ID", "coord": {"lon": 114.938797, "lat": -8.1928}}, {"id": 7084524, "name": "Dajanrurung", "state": "", "country": "ID", "coord": {"lon": 114.8899, "lat": -8.2015}}, {"id": 7084531, "name": "Umbanyar", "state": "", "country": "ID", "coord": {"lon": 114.918098, "lat": -8.1947}}, {"id": 7084533, "name": "Purwa", "state": "", "country": "ID", "coord": {"lon": 114.929298, "lat": -8.1874}}, {"id": 7084546, "name": "Tamansari", "state": "", "country": "ID", "coord": {"lon": 114.944504, "lat": -8.1963}}, {"id": 7084547, "name": "Tangguwisia", "state": "", "country": "ID", "coord": {"lon": 114.946602, "lat": -8.1976}}, {"id": 7084549, "name": "Kelodan", "state": "", "country": "ID", "coord": {"lon": 114.953499, "lat": -8.203}}, {"id": 7084550, "name": "Banjar Dawan", "state": "", "country": "ID", "coord": {"lon": 114.959099, "lat": -8.2002}}, {"id": 7084552, "name": "Ambian", "state": "", "country": "ID", "coord": {"lon": 114.968697, "lat": -8.1999}}, {"id": 7084557, "name": "Tampekan", "state": "", "country": "ID", "coord": {"lon": 114.973396, "lat": -8.2021}}, {"id": 7084573, "name": "Pegayaman", "state": "", "country": "ID", "coord": {"lon": 114.986923, "lat": -8.18355}}, {"id": 7084582, "name": "Pangkungparuk", "state": "", "country": "ID", "coord": {"lon": 114.886902, "lat": -8.215}}, {"id": 7084591, "name": "Yatnyaketi", "state": "", "country": "ID", "coord": {"lon": 114.93, "lat": -8.2371}}, {"id": 7084611, "name": "Kajanan", "state": "", "country": "ID", "coord": {"lon": 114.940697, "lat": -8.2201}}, {"id": 7084618, "name": "Lebahseri", "state": "", "country": "ID", "coord": {"lon": 114.930603, "lat": -8.2499}}, {"id": 7084619, "name": "Baleagung", "state": "", "country": "ID", "coord": {"lon": 114.931, "lat": -8.2492}}, {"id": 7084621, "name": "Kertanadi", "state": "", "country": "ID", "coord": {"lon": 114.950302, "lat": -8.234}}, {"id": 7084629, "name": "Bestala", "state": "", "country": "ID", "coord": {"lon": 114.977798, "lat": -8.246}}, {"id": 7084631, "name": "Banjarsari", "state": "", "country": "ID", "coord": {"lon": 114.986603, "lat": -8.2449}}, {"id": 7084634, "name": "Dajanpura", "state": "", "country": "ID", "coord": {"lon": 114.9963, "lat": -8.2177}}, {"id": 7084666, "name": "Seririt", "state": "", "country": "ID", "coord": {"lon": 114.938797, "lat": -8.1928}}, {"id": 7084673, "name": "Banjar Trunyan", "state": "", "country": "ID", "coord": {"lon": 115.425499, "lat": -8.2524}}, {"id": 7084696, "name": "Banjar Kedisan", "state": "", "country": "ID", "coord": {"lon": 115.380898, "lat": -8.2799}}, {"id": 7084699, "name": "Banjar Buahan", "state": "", "country": "ID", "coord": {"lon": 115.389999, "lat": -8.287}}, {"id": 7084713, "name": "Banjar Suter", "state": "", "country": "ID", "coord": {"lon": 115.395302, "lat": -8.3073}}, {"id": 7084718, "name": "Banjar Bias", "state": "", "country": "ID", "coord": {"lon": 115.396179, "lat": -8.31687}}, {"id": 7084859, "name": "Sengkerang Tiga", "state": "", "country": "ID", "coord": {"lon": 116.373497, "lat": -8.7679}}, {"id": 7084890, "name": "Rangah", "state": "", "country": "ID", "coord": {"lon": 116.351097, "lat": -8.7819}}, {"id": 7085015, "name": "Tamanbumigora", "state": "", "country": "ID", "coord": {"lon": 116.306999, "lat": -8.7751}}, {"id": 7085036, "name": "Ketara", "state": "", "country": "ID", "coord": {"lon": 116.280502, "lat": -8.789}}, {"id": 7085070, "name": "Pengembur Dua", "state": "", "country": "ID", "coord": {"lon": 116.262604, "lat": -8.8073}}, {"id": 7085075, "name": "Tanakawu Dua", "state": "", "country": "ID", "coord": {"lon": 116.267799, "lat": -8.7741}}, {"id": 7085141, "name": "Teruwai", "state": "", "country": "ID", "coord": {"lon": 116.337502, "lat": -8.8124}}, {"id": 7085362, "name": "Pagutan", "state": "", "country": "ID", "coord": {"lon": 116.283997, "lat": -8.6275}}, {"id": 7085370, "name": "Barabali", "state": "", "country": "ID", "coord": {"lon": 116.309097, "lat": -8.6259}}, {"id": 7085420, "name": "Bodak", "state": "", "country": "ID", "coord": {"lon": 116.310204, "lat": -8.6538}}, {"id": 7085464, "name": "Montongbelok", "state": "", "country": "ID", "coord": {"lon": 116.3293, "lat": -8.6312}}, {"id": 7085488, "name": "Montonggamang", "state": "", "country": "ID", "coord": {"lon": 116.371399, "lat": -8.6343}}, {"id": 7085640, "name": "Darmaji", "state": "", "country": "ID", "coord": {"lon": 116.336403, "lat": -8.6719}}, {"id": 7085818, "name": "Barejulat", "state": "", "country": "ID", "coord": {"lon": 116.2519, "lat": -8.659}}, {"id": 7085886, "name": "Semayan", "state": "", "country": "ID", "coord": {"lon": 116.283997, "lat": -8.7191}}, {"id": 7085926, "name": "Bagiktinggang", "state": "", "country": "ID", "coord": {"lon": 116.303802, "lat": -8.7482}}, {"id": 7085937, "name": "Majan", "state": "", "country": "ID", "coord": {"lon": 116.311897, "lat": -8.73}}, {"id": 7085969, "name": "Beraim", "state": "", "country": "ID", "coord": {"lon": 116.3396, "lat": -8.7068}}, {"id": 7086079, "name": "Praya", "state": "", "country": "ID", "coord": {"lon": 116.270363, "lat": -8.70536}}, {"id": 7086080, "name": "Praya", "state": "", "country": "ID", "coord": {"lon": 116.270363, "lat": -8.70536}}, {"id": 7086081, "name": "Kopang Satu", "state": "", "country": "ID", "coord": {"lon": 116.3517, "lat": -8.6335}}, {"id": 7086150, "name": "Meringkik", "state": "", "country": "ID", "coord": {"lon": 116.530701, "lat": -8.8165}}, {"id": 7086215, "name": "Sukamulia", "state": "", "country": "ID", "coord": {"lon": 116.512497, "lat": -8.6286}}, {"id": 7086220, "name": "Gubuk Timuk", "state": "", "country": "ID", "coord": {"lon": 116.503502, "lat": -8.633}}, {"id": 7086224, "name": "Bongkemalik", "state": "", "country": "ID", "coord": {"lon": 116.527496, "lat": -8.6306}}, {"id": 7086264, "name": "Muhajirin", "state": "", "country": "ID", "coord": {"lon": 116.5205, "lat": -8.6455}}, {"id": 7086284, "name": "Peresak Barat", "state": "", "country": "ID", "coord": {"lon": 116.551903, "lat": -8.6577}}, {"id": 7086299, "name": "Denggen Daya", "state": "", "country": "ID", "coord": {"lon": 116.5103, "lat": -8.6659}}, {"id": 7086310, "name": "Timba Timuk", "state": "", "country": "ID", "coord": {"lon": 116.557098, "lat": -8.6648}}, {"id": 7086365, "name": "Bebae", "state": "", "country": "ID", "coord": {"lon": 116.550598, "lat": -8.6898}}, {"id": 7086384, "name": "Gereneng", "state": "", "country": "ID", "coord": {"lon": 116.511803, "lat": -8.6874}}, {"id": 7086414, "name": "Paoqpampang", "state": "", "country": "ID", "coord": {"lon": 116.569702, "lat": -8.6966}}, {"id": 7086438, "name": "Lepak", "state": "", "country": "ID", "coord": {"lon": 116.500504, "lat": -8.7048}}, {"id": 7086467, "name": "Timukpeken", "state": "", "country": "ID", "coord": {"lon": 116.526398, "lat": -8.7217}}, {"id": 7086478, "name": "Mandikbatu", "state": "", "country": "ID", "coord": {"lon": 116.504997, "lat": -8.72}}, {"id": 7086615, "name": "Gubuk Daya", "state": "", "country": "ID", "coord": {"lon": 116.573402, "lat": -8.5246}}, {"id": 7086629, "name": "Batubasong Lauk", "state": "", "country": "ID", "coord": {"lon": 116.583298, "lat": -8.5276}}, {"id": 7086662, "name": "Montonggedeng", "state": "", "country": "ID", "coord": {"lon": 116.591698, "lat": -8.5388}}, {"id": 7086670, "name": "Selaparang Timur", "state": "", "country": "ID", "coord": {"lon": 116.601196, "lat": -8.548}}, {"id": 7086691, "name": "Dasanlian Lauk", "state": "", "country": "ID", "coord": {"lon": 116.518898, "lat": -8.5514}}, {"id": 7086698, "name": "Kembangkerang Lauk Timur", "state": "", "country": "ID", "coord": {"lon": 116.537804, "lat": -8.5583}}, {"id": 7086717, "name": "Jorong Lauk", "state": "", "country": "ID", "coord": {"lon": 116.575104, "lat": -8.5666}}, {"id": 7086735, "name": "Aikmel", "state": "", "country": "ID", "coord": {"lon": 116.530502, "lat": -8.5678}}, {"id": 7086778, "name": "Bagikkedok Lauk", "state": "", "country": "ID", "coord": {"lon": 116.605797, "lat": -8.572}}, {"id": 7086787, "name": "Gubuk Daya", "state": "", "country": "ID", "coord": {"lon": 116.624199, "lat": -8.5693}}, {"id": 7086823, "name": "Karangranjong", "state": "", "country": "ID", "coord": {"lon": 116.512001, "lat": -8.5817}}, {"id": 7086868, "name": "Gelumpang", "state": "", "country": "ID", "coord": {"lon": 116.524597, "lat": -8.5964}}, {"id": 7086880, "name": "Anjani Barat", "state": "", "country": "ID", "coord": {"lon": 116.5056, "lat": -8.6038}}, {"id": 7086950, "name": "Gubuk Leuk", "state": "", "country": "ID", "coord": {"lon": 116.607803, "lat": -8.6182}}, {"id": 7086986, "name": "Tumbukebon", "state": "", "country": "ID", "coord": {"lon": 115.624298, "lat": -8.445}}, {"id": 7086994, "name": "Banjar Geriana Kangin", "state": "", "country": "ID", "coord": {"lon": 115.501198, "lat": -8.4335}}, {"id": 7087015, "name": "Banjar Wates Tengah", "state": "", "country": "ID", "coord": {"lon": 115.501099, "lat": -8.4484}}, {"id": 7087054, "name": "Banjar Jungutan", "state": "", "country": "ID", "coord": {"lon": 115.536697, "lat": -8.4335}}, {"id": 7087061, "name": "Banjar Tengah", "state": "", "country": "ID", "coord": {"lon": 115.5373, "lat": -8.4458}}, {"id": 7087072, "name": "Banjar Tengah", "state": "", "country": "ID", "coord": {"lon": 115.537498, "lat": -8.4749}}, {"id": 7087079, "name": "Banjar Kawan", "state": "", "country": "ID", "coord": {"lon": 115.524101, "lat": -8.4889}}, {"id": 7087114, "name": "Banjar Kelodan", "state": "", "country": "ID", "coord": {"lon": 115.549103, "lat": -8.4691}}, {"id": 7087132, "name": "Banjar Bau Kawan", "state": "", "country": "ID", "coord": {"lon": 115.584297, "lat": -8.3803}}, {"id": 7087143, "name": "Banjar Ababi", "state": "", "country": "ID", "coord": {"lon": 115.585297, "lat": -8.4056}}, {"id": 7087156, "name": "Banjar Budakeling", "state": "", "country": "ID", "coord": {"lon": 115.5718, "lat": -8.4278}}, {"id": 7087178, "name": "Banjar Beji", "state": "", "country": "ID", "coord": {"lon": 115.581299, "lat": -8.4588}}, {"id": 7087190, "name": "Banjar Pegeringsingan", "state": "", "country": "ID", "coord": {"lon": 115.567101, "lat": -8.4758}}, {"id": 7087203, "name": "Tistagede", "state": "", "country": "ID", "coord": {"lon": 115.609001, "lat": -8.3792}}, {"id": 7087209, "name": "Abang", "state": "", "country": "ID", "coord": {"lon": 115.601303, "lat": -8.3866}}, {"id": 7087224, "name": "Tiyingtali Kelod", "state": "", "country": "ID", "coord": {"lon": 115.614304, "lat": -8.4103}}, {"id": 7087266, "name": "Banjar Danginsema", "state": "", "country": "ID", "coord": {"lon": 115.616203, "lat": -8.4513}}, {"id": 7087267, "name": "Subagan", "state": "", "country": "ID", "coord": {"lon": 115.606499, "lat": -8.4503}}, {"id": 7087279, "name": "Banjar Timbrah", "state": "", "country": "ID", "coord": {"lon": 115.597, "lat": -8.4774}}, {"id": 7087314, "name": "Alanga", "state": "", "country": "ID", "coord": {"lon": 119.752998, "lat": -9.5386}}, {"id": 7087338, "name": "Lokuuy", "state": "", "country": "ID", "coord": {"lon": 119.814499, "lat": -9.5663}}, {"id": 7087342, "name": "Pahomba", "state": "", "country": "ID", "coord": {"lon": 119.799797, "lat": -9.6239}}, {"id": 7089015, "name": "Lengkoajang", "state": "", "country": "ID", "coord": {"lon": 120.679001, "lat": -8.5074}}, {"id": 7089019, "name": "Buti", "state": "", "country": "ID", "coord": {"lon": 120.7052, "lat": -8.5015}}, {"id": 7089048, "name": "Ntaram", "state": "", "country": "ID", "coord": {"lon": 120.693703, "lat": -8.5281}}, {"id": 7089056, "name": "Mombok", "state": "", "country": "ID", "coord": {"lon": 120.729301, "lat": -8.5271}}, {"id": 7089071, "name": "Watunggong", "state": "", "country": "ID", "coord": {"lon": 120.673302, "lat": -8.5418}}, {"id": 7089083, "name": "Rantang", "state": "", "country": "ID", "coord": {"lon": 120.741898, "lat": -8.5485}}, {"id": 7089087, "name": "Ngkolong", "state": "", "country": "ID", "coord": {"lon": 120.716301, "lat": -8.5513}}, {"id": 7089109, "name": "Ngkodal", "state": "", "country": "ID", "coord": {"lon": 120.718002, "lat": -8.5648}}, {"id": 7089115, "name": "Ngkiong", "state": "", "country": "ID", "coord": {"lon": 120.656799, "lat": -8.5675}}, {"id": 7089118, "name": "Jawa", "state": "", "country": "ID", "coord": {"lon": 120.6371, "lat": -8.562}}, {"id": 7089140, "name": "Biting", "state": "", "country": "ID", "coord": {"lon": 120.634102, "lat": -8.5966}}, {"id": 7089168, "name": "Pamakoe", "state": "", "country": "ID", "coord": {"lon": 121.250099, "lat": -8.7592}}, {"id": 7089185, "name": "Lena", "state": "", "country": "ID", "coord": {"lon": 121.301003, "lat": -8.7613}}, {"id": 7089224, "name": "Bhokadoke", "state": "", "country": "ID", "coord": {"lon": 121.311798, "lat": -8.802}}, {"id": 7089248, "name": "Lokatadho", "state": "", "country": "ID", "coord": {"lon": 121.274399, "lat": -8.8143}}, {"id": 7089328, "name": "Wolowada", "state": "", "country": "ID", "coord": {"lon": 121.275497, "lat": -8.8555}}, {"id": 7089337, "name": "Pau", "state": "", "country": "ID", "coord": {"lon": 121.299301, "lat": -8.8555}}, {"id": 7089361, "name": "Mbeku", "state": "", "country": "ID", "coord": {"lon": 121.2864, "lat": -8.8667}}, {"id": 7089375, "name": "Boanio", "state": "", "country": "ID", "coord": {"lon": 121.323402, "lat": -8.6373}}, {"id": 7089390, "name": "Doma", "state": "", "country": "ID", "coord": {"lon": 121.327797, "lat": -8.6846}}, {"id": 7089402, "name": "Jawatiwa", "state": "", "country": "ID", "coord": {"lon": 121.280899, "lat": -8.7073}}, {"id": 7089411, "name": "Aegela", "state": "", "country": "ID", "coord": {"lon": 121.337196, "lat": -8.7323}}, {"id": 7089416, "name": "Tibakisa", "state": "", "country": "ID", "coord": {"lon": 121.305397, "lat": -8.7393}}, {"id": 7090205, "name": "Donglinxi", "state": "", "country": "CN", "coord": {"lon": 118.291687, "lat": 29.67594}}, {"id": 7090485, "name": "Fengjia", "state": "", "country": "CN", "coord": {"lon": 118.41465, "lat": 29.01582}}, {"id": 7090494, "name": "Xikou", "state": "", "country": "CN", "coord": {"lon": 118.497147, "lat": 29.14624}}, {"id": 7090513, "name": "Yinkeng", "state": "", "country": "CN", "coord": {"lon": 118.3965, "lat": 29.199711}}, {"id": 7090540, "name": "Maotan", "state": "", "country": "CN", "coord": {"lon": 118.122353, "lat": 29.178141}}, {"id": 7090594, "name": "Jiukeng", "state": "", "country": "CN", "coord": {"lon": 118.743431, "lat": 29.680161}}, {"id": 7090618, "name": "Shandi", "state": "", "country": "CN", "coord": {"lon": 118.437698, "lat": 29.240721}}, {"id": 7090954, "name": "Capital Governorate", "state": "", "country": "BH", "coord": {"lon": 50.583328, "lat": 26.216669}}, {"id": 7090973, "name": "Central Governorate", "state": "", "country": "BH", "coord": {"lon": 50.566669, "lat": 26.16667}}, {"id": 7090974, "name": "Northern Governorate", "state": "", "country": "BH", "coord": {"lon": 50.466671, "lat": 26.15}}, {"id": 7091093, "name": "Alicia", "state": "", "country": "PH", "coord": {"lon": 121.020798, "lat": 14.665}}, {"id": 7091184, "name": "Valenzuela", "state": "", "country": "PH", "coord": {"lon": 121.025398, "lat": 14.5701}}, {"id": 7091218, "name": "Moonwalk II", "state": "", "country": "PH", "coord": {"lon": 121.019302, "lat": 14.5003}}, {"id": 7091861, "name": "Ban Chalong", "state": "", "country": "TH", "coord": {"lon": 98.338966, "lat": 7.84468}}, {"id": 7091912, "name": "Ban Ratsada", "state": "", "country": "TH", "coord": {"lon": 98.402481, "lat": 7.90963}}, {"id": 7092271, "name": "Mueang Phuket", "state": "", "country": "TH", "coord": {"lon": 98.364372, "lat": 7.86338}}, {"id": 7092410, "name": "Zagor\u2019ye", "state": "", "country": "RU", "coord": {"lon": 32.034801, "lat": 54.746559}}, {"id": 7093133, "name": "Gornevo", "state": "", "country": "RU", "coord": {"lon": 28.4585, "lat": 57.7887}}, {"id": 7093622, "name": "Devonisovo", "state": "", "country": "RU", "coord": {"lon": 28.99037, "lat": 57.48222}}, {"id": 7093847, "name": "Glushni", "state": "", "country": "RU", "coord": {"lon": 28.37636, "lat": 57.339451}}, {"id": 7096430, "name": "Na Mom", "state": "", "country": "TH", "coord": {"lon": 100.556831, "lat": 6.95856}}, {"id": 7097617, "name": "N\u0101\u1e29iyat H\u012br\u0101n", "state": "", "country": "IQ", "coord": {"lon": 44.488152, "lat": 36.278992}}, {"id": 7097618, "name": "Nahiyat Hiran", "state": "", "country": "IQ", "coord": {"lon": 44.492828, "lat": 36.280079}}, {"id": 7097995, "name": "B\u016bry\u0101 Fur\u014dsh\u012b", "state": "", "country": "AF", "coord": {"lon": 69.182838, "lat": 34.51572}}, {"id": 7098828, "name": "Barkat Bh\u0101i Town", "state": "", "country": "PK", "coord": {"lon": 68.368736, "lat": 25.36607}}, {"id": 7100111, "name": "Bang Sao Thong", "state": "", "country": "TH", "coord": {"lon": 100.830421, "lat": 13.595}}, {"id": 7101573, "name": "Dhok Halyan", "state": "", "country": "PK", "coord": {"lon": 73.646439, "lat": 33.117882}}, {"id": 7102366, "name": "Seberangpadang", "state": "", "country": "ID", "coord": {"lon": 100.352303, "lat": -0.95212}}, {"id": 7102381, "name": "Parupuk", "state": "", "country": "ID", "coord": {"lon": 100.344757, "lat": -0.87895}}, {"id": 7102417, "name": "Pauhambar", "state": "", "country": "ID", "coord": {"lon": 100.212791, "lat": -0.65536}}, {"id": 7102427, "name": "Lubukalung", "state": "", "country": "ID", "coord": {"lon": 100.286133, "lat": -0.68624}}, {"id": 7102451, "name": "Sungaisarik", "state": "", "country": "ID", "coord": {"lon": 100.22464, "lat": -0.57358}}, {"id": 7102453, "name": "Kampungladang", "state": "", "country": "ID", "coord": {"lon": 100.170441, "lat": -0.54192}}, {"id": 7102548, "name": "Kampungtalang", "state": "", "country": "ID", "coord": {"lon": 100.183121, "lat": -0.46523}}, {"id": 7102625, "name": "Kotatua", "state": "", "country": "ID", "coord": {"lon": 100.362411, "lat": -0.34514}}, {"id": 7103970, "name": "Guguk", "state": "", "country": "ID", "coord": {"lon": 100.565079, "lat": -0.14148}}, {"id": 7104034, "name": "Salimpaung", "state": "", "country": "ID", "coord": {"lon": 100.548843, "lat": -0.3523}}, {"id": 7104044, "name": "Sungayang", "state": "", "country": "ID", "coord": {"lon": 100.597183, "lat": -0.40756}}, {"id": 7104050, "name": "Simabur", "state": "", "country": "ID", "coord": {"lon": 100.528168, "lat": -0.46448}}, {"id": 7104055, "name": "Rambatan", "state": "", "country": "ID", "coord": {"lon": 100.545441, "lat": -0.49214}}, {"id": 7104136, "name": "Gunung Talang", "state": "", "country": "ID", "coord": {"lon": 100.62709, "lat": -0.90566}}, {"id": 7104187, "name": "Kumanis", "state": "", "country": "ID", "coord": {"lon": 100.804848, "lat": -0.5371}}, {"id": 7104203, "name": "Tanjungampalu", "state": "", "country": "ID", "coord": {"lon": 100.828102, "lat": -0.63864}}, {"id": 7104206, "name": "Kototujuh", "state": "", "country": "ID", "coord": {"lon": 100.917633, "lat": -0.64186}}, {"id": 7104230, "name": "Tigakorang", "state": "", "country": "ID", "coord": {"lon": 100.6427, "lat": -0.80359}}, {"id": 7104261, "name": "Sirukam", "state": "", "country": "ID", "coord": {"lon": 100.759499, "lat": -0.88711}}, {"id": 7104275, "name": "Painan", "state": "", "country": "ID", "coord": {"lon": 100.57383, "lat": -1.35172}}, {"id": 7104357, "name": "Tanjung Mas", "state": "", "country": "ID", "coord": {"lon": 100.754112, "lat": -0.49128}}, {"id": 7106274, "name": "Sina", "state": "", "country": "WS", "coord": {"lon": -171.994827, "lat": -13.83908}}, {"id": 7106997, "name": "Kh\u00ean\u1e0faka\u012b Karam Z\u0101way", "state": "", "country": "AF", "coord": {"lon": 69.142174, "lat": 32.532841}}, {"id": 7109573, "name": "Djo", "state": "", "country": "CM", "coord": {"lon": 10.41705, "lat": 5.34332}}, {"id": 7110232, "name": "Nkoutaba", "state": "", "country": "CM", "coord": {"lon": 10.74339, "lat": 5.63075}}, {"id": 7110710, "name": "Mu\u1e29\u0101faz\u0327at al Buraym\u012b", "state": "", "country": "OM", "coord": {"lon": 56.100269, "lat": 24.10014}}, {"id": 7113953, "name": "Thamel", "state": "", "country": "NP", "coord": {"lon": 85.310211, "lat": 27.715141}}, {"id": 7114175, "name": "La Alfoquia", "state": "", "country": "ES", "coord": {"lon": -2.0408, "lat": 37.353378}}, {"id": 7115017, "name": "Temernik", "state": "", "country": "RU", "coord": {"lon": 39.74493, "lat": 47.297859}}, {"id": 7115111, "name": "Corvera de Asturias", "state": "", "country": "ES", "coord": {"lon": -5.8691, "lat": 43.51062}}, {"id": 7115249, "name": "Residencia los Altos", "state": "", "country": "ES", "coord": {"lon": -0.72119, "lat": 37.955231}}, {"id": 7115256, "name": "San Isidro", "state": "", "country": "ES", "coord": {"lon": -0.83874, "lat": 38.172489}}, {"id": 7115578, "name": "Rietheim", "state": "", "country": "CH", "coord": {"lon": 8.28333, "lat": 47.599998}}, {"id": 7115579, "name": "Schneisingen", "state": "", "country": "CH", "coord": {"lon": 8.36667, "lat": 47.51944}}, {"id": 7115588, "name": "Endingen", "state": "", "country": "CH", "coord": {"lon": 8.29028, "lat": 47.538891}}, {"id": 7115592, "name": "D\u00f6ttingen", "state": "", "country": "CH", "coord": {"lon": 8.25846, "lat": 47.570911}}, {"id": 7115730, "name": "Kalinga", "state": "", "country": "PH", "coord": {"lon": 121.416092, "lat": 17.425989}}, {"id": 7115731, "name": "Apayao", "state": "", "country": "PH", "coord": {"lon": 121.179199, "lat": 18.03359}}, {"id": 7115787, "name": "State Circus", "state": "", "country": "MN", "coord": {"lon": 106.907188, "lat": 47.911911}}, {"id": 7115828, "name": "Smala", "state": "", "country": "DZ", "coord": {"lon": 0.75437, "lat": 35.716518}}, {"id": 7115989, "name": "Autonomous Region in Muslim Mindanao", "state": "", "country": "PH", "coord": {"lon": 124.387207, "lat": 7.09544}}, {"id": 7115999, "name": "D\u00e9partement de Nippes", "state": "", "country": "HT", "coord": {"lon": -73.428497, "lat": 18.448351}}, {"id": 7116056, "name": "Carregal do Sal", "state": "", "country": "PT", "coord": {"lon": -7.99819, "lat": 40.450069}}, {"id": 7116057, "name": "Oliveira do Conde", "state": "", "country": "PT", "coord": {"lon": -7.954, "lat": 40.44178}}, {"id": 7116072, "name": "Salisbury East", "state": "", "country": "AU", "coord": {"lon": 138.654495, "lat": -34.79052}}, {"id": 7116074, "name": "Goolwa South", "state": "", "country": "AU", "coord": {"lon": 138.785049, "lat": -35.513302}}, {"id": 7116273, "name": "Fossambault-sur-le-Lac", "state": "", "country": "CA", "coord": {"lon": -71.61541, "lat": 46.876621}}, {"id": 7116497, "name": "Costa da Caparica", "state": "", "country": "PT", "coord": {"lon": -9.23221, "lat": 38.641338}}, {"id": 7116547, "name": "Chalkwell", "state": "", "country": "GB", "coord": {"lon": 0.6724, "lat": 51.543671}}, {"id": 7116565, "name": "Mariscal Sucre", "state": "", "country": "EC", "coord": {"lon": -78.495468, "lat": -0.20522}}, {"id": 7116850, "name": "Potsdam", "state": "", "country": "DE", "coord": {"lon": 13.05794, "lat": 52.396549}}, {"id": 7116865, "name": "Caril\u00f3", "state": "", "country": "AR", "coord": {"lon": -56.891331, "lat": -37.165241}}, {"id": 7116866, "name": "Villa Mercedes", "state": "", "country": "AR", "coord": {"lon": -65.457832, "lat": -33.675709}}, {"id": 7117100, "name": "Vila", "state": "", "country": "PT", "coord": {"lon": -8.1588, "lat": 42.030399}}, {"id": 7117224, "name": "Pribrezhnyy", "state": "", "country": "RU", "coord": {"lon": 49.85836, "lat": 53.486622}}, {"id": 7117228, "name": "Caesarea", "state": "", "country": "IL", "coord": {"lon": 34.904591, "lat": 32.518879}}, {"id": 7117230, "name": "Schwanau", "state": "", "country": "DE", "coord": {"lon": 7.76244, "lat": 48.366692}}, {"id": 7117568, "name": "Hoonah-Angoon Census Area", "state": "AK", "country": "US", "coord": {"lon": -134.941528, "lat": 57.948071}}, {"id": 7117591, "name": "City and Borough of Wrangell", "state": "AK", "country": "US", "coord": {"lon": -132.320084, "lat": 56.413311}}, {"id": 7117732, "name": "Petersburg Borough", "state": "AK", "country": "US", "coord": {"lon": -133.19313, "lat": 56.765289}}, {"id": 7117880, "name": "Zarya", "state": "", "country": "RU", "coord": {"lon": 38.095779, "lat": 55.755329}}, {"id": 7117885, "name": "Raduzhnyy", "state": "", "country": "RU", "coord": {"lon": 40.33905, "lat": 56.003799}}, {"id": 7117985, "name": "Banbasa", "state": "", "country": "IN", "coord": {"lon": 80.07608, "lat": 28.99132}}, {"id": 7118068, "name": "Colle di Val d\u2019Elsa", "state": "", "country": "IT", "coord": {"lon": 11.13018, "lat": 43.418522}}, {"id": 7118109, "name": "Velserbroek", "state": "", "country": "NL", "coord": {"lon": 4.66155, "lat": 52.432831}}, {"id": 7121191, "name": "Crescent Drive Mobile Village", "state": "MN", "country": "US", "coord": {"lon": -93.403061, "lat": 48.573608}}, {"id": 7121193, "name": "Riverside Mobile Home Court", "state": "MN", "country": "US", "coord": {"lon": -93.416672, "lat": 48.602779}}, {"id": 7121451, "name": "Morland Corner", "state": "MI", "country": "US", "coord": {"lon": -85.987778, "lat": 43.235279}}, {"id": 7121608, "name": "Elko New Market", "state": "MN", "country": "US", "coord": {"lon": -93.326942, "lat": 44.56472}}, {"id": 7121930, "name": "Skyline Mobile Park", "state": "MN", "country": "US", "coord": {"lon": -94.89167, "lat": 47.496941}}, {"id": 7122887, "name": "Mobile Court East", "state": "MN", "country": "US", "coord": {"lon": -95.748329, "lat": 48.84861}}, {"id": 7123765, "name": "South Blooming Grove", "state": "NY", "country": "US", "coord": {"lon": -74.178421, "lat": 41.373371}}, {"id": 7129116, "name": "Bel Air Mobile Manor", "state": "MN", "country": "US", "coord": {"lon": -92.216667, "lat": 46.832779}}, {"id": 7144088, "name": "Kell am See", "state": "", "country": "DE", "coord": {"lon": 6.82217, "lat": 49.63306}}, {"id": 7144169, "name": "Holzerath", "state": "", "country": "DE", "coord": {"lon": 6.76071, "lat": 49.679508}}, {"id": 7149330, "name": "Dewey-Humboldt", "state": "AZ", "country": "US", "coord": {"lon": -112.242218, "lat": 34.529999}}, {"id": 7149850, "name": "Bayside Mobile Estates", "state": "MI", "country": "US", "coord": {"lon": -87.610558, "lat": 45.129719}}, {"id": 7150586, "name": "Countryside", "state": "CO", "country": "US", "coord": {"lon": -105.119438, "lat": 39.88583}}, {"id": 7151168, "name": "Springwood", "state": "IL", "country": "US", "coord": {"lon": -88.170563, "lat": 41.511391}}, {"id": 7151300, "name": "Liberty Grove", "state": "IL", "country": "US", "coord": {"lon": -88.230278, "lat": 41.613892}}, {"id": 7151323, "name": "Nottingham Ridge", "state": "IL", "country": "US", "coord": {"lon": -88.089439, "lat": 41.626389}}, {"id": 7156618, "name": "Bryce Canyon City", "state": "UT", "country": "US", "coord": {"lon": -112.156937, "lat": 37.673889}}, {"id": 7157095, "name": "Z\u00fcrich (Kreis 6)", "state": "", "country": "CH", "coord": {"lon": 8.54749, "lat": 47.380482}}, {"id": 7158935, "name": "dong hai dao", "state": "", "country": "CN", "coord": {"lon": 110.396133, "lat": 21.024481}}, {"id": 7161969, "name": "Peppermill Village", "state": "MD", "country": "US", "coord": {"lon": -76.886543, "lat": 38.894718}}, {"id": 7169710.0, "name": "City of Cape Canaveral", "state": "FL", "country": "US", "coord": {"lon": -80.60567, "lat": 28.39367}}, {"id": 7172777, "name": "Belvedere Homes", "state": "FL", "country": "US", "coord": {"lon": -80.098167, "lat": 26.6957}}, {"id": 7172778, "name": "Boulevard Gardens", "state": "FL", "country": "US", "coord": {"lon": -80.17997, "lat": 26.12326}}, {"id": 7172786, "name": "High Point", "state": "FL", "country": "US", "coord": {"lon": -82.524681, "lat": 28.546869}}, {"id": 7172798, "name": "Roosevelt Gardens", "state": "FL", "country": "US", "coord": {"lon": -80.180267, "lat": 26.140869}}, {"id": 7176003, "name": "Bayview", "state": "CA", "country": "US", "coord": {"lon": -122.318779, "lat": 38.007019}}, {"id": 7176022, "name": "Las Maravillas", "state": "NM", "country": "US", "coord": {"lon": -106.668541, "lat": 34.738152}}, {"id": 7176024, "name": "Monterey Park", "state": "NM", "country": "US", "coord": {"lon": -106.640846, "lat": 34.75898}}, {"id": 7176028, "name": "Peaceful Valley", "state": "WA", "country": "US", "coord": {"lon": -122.147339, "lat": 48.938148}}, {"id": 7176030, "name": "Rancho Tehama Reserve", "state": "CA", "country": "US", "coord": {"lon": -122.400719, "lat": 40.01569}}, {"id": 7176031, "name": "Rio Communities", "state": "NM", "country": "US", "coord": {"lon": -106.734032, "lat": 34.64959}}, {"id": 7176035, "name": "Silver Firs", "state": "WA", "country": "US", "coord": {"lon": -122.155098, "lat": 47.86602}}, {"id": 7176038, "name": "Verde Village", "state": "AZ", "country": "US", "coord": {"lon": -112.01152, "lat": 34.710499}}, {"id": 7176039, "name": "Vineyard", "state": "CA", "country": "US", "coord": {"lon": -121.346916, "lat": 38.464489}}, {"id": 7176904, "name": "Bel Air Mobile Home Park", "state": "NY", "country": "US", "coord": {"lon": -74.144173, "lat": 41.555561}}, {"id": 7177640, "name": "Meadow Lane Village Mobile Home Park", "state": "MI", "country": "US", "coord": {"lon": -85.617218, "lat": 41.937222}}, {"id": 7179275, "name": "Countryside Mobile Court", "state": "MI", "country": "US", "coord": {"lon": -85.023064, "lat": 41.91111}}, {"id": 7179381, "name": "Chattahoochee Hills", "state": "GA", "country": "US", "coord": {"lon": -84.76049, "lat": 33.550629}}, {"id": 7180617, "name": "vadlamuru", "state": "", "country": "IN", "coord": {"lon": 82.165649, "lat": 17.095449}}, {"id": 7187162, "name": "Maple Woods Manufactured Home Community", "state": "MI", "country": "US", "coord": {"lon": -84.068062, "lat": 41.888889}}, {"id": 7189434, "name": "Westside Ridge Mobile Home Community", "state": "FL", "country": "US", "coord": {"lon": -81.815536, "lat": 28.08103}}, {"id": 7189493, "name": "Bartow Mobile Home Park", "state": "FL", "country": "US", "coord": {"lon": -81.827599, "lat": 27.883301}}, {"id": 7189495, "name": "Terio's Mobile Home Park", "state": "FL", "country": "US", "coord": {"lon": -81.786011, "lat": 27.92857}}, {"id": 7189851, "name": "Aspen Indian Creek Park", "state": "FL", "country": "US", "coord": {"lon": -81.9412, "lat": 26.490101}}, {"id": 7189870, "name": "Golden Ponds Mobile Home Park", "state": "FL", "country": "US", "coord": {"lon": -80.426903, "lat": 27.465599}}, {"id": 7189969, "name": "Trailer Terrace Mobile Home Park", "state": "FL", "country": "US", "coord": {"lon": -81.69442, "lat": 30.243191}}, {"id": 7190149, "name": "Ocean Waterway Mobile Home Park", "state": "FL", "country": "US", "coord": {"lon": -80.158791, "lat": 26.059799}}, {"id": 7190617, "name": "Brittany Estates Mobile Home Park", "state": "FL", "country": "US", "coord": {"lon": -82.282501, "lat": 29.7003}}, {"id": 7190872, "name": "Baileys Mobile Home Park", "state": "FL", "country": "US", "coord": {"lon": -81.8731, "lat": 30.2568}}, {"id": 7191174, "name": "Seaside Resort Mobile Home Park", "state": "FL", "country": "US", "coord": {"lon": -81.656319, "lat": 24.579081}}, {"id": 7191495, "name": "Dranefield Mobile Home Park", "state": "FL", "country": "US", "coord": {"lon": -82.048698, "lat": 27.9932}}, {"id": 7191607, "name": "Haven on Lake Harris Mobile Home Park", "state": "FL", "country": "US", "coord": {"lon": -81.784798, "lat": 28.8207}}, {"id": 7191820, "name": "Trailer Haven Mobile Home Park", "state": "FL", "country": "US", "coord": {"lon": -80.631111, "lat": 28.089689}}, {"id": 7192301, "name": "Azteca Mobile Home Park", "state": "FL", "country": "US", "coord": {"lon": -80.844498, "lat": 27.277599}}, {"id": 7192969, "name": "Kingsley Mobile Home Park", "state": "FL", "country": "US", "coord": {"lon": -81.330803, "lat": 29.951}}, {"id": 7193248, "name": "Manatee Hammock Park Mobile Home Park", "state": "FL", "country": "US", "coord": {"lon": -80.782959, "lat": 28.507259}}, {"id": 7193472, "name": "Lake Haven Mobile Home Park", "state": "FL", "country": "US", "coord": {"lon": -81.754501, "lat": 28.0674}}, {"id": 7198188, "name": "Cashell Estates", "state": "MD", "country": "US", "coord": {"lon": -77.138702, "lat": 39.137199}}, {"id": 7200023, "name": "Suffolk Pines", "state": "NY", "country": "US", "coord": {"lon": -72.628059, "lat": 40.824169}}, {"id": 7201401, "name": "Carlyle West", "state": "NY", "country": "US", "coord": {"lon": -73.830559, "lat": 42.935558}}, {"id": 7203613, "name": "Coach Light Estates Mobile Home Park", "state": "MI", "country": "US", "coord": {"lon": -83.878891, "lat": 41.83667}}, {"id": 7203757, "name": "Cherry Creek Mobile Home Park", "state": "NY", "country": "US", "coord": {"lon": -79.108612, "lat": 42.290829}}, {"id": 7208522, "name": "Pin Oak Village", "state": "TX", "country": "US", "coord": {"lon": -95.803001, "lat": 29.7665}}, {"id": 7208536, "name": "Pinewood Place", "state": "TX", "country": "US", "coord": {"lon": -95.556198, "lat": 30.080099}}, {"id": 7209033, "name": "Airstream", "state": "TX", "country": "US", "coord": {"lon": -95.183701, "lat": 29.8654}}, {"id": 7209040, "name": "Allen Farms", "state": "TX", "country": "US", "coord": {"lon": -95.291199, "lat": 29.6409}}, {"id": 7217356, "name": "Citrus Park", "state": "", "country": "US", "coord": {"lon": -82.452904, "lat": 27.991501}}, {"id": 7217562, "name": "Lindsey", "state": "FL", "country": "US", "coord": {"lon": -82.211403, "lat": 28.005199}}, {"id": 7218413, "name": "Port Tampa Communities", "state": "FL", "country": "US", "coord": {"lon": -82.522598, "lat": 27.8606}}, {"id": 7220609, "name": "Desert Edge", "state": "CA", "country": "US", "coord": {"lon": -116.441391, "lat": 33.924171}}, {"id": 7220715, "name": "Evergreen Mobile Home Park", "state": "NY", "country": "US", "coord": {"lon": -77.666939, "lat": 43.114719}}, {"id": 7220835, "name": "Fox Chase", "state": "PA", "country": "US", "coord": {"lon": -75.962158, "lat": 40.395569}}, {"id": 7223060, "name": "Saint Augustine South", "state": "FL", "country": "US", "coord": {"lon": -81.314484, "lat": 29.842489}}, {"id": 7223553, "name": "Nottingham Forest Mobile Home Park", "state": "MI", "country": "US", "coord": {"lon": -84.70694, "lat": 45.02639}}, {"id": 7225018, "name": "Town and Country Mobile Village", "state": "MI", "country": "US", "coord": {"lon": -85.602783, "lat": 44.741669}}, {"id": 7225262, "name": "Valley View Mobile Home Park", "state": "NY", "country": "US", "coord": {"lon": -75.531937, "lat": 42.558609}}, {"id": 7226952, "name": "Dix Mobile Home Park", "state": "NY", "country": "US", "coord": {"lon": -73.594437, "lat": 43.317219}}, {"id": 7228058, "name": "Northpoint Mobile Home Park", "state": "GA", "country": "US", "coord": {"lon": -81.764801, "lat": 32.472801}}, {"id": 7228075, "name": "Southside Mobile Estates", "state": "GA", "country": "US", "coord": {"lon": -81.154297, "lat": 31.994801}}, {"id": 7229006, "name": "Wrights Mobile Home Village", "state": "MD", "country": "US", "coord": {"lon": -76.195847, "lat": 39.487381}}, {"id": 7230311, "name": "Charter Oaks Mobile Home Park", "state": "NC", "country": "US", "coord": {"lon": -77.902702, "lat": 34.126202}}, {"id": 7231955, "name": "Captains Cove", "state": "VA", "country": "US", "coord": {"lon": -75.422722, "lat": 37.98996}}, {"id": 7232148, "name": "Pleasant Prairie Mobile Home Court", "state": "WI", "country": "US", "coord": {"lon": -87.950829, "lat": 42.581669}}, {"id": 7232363, "name": "Motors Mobile Home Park", "state": "WI", "country": "US", "coord": {"lon": -88.320282, "lat": 42.664169}}, {"id": 7232375, "name": "Fairway Oaks Mobile Home Park", "state": "CA", "country": "US", "coord": {"lon": -122.300003, "lat": 40.485828}}, {"id": 7232381, "name": "Lazy Landing Mobile Home Park", "state": "CA", "country": "US", "coord": {"lon": -122.32444, "lat": 40.48333}}, {"id": 7232544, "name": "Spacious Acres", "state": "WI", "country": "US", "coord": {"lon": -88.592216, "lat": 43.040562}}, {"id": 7232590, "name": "North Shore Trailer Park", "state": "MI", "country": "US", "coord": {"lon": -84.731667, "lat": 44.375561}}, {"id": 7232724, "name": "Cadillac Leisure Mobile Home Community", "state": "MI", "country": "US", "coord": {"lon": -85.423889, "lat": 44.258888}}, {"id": 7234583, "name": "Acacia Falls Mobile Home Court", "state": "WI", "country": "US", "coord": {"lon": -87.814171, "lat": 43.74556}}, {"id": 7234710, "name": "Lynn Mobile Manor", "state": "OH", "country": "US", "coord": {"lon": -80.676941, "lat": 40.884171}}, {"id": 7234896, "name": "Cross Roads", "state": "TX", "country": "US", "coord": {"lon": -97.0019, "lat": 33.230652}}, {"id": 7235698, "name": "Williamsburg Manor", "state": "IN", "country": "US", "coord": {"lon": -87.01722, "lat": 41.447498}}, {"id": 7235708, "name": "Whispering Pines Mobile Home Park", "state": "TN", "country": "US", "coord": {"lon": -85.193893, "lat": 35.032219}}, {"id": 7235893, "name": "Erie West Mobile Home Park", "state": "OH", "country": "US", "coord": {"lon": -82.241943, "lat": 41.439171}}, {"id": 7235966, "name": "Oak Park Terrace", "state": "WI", "country": "US", "coord": {"lon": -89.353058, "lat": 43.13361}}, {"id": 7236207, "name": "Warmcastle Mobile Home Park", "state": "CA", "country": "US", "coord": {"lon": -122.148331, "lat": 41.21806}}, {"id": 7238057, "name": "Weston Lakes", "state": "TX", "country": "US", "coord": {"lon": -95.935707, "lat": 29.683241}}, {"id": 7238147, "name": "Havenview Mobile Home Court", "state": "MI", "country": "US", "coord": {"lon": -85.505829, "lat": 43.734718}}, {"id": 7238148, "name": "Forest Hills Mobile Home Park", "state": "MI", "country": "US", "coord": {"lon": -85.48056, "lat": 43.67556}}, {"id": 7238522, "name": "Blairs Creek Mobile Home Park", "state": "VA", "country": "US", "coord": {"lon": -76.671143, "lat": 36.986172}}, {"id": 7239737, "name": "Derby Downs", "state": "OH", "country": "US", "coord": {"lon": -81.462784, "lat": 41.02972}}, {"id": 7239856, "name": "Oakwood Village", "state": "OH", "country": "US", "coord": {"lon": -84.245003, "lat": 39.59222}}, {"id": 7239972, "name": "Circle J Park", "state": "TN", "country": "US", "coord": {"lon": -86.082779, "lat": 35.514439}}, {"id": 7240784, "name": "Broadway Acres Mobile Home Park", "state": "MI", "country": "US", "coord": {"lon": -84.739441, "lat": 43.60556}}, {"id": 7247544, "name": "Sugartree Mobile Home Park", "state": "MI", "country": "US", "coord": {"lon": -83.37944, "lat": 43.503609}}, {"id": 7247861, "name": "Deer Run Mobile Home Park", "state": "FL", "country": "US", "coord": {"lon": -82.639168, "lat": 30.228609}}, {"id": 7247870, "name": "Cozy Acres", "state": "OH", "country": "US", "coord": {"lon": -81.63694, "lat": 40.658329}}, {"id": 7248338, "name": "Berghs Mobile Home Park", "state": "WI", "country": "US", "coord": {"lon": -91.556389, "lat": 44.82972}}, {"id": 7248920, "name": "Rock Fork (historical)", "state": "KY", "country": "US", "coord": {"lon": -83.190666, "lat": 37.355808}}, {"id": 7249577, "name": "Kris Kay Mobile Home Park", "state": "MI", "country": "US", "coord": {"lon": -84.133331, "lat": 43.400558}}, {"id": 7249863, "name": "Winter's Motor Court", "state": "MI", "country": "US", "coord": {"lon": -83.790283, "lat": 43.277222}}, {"id": 7250946, "name": "Carnegie Hill", "state": "NY", "country": "US", "coord": {"lon": -73.95472, "lat": 40.783329}}, {"id": 7257357, "name": "Conning Towers-Nautilus Park", "state": "CT", "country": "US", "coord": {"lon": -72.068771, "lat": 41.385479}}, {"id": 7257361, "name": "Deep River Center", "state": "CT", "country": "US", "coord": {"lon": -72.438622, "lat": 41.38221}}, {"id": 7257367, "name": "Essex Village", "state": "CT", "country": "US", "coord": {"lon": -72.391006, "lat": 41.355438}}, {"id": 7257370, "name": "Guilford Center", "state": "CT", "country": "US", "coord": {"lon": -72.676178, "lat": 41.281559}}, {"id": 7257377, "name": "Madison Center", "state": "CT", "country": "US", "coord": {"lon": -72.600479, "lat": 41.279251}}, {"id": 7257382, "name": "New Hartford Center", "state": "CT", "country": "US", "coord": {"lon": -72.975304, "lat": 41.879959}}, {"id": 7257391, "name": "Northwest Harwinton", "state": "CT", "country": "US", "coord": {"lon": -73.079224, "lat": 41.776852}}, {"id": 7257394, "name": "Old Saybrook Center", "state": "CT", "country": "US", "coord": {"lon": -72.36528, "lat": 41.2915}}, {"id": 7257396, "name": "Oxoboxo River", "state": "CT", "country": "US", "coord": {"lon": -72.125023, "lat": 41.443909}}, {"id": 7257398, "name": "Plainfield Village", "state": "CT", "country": "US", "coord": {"lon": -71.924889, "lat": 41.676861}}, {"id": 7257408, "name": "Simsbury Center", "state": "CT", "country": "US", "coord": {"lon": -72.811157, "lat": 41.880878}}, {"id": 7257422, "name": "Wallingford Center", "state": "CT", "country": "US", "coord": {"lon": -72.818916, "lat": 41.449871}}, {"id": 7257425, "name": "Westbrook Center", "state": "CT", "country": "US", "coord": {"lon": -72.442543, "lat": 41.279968}}, {"id": 7257433, "name": "Woodbury Center", "state": "CT", "country": "US", "coord": {"lon": -73.204758, "lat": 41.544529}}, {"id": 7257441, "name": "Brunswick Station", "state": "ME", "country": "US", "coord": {"lon": -69.93264, "lat": 43.8867}}, {"id": 7257477, "name": "Loring AFB", "state": "ME", "country": "US", "coord": {"lon": -67.893929, "lat": 46.938789}}, {"id": 7257523, "name": "Acushnet Center", "state": "MA", "country": "US", "coord": {"lon": -70.906418, "lat": 41.685081}}, {"id": 7257572, "name": "Green Harbor-Cedar Crest", "state": "MA", "country": "US", "coord": {"lon": -70.658432, "lat": 42.074951}}, {"id": 7257575, "name": "Harwich Center", "state": "MA", "country": "US", "coord": {"lon": -70.069382, "lat": 41.692348}}, {"id": 7257618, "name": "Hillsborough", "state": "NH", "country": "US", "coord": {"lon": -71.8992, "lat": 43.114101}}, {"id": 7257640, "name": "Tilton-Northfield", "state": "NH", "country": "US", "coord": {"lon": -71.593643, "lat": 43.443001}}, {"id": 7257658, "name": "Newport East", "state": "RI", "country": "US", "coord": {"lon": -71.287521, "lat": 41.515789}}, {"id": 7257663, "name": "Wakefield-Peacedale", "state": "RI", "country": "US", "coord": {"lon": -71.500397, "lat": 41.44606}}, {"id": 7257704, "name": "Mansfield Center", "state": "MA", "country": "US", "coord": {"lon": -71.218079, "lat": 42.022621}}, {"id": 7257706, "name": "Marion Center", "state": "MA", "country": "US", "coord": {"lon": -70.762863, "lat": 41.704239}}, {"id": 7257710, "name": "Mattapoisett Center", "state": "MA", "country": "US", "coord": {"lon": -70.807198, "lat": 41.665951}}, {"id": 7257713, "name": "Middleborough Center", "state": "MA", "country": "US", "coord": {"lon": -70.926178, "lat": 41.8946}}, {"id": 7257716, "name": "Millis-Clicquot", "state": "MA", "country": "US", "coord": {"lon": -71.354424, "lat": 42.164799}}, {"id": 7257719, "name": "Monson Center", "state": "MA", "country": "US", "coord": {"lon": -72.30481, "lat": 42.09898}}, {"id": 7257737, "name": "Northwest Harwich", "state": "MA", "country": "US", "coord": {"lon": -70.102501, "lat": 41.690289}}, {"id": 7257739, "name": "Norton Center", "state": "MA", "country": "US", "coord": {"lon": -71.185349, "lat": 41.972542}}, {"id": 7257741, "name": "Ocean Bluff-Brant Rock", "state": "MA", "country": "US", "coord": {"lon": -70.657356, "lat": 42.102341}}, {"id": 7257796, "name": "Bethlehem Village", "state": "CT", "country": "US", "coord": {"lon": -73.203079, "lat": 41.640099}}, {"id": 7257798, "name": "Branford Center", "state": "CT", "country": "US", "coord": {"lon": -72.815109, "lat": 41.277382}}, {"id": 7257804, "name": "Central Waterford", "state": "CT", "country": "US", "coord": {"lon": -72.129478, "lat": 41.345039}}, {"id": 7257805, "name": "Cheshire Village", "state": "CT", "country": "US", "coord": {"lon": -72.899521, "lat": 41.502602}}, {"id": 7257806, "name": "Chester Center", "state": "CT", "country": "US", "coord": {"lon": -72.452698, "lat": 41.401321}}, {"id": 7257859, "name": "Fairfield", "state": "NJ", "country": "US", "coord": {"lon": -74.304024, "lat": 40.882549}}, {"id": 7257872, "name": "Fairview-Ferndale", "state": "PA", "country": "US", "coord": {"lon": -76.575279, "lat": 40.780369}}, {"id": 7257902, "name": "Fort Belvoir", "state": "VA", "country": "US", "coord": {"lon": -77.145889, "lat": 38.711899}}, {"id": 7257905, "name": "Fort Drum", "state": "NY", "country": "US", "coord": {"lon": -75.761887, "lat": 44.05843}}, {"id": 7257908, "name": "Fort Lee", "state": "VA", "country": "US", "coord": {"lon": -77.334419, "lat": 37.246941}}, {"id": 7257909, "name": "Fort Meade", "state": "MD", "country": "US", "coord": {"lon": -76.743233, "lat": 39.10815}}, {"id": 7257914, "name": "Aberdeen Proving Ground", "state": "MD", "country": "US", "coord": {"lon": -76.130661, "lat": 39.466862}}, {"id": 7257935, "name": "Andrews AFB", "state": "MD", "country": "US", "coord": {"lon": -76.874603, "lat": 38.805309}}, {"id": 7257953, "name": "Ashton-Sandy Spring", "state": "MD", "country": "US", "coord": {"lon": -77.005043, "lat": 39.149761}}, {"id": 7257988, "name": "Beaverdam Lake-Salisbury Mills", "state": "NY", "country": "US", "coord": {"lon": -74.116287, "lat": 41.44162}}, {"id": 7257991, "name": "Bel Air North", "state": "MD", "country": "US", "coord": {"lon": -76.373093, "lat": 39.554291}}, {"id": 7257992, "name": "Bel Air South", "state": "MD", "country": "US", "coord": {"lon": -76.319763, "lat": 39.505058}}, {"id": 7258009, "name": "Big Flats Airport", "state": "NY", "country": "US", "coord": {"lon": -76.889771, "lat": 42.1693}}, {"id": 7258044, "name": "Brittany Farms-Highlands", "state": "PA", "country": "US", "coord": {"lon": -75.214012, "lat": 40.269009}}, {"id": 7258078, "name": "Carmel Hamlet", "state": "NY", "country": "US", "coord": {"lon": -73.685242, "lat": 41.414848}}, {"id": 7258082, "name": "Carnot-Moon", "state": "PA", "country": "US", "coord": {"lon": -80.217361, "lat": 40.518559}}, {"id": 7258090, "name": "Cecil-Bishop", "state": "PA", "country": "US", "coord": {"lon": -80.193321, "lat": 40.318192}}, {"id": 7258153, "name": "Conneaut Lakeshore", "state": "PA", "country": "US", "coord": {"lon": -80.310081, "lat": 41.62711}}, {"id": 7258161, "name": "Cortland West", "state": "NY", "country": "US", "coord": {"lon": -76.225868, "lat": 42.594311}}, {"id": 7258211, "name": "Dover Base Housing", "state": "DE", "country": "US", "coord": {"lon": -75.483932, "lat": 39.11763}}, {"id": 7258233, "name": "East Hampton North", "state": "NY", "country": "US", "coord": {"lon": -72.18911, "lat": 40.972759}}, {"id": 7258259, "name": "McGuire AFB", "state": "NJ", "country": "US", "coord": {"lon": -74.581741, "lat": 40.039768}}, {"id": 7258303, "name": "Moorestown-Lenola", "state": "NJ", "country": "US", "coord": {"lon": -74.964409, "lat": 39.965912}}, {"id": 7258310, "name": "Mount Gay-Shamrock", "state": "WV", "country": "US", "coord": {"lon": -82.029701, "lat": 37.83857}}, {"id": 7258318, "name": "Mount Vernon", "state": "VA", "country": "US", "coord": {"lon": -77.107262, "lat": 38.719189}}, {"id": 7258330, "name": "Naval Academy", "state": "MD", "country": "US", "coord": {"lon": -76.48774, "lat": 38.98568}}, {"id": 7258338, "name": "New Castle Northwest", "state": "PA", "country": "US", "coord": {"lon": -80.356819, "lat": 41.022079}}, {"id": 7258360, "name": "North Ballston Spa", "state": "NY", "country": "US", "coord": {"lon": -73.851089, "lat": 43.019691}}, {"id": 7258390, "name": "Northeast Ithaca", "state": "NY", "country": "US", "coord": {"lon": -76.46228, "lat": 42.470322}}, {"id": 7258393, "name": "Northwest Harborcreek", "state": "PA", "country": "US", "coord": {"lon": -79.994629, "lat": 42.149441}}, {"id": 7258394, "name": "Northwest Ithaca", "state": "NY", "country": "US", "coord": {"lon": -76.541451, "lat": 42.470589}}, {"id": 7258438, "name": "Paramount-Long Meadow", "state": "MD", "country": "US", "coord": {"lon": -77.692902, "lat": 39.68042}}, {"id": 7258482, "name": "Plattsburgh West", "state": "NY", "country": "US", "coord": {"lon": -73.502953, "lat": 44.683151}}, {"id": 7258514, "name": "Pymatuning Central", "state": "PA", "country": "US", "coord": {"lon": -80.479599, "lat": 41.585461}}, {"id": 7258516, "name": "Pymatuning South", "state": "PA", "country": "US", "coord": {"lon": -80.47023, "lat": 41.506779}}, {"id": 7258517, "name": "Quantico Station", "state": "VA", "country": "US", "coord": {"lon": -77.318336, "lat": 38.522629}}, {"id": 7258540, "name": "Remsenburg-Speonk", "state": "NY", "country": "US", "coord": {"lon": -72.696732, "lat": 40.82642}}, {"id": 7258553, "name": "Rising Sun-Lebanon", "state": "DE", "country": "US", "coord": {"lon": -75.504883, "lat": 39.09977}}, {"id": 7258576, "name": "Rosendale Village", "state": "NY", "country": "US", "coord": {"lon": -74.073776, "lat": 41.85038}}, {"id": 7258581, "name": "Leisure World", "state": "MD", "country": "US", "coord": {"lon": -77.068977, "lat": 39.102299}}, {"id": 7258606, "name": "Fountainhead-Orchard Hills", "state": "MD", "country": "US", "coord": {"lon": -77.719009, "lat": 39.686359}}, {"id": 7258619, "name": "Friendship Village", "state": "", "country": "US", "coord": {"lon": -77.090019, "lat": 38.963219}}, {"id": 7258652, "name": "Glens Falls North", "state": "NY", "country": "US", "coord": {"lon": -73.68251, "lat": 43.33506}}, {"id": 7258676, "name": "Greenport West", "state": "NY", "country": "US", "coord": {"lon": -72.371948, "lat": 41.10178}}, {"id": 7258686, "name": "Guilford", "state": "PA", "country": "US", "coord": {"lon": -77.601051, "lat": 39.915409}}, {"id": 7258740, "name": "Holiday City South", "state": "NJ", "country": "US", "coord": {"lon": -74.237778, "lat": 39.953239}}, {"id": 7258741, "name": "Holiday City-Berkeley", "state": "NJ", "country": "US", "coord": {"lon": -74.27803, "lat": 39.963799}}, {"id": 7258746, "name": "Homeacre-Lyndora", "state": "PA", "country": "US", "coord": {"lon": -79.920601, "lat": 40.872059}}, {"id": 7258752, "name": "Horseheads North", "state": "NY", "country": "US", "coord": {"lon": -76.807823, "lat": 42.19278}}, {"id": 7258777, "name": "Jamestown West", "state": "NY", "country": "US", "coord": {"lon": -79.281097, "lat": 42.088509}}, {"id": 7258782, "name": "Jefferson Valley-Yorktown", "state": "NY", "country": "US", "coord": {"lon": -73.800659, "lat": 41.31797}}, {"id": 7258847, "name": "Lebanon South", "state": "PA", "country": "US", "coord": {"lon": -76.406441, "lat": 40.328041}}, {"id": 7258852, "name": "Leisure Village West-Pine Lake Park", "state": "NJ", "country": "US", "coord": {"lon": -74.266289, "lat": 40.004162}}, {"id": 7258855, "name": "Leith-Hatfield", "state": "PA", "country": "US", "coord": {"lon": -79.731331, "lat": 39.877441}}, {"id": 7258899, "name": "Lyndhurst", "state": "NJ", "country": "US", "coord": {"lon": -74.110184, "lat": 40.796589}}, {"id": 7258901, "name": "Lynnwood-Pricedale", "state": "PA", "country": "US", "coord": {"lon": -79.851349, "lat": 40.130711}}, {"id": 7258945, "name": "Saugerties South", "state": "NY", "country": "US", "coord": {"lon": -73.950668, "lat": 42.06139}}, {"id": 7258965, "name": "Setauket-East Setauket", "state": "NY", "country": "US", "coord": {"lon": -73.101784, "lat": 40.930641}}, {"id": 7258973, "name": "Shanor-Northvue", "state": "PA", "country": "US", "coord": {"lon": -79.915619, "lat": 40.91045}}, {"id": 7259013, "name": "South Park Township", "state": "PA", "country": "US", "coord": {"lon": -79.994049, "lat": 40.298641}}, {"id": 7259084, "name": "Tonawanda", "state": "", "country": "US", "coord": {"lon": -78.877983, "lat": 42.984989}}, {"id": 7259124, "name": "Village Green-Green Ridge", "state": "PA", "country": "US", "coord": {"lon": -75.425484, "lat": 39.863628}}, {"id": 7259151, "name": "Weissport East", "state": "PA", "country": "US", "coord": {"lon": -75.686432, "lat": 40.836971}}, {"id": 7259197, "name": "Whitesboro-Burleigh", "state": "NJ", "country": "US", "coord": {"lon": -74.865379, "lat": 39.043049}}, {"id": 7259199, "name": "Whittingham", "state": "NJ", "country": "US", "coord": {"lon": -74.445107, "lat": 40.329819}}, {"id": 7259200, "name": "Wickerham Manor-Fisher", "state": "PA", "country": "US", "coord": {"lon": -79.906837, "lat": 40.17749}}, {"id": 7259210, "name": "Wilson-Conococheague", "state": "MD", "country": "US", "coord": {"lon": -77.831573, "lat": 39.653511}}, {"id": 7259226, "name": "Woodside East", "state": "DE", "country": "US", "coord": {"lon": -75.537483, "lat": 39.067558}}, {"id": 7259253, "name": "Ellsworth Air Force Base", "state": "SD", "country": "US", "coord": {"lon": -103.075073, "lat": 44.143951}}, {"id": 7259265, "name": "Fort Leonard Wood", "state": "MO", "country": "US", "coord": {"lon": -92.157173, "lat": 37.70573}}, {"id": 7259267, "name": "Fort Riley North", "state": "KS", "country": "US", "coord": {"lon": -96.813919, "lat": 39.110809}}, {"id": 7259283, "name": "Grand Forks Air Force Base", "state": "ND", "country": "US", "coord": {"lon": -97.386642, "lat": 47.954929}}, {"id": 7259287, "name": "Granville South", "state": "OH", "country": "US", "coord": {"lon": -82.541656, "lat": 40.052071}}, {"id": 7259295, "name": "Grissom Air Force Base", "state": "IN", "country": "US", "coord": {"lon": -86.147552, "lat": 40.657532}}, {"id": 7259330, "name": "K. I. Sawyer Air Force Base", "state": "MI", "country": "US", "coord": {"lon": -87.386322, "lat": 46.346512}}, {"id": 7259359, "name": "Legend Lake", "state": "WI", "country": "US", "coord": {"lon": -88.54406, "lat": 44.890949}}, {"id": 7259362, "name": "Level Park-Oak Park", "state": "MI", "country": "US", "coord": {"lon": -85.266502, "lat": 42.364182}}, {"id": 7259381, "name": "Manitou Beach-Devils Lake", "state": "MI", "country": "US", "coord": {"lon": -84.286163, "lat": 41.975651}}, {"id": 7259396, "name": "Minot Air Force Base", "state": "ND", "country": "US", "coord": {"lon": -101.339142, "lat": 48.420872}},