[{"id": 7373404, "name": "Suchuan", "state": "", "country": "CN", "coord": {"lon": 105.949013, "lat": 33.788841}}, {"id": 7373419, "name": "Liuxiang", "state": "", "country": "CN", "coord": {"lon": 105.444473, "lat": 33.79937}}, {"id": 7373429, "name": "Yinxingshu", "state": "", "country": "CN", "coord": {"lon": 106.037933, "lat": 33.80497}}, {"id": 7373438, "name": "Shuiquan", "state": "", "country": "CN", "coord": {"lon": 105.722672, "lat": 33.811008}}, {"id": 7373480, "name": "Luoyu", "state": "", "country": "CN", "coord": {"lon": 105.231171, "lat": 33.84103}}, {"id": 7373487, "name": "Wangmo", "state": "", "country": "CN", "coord": {"lon": 105.676407, "lat": 33.850739}}, {"id": 7373517, "name": "Hekou", "state": "", "country": "CN", "coord": {"lon": 105.152924, "lat": 33.875481}}, {"id": 7373532, "name": "Youlongchuan", "state": "", "country": "CN", "coord": {"lon": 105.88205, "lat": 33.888721}}, {"id": 7373600, "name": "Shili", "state": "", "country": "CN", "coord": {"lon": 105.292473, "lat": 33.95182}}, {"id": 7373609, "name": "Yushu", "state": "", "country": "CN", "coord": {"lon": 106.005707, "lat": 33.959782}}, {"id": 7373617, "name": "Huangzhu", "state": "", "country": "CN", "coord": {"lon": 105.682663, "lat": 33.967548}}, {"id": 7373636, "name": "Zhaowu", "state": "", "country": "CN", "coord": {"lon": 105.309624, "lat": 33.985298}}, {"id": 7373653, "name": "Shaijing", "state": "", "country": "CN", "coord": {"lon": 105.488853, "lat": 33.983318}}, {"id": 7373656, "name": "Jiangxi", "state": "", "country": "CN", "coord": {"lon": 105.199944, "lat": 33.99934}}, {"id": 7373672, "name": "Luhe", "state": "", "country": "CN", "coord": {"lon": 105.34021, "lat": 34.009178}}, {"id": 7373727, "name": "Mayuan", "state": "", "country": "CN", "coord": {"lon": 105.522781, "lat": 34.05397}}, {"id": 7373918, "name": "Shijiayuan", "state": "", "country": "CN", "coord": {"lon": 106.005318, "lat": 33.2897}}, {"id": 7374589, "name": "Taiping", "state": "", "country": "CN", "coord": {"lon": 105.696762, "lat": 32.95409}}, {"id": 7374646, "name": "N\u0101\u1e29iyat Al\u012b ash Sharq\u012b", "state": "", "country": "IQ", "coord": {"lon": 46.749279, "lat": 32.122871}}, {"id": 7375165, "name": "Mronjo", "state": "", "country": "ID", "coord": {"lon": 112.2817, "lat": -8.1282}}, {"id": 7375180, "name": "Siraman", "state": "", "country": "ID", "coord": {"lon": 112.336098, "lat": -8.143}}, {"id": 7375185, "name": "Jabung", "state": "", "country": "ID", "coord": {"lon": 112.264603, "lat": -8.1343}}, {"id": 7375190, "name": "Mandesan", "state": "", "country": "ID", "coord": {"lon": 112.293503, "lat": -8.1476}}, {"id": 7375205, "name": "Kaulon", "state": "", "country": "ID", "coord": {"lon": 112.281097, "lat": -8.1605}}, {"id": 7375223, "name": "Ngembul", "state": "", "country": "ID", "coord": {"lon": 112.332001, "lat": -8.1739}}, {"id": 7375226, "name": "Umbuldamar", "state": "", "country": "ID", "coord": {"lon": 112.3563, "lat": -8.1796}}, {"id": 7375227, "name": "Ngadri", "state": "", "country": "ID", "coord": {"lon": 112.362198, "lat": -8.1812}}, {"id": 7375243, "name": "Rampalombo", "state": "", "country": "ID", "coord": {"lon": 112.265099, "lat": -8.1985}}, {"id": 7375248, "name": "Rejoso", "state": "", "country": "ID", "coord": {"lon": 112.335701, "lat": -8.1971}}, {"id": 7375252, "name": "Sambigede", "state": "", "country": "ID", "coord": {"lon": 112.342697, "lat": -8.2051}}, {"id": 7375255, "name": "Panggungasri", "state": "", "country": "ID", "coord": {"lon": 112.296303, "lat": -8.2099}}, {"id": 7375263, "name": "Birowo", "state": "", "country": "ID", "coord": {"lon": 112.366096, "lat": -8.2226}}, {"id": 7375268, "name": "Salamrejo", "state": "", "country": "ID", "coord": {"lon": 112.314697, "lat": -8.2254}}, {"id": 7375287, "name": "Panggungwinong", "state": "", "country": "ID", "coord": {"lon": 112.287804, "lat": -8.2394}}, {"id": 7375298, "name": "Sumberarum", "state": "", "country": "ID", "coord": {"lon": 112.339302, "lat": -8.249}}, {"id": 7375327, "name": "Balong Wetan", "state": "", "country": "ID", "coord": {"lon": 111.261002, "lat": -7.0006}}, {"id": 7375331, "name": "Pecaren", "state": "", "country": "ID", "coord": {"lon": 111.300201, "lat": -7.007}}, {"id": 7375343, "name": "Pruntusan", "state": "", "country": "ID", "coord": {"lon": 111.346703, "lat": -7.0044}}, {"id": 7375349, "name": "Sembungin", "state": "", "country": "ID", "coord": {"lon": 111.368156, "lat": -7.0002}}, {"id": 7375350, "name": "Balongrejo", "state": "", "country": "ID", "coord": {"lon": 111.371201, "lat": -7.0094}}, {"id": 7375356, "name": "Gondang", "state": "", "country": "ID", "coord": {"lon": 111.318901, "lat": -7.0109}}, {"id": 7375359, "name": "Punggursugih", "state": "", "country": "ID", "coord": {"lon": 111.310699, "lat": -7.0135}}, {"id": 7375369, "name": "Ketanggi", "state": "", "country": "ID", "coord": {"lon": 111.3162, "lat": -7.0156}}, {"id": 7375374, "name": "Karangtalun", "state": "", "country": "ID", "coord": {"lon": 111.351402, "lat": -7.0202}}, {"id": 7375383, "name": "Mojo Wetan", "state": "", "country": "ID", "coord": {"lon": 111.367897, "lat": -7.0308}}, {"id": 7375390, "name": "Talok", "state": "", "country": "ID", "coord": {"lon": 111.304802, "lat": -7.0293}}, {"id": 7375398, "name": "Jetak", "state": "", "country": "ID", "coord": {"lon": 111.263802, "lat": -7.032}}, {"id": 7375399, "name": "Jepang", "state": "", "country": "ID", "coord": {"lon": 111.257202, "lat": -7.024}}, {"id": 7375409, "name": "Karangtengah", "state": "", "country": "ID", "coord": {"lon": 111.317101, "lat": -7.0398}}, {"id": 7375411, "name": "Gapuk", "state": "", "country": "ID", "coord": {"lon": 111.333504, "lat": -7.0328}}, {"id": 7375413, "name": "Sendanggayam", "state": "", "country": "ID", "coord": {"lon": 111.3452, "lat": -7.0415}}, {"id": 7375419, "name": "Bacem", "state": "", "country": "ID", "coord": {"lon": 111.355904, "lat": -7.0468}}, {"id": 7375424, "name": "Sambirejo", "state": "", "country": "ID", "coord": {"lon": 111.339104, "lat": -7.0455}}, {"id": 7375425, "name": "Gesik", "state": "", "country": "ID", "coord": {"lon": 111.333603, "lat": -7.0464}}, {"id": 7375439, "name": "Muraharjo", "state": "", "country": "ID", "coord": {"lon": 111.265701, "lat": -7.0456}}, {"id": 7375440, "name": "Jagong", "state": "", "country": "ID", "coord": {"lon": 111.253403, "lat": -7.0481}}, {"id": 7375449, "name": "Plumbon", "state": "", "country": "ID", "coord": {"lon": 111.291901, "lat": -7.0534}}, {"id": 7375451, "name": "Kendayakan", "state": "", "country": "ID", "coord": {"lon": 111.309601, "lat": -7.053}}, {"id": 7375474, "name": "Pipes", "state": "", "country": "ID", "coord": {"lon": 111.284798, "lat": -7.0646}}, {"id": 7375634, "name": "Jatiarum", "state": "", "country": "ID", "coord": {"lon": 113.221703, "lat": -8.244}}, {"id": 7375638, "name": "Purwosari", "state": "", "country": "ID", "coord": {"lon": 113.1483, "lat": -8.1293}}, {"id": 7375661, "name": "Perjuangan", "state": "", "country": "ID", "coord": {"lon": 113.182198, "lat": -8.1379}}, {"id": 7375664, "name": "Laban", "state": "", "country": "ID", "coord": {"lon": 113.203697, "lat": -8.1418}}, {"id": 7375666, "name": "Kadipaten", "state": "", "country": "ID", "coord": {"lon": 113.215797, "lat": -8.1357}}, {"id": 7375675, "name": "Gedongsari", "state": "", "country": "ID", "coord": {"lon": 113.198997, "lat": -8.1488}}, {"id": 7375680, "name": "Pandanwangi", "state": "", "country": "ID", "coord": {"lon": 113.248398, "lat": -8.1508}}, {"id": 7375687, "name": "Sarirejo Satu", "state": "", "country": "ID", "coord": {"lon": 113.199097, "lat": -8.1565}}, {"id": 7375689, "name": "Grati Satu", "state": "", "country": "ID", "coord": {"lon": 113.217598, "lat": -8.1531}}, {"id": 7375697, "name": "Suko Dua", "state": "", "country": "ID", "coord": {"lon": 113.187103, "lat": -8.168}}, {"id": 7375707, "name": "Besukan", "state": "", "country": "ID", "coord": {"lon": 113.237701, "lat": -8.1696}}, {"id": 7375711, "name": "Krajan Satu", "state": "", "country": "ID", "coord": {"lon": 113.148598, "lat": -8.1812}}, {"id": 7375723, "name": "Bedok Dua", "state": "", "country": "ID", "coord": {"lon": 113.179298, "lat": -8.1874}}, {"id": 7375724, "name": "Sumberbendo", "state": "", "country": "ID", "coord": {"lon": 113.215401, "lat": -8.1871}}, {"id": 7375727, "name": "Besukrejo", "state": "", "country": "ID", "coord": {"lon": 113.239304, "lat": -8.1858}}, {"id": 7375741, "name": "Recobanteng", "state": "", "country": "ID", "coord": {"lon": 113.216957, "lat": -8.19862}}, {"id": 7375763, "name": "Dompyong", "state": "", "country": "ID", "coord": {"lon": 113.142601, "lat": -8.2165}}, {"id": 7375769, "name": "Kebonsari", "state": "", "country": "ID", "coord": {"lon": 113.170197, "lat": -8.21098}}, {"id": 7375772, "name": "Krajan Tengah", "state": "", "country": "ID", "coord": {"lon": 113.195396, "lat": -8.2142}}, {"id": 7375776, "name": "Kebonan", "state": "", "country": "ID", "coord": {"lon": 113.228302, "lat": -8.2162}}, {"id": 7375782, "name": "Mujur Satu", "state": "", "country": "ID", "coord": {"lon": 113.162987, "lat": -8.21913}}, {"id": 7375791, "name": "Mentosari", "state": "", "country": "ID", "coord": {"lon": 113.212097, "lat": -8.2202}}, {"id": 7375795, "name": "Ketangi", "state": "", "country": "ID", "coord": {"lon": 113.2211, "lat": -8.2233}}, {"id": 7375797, "name": "Sukolilo", "state": "", "country": "ID", "coord": {"lon": 113.236198, "lat": -8.2236}}, {"id": 7375801, "name": "Kebonan", "state": "", "country": "ID", "coord": {"lon": 113.132301, "lat": -8.2261}}, {"id": 7375809, "name": "Pandean", "state": "", "country": "ID", "coord": {"lon": 113.215797, "lat": -8.2297}}, {"id": 7375817, "name": "Cengkok", "state": "", "country": "ID", "coord": {"lon": 113.1968, "lat": -8.2405}}, {"id": 7375824, "name": "Krajan Dua", "state": "", "country": "ID", "coord": {"lon": 113.144501, "lat": -8.244}}, {"id": 7375827, "name": "Karangtengah", "state": "", "country": "ID", "coord": {"lon": 113.178902, "lat": -8.2438}}, {"id": 7375890, "name": "Kramat", "state": "", "country": "ID", "coord": {"lon": 113.449898, "lat": -8.1311}}, {"id": 7375902, "name": "Rowotengah", "state": "", "country": "ID", "coord": {"lon": 113.388397, "lat": -8.1577}}, {"id": 7375907, "name": "Klatakan", "state": "", "country": "ID", "coord": {"lon": 113.488899, "lat": -8.1886}}, {"id": 7375910, "name": "Tanggul Wetan", "state": "", "country": "ID", "coord": {"lon": 113.470901, "lat": -8.1716}}, {"id": 7375916, "name": "Darungan", "state": "", "country": "ID", "coord": {"lon": 113.490303, "lat": -8.1576}}, {"id": 7375920, "name": "Tanggul Kulon", "state": "", "country": "ID", "coord": {"lon": 113.448402, "lat": -8.1647}}, {"id": 7375923, "name": "Rowotengu", "state": "", "country": "ID", "coord": {"lon": 113.425903, "lat": -8.1695}}, {"id": 7375944, "name": "Sukoreno", "state": "", "country": "ID", "coord": {"lon": 113.400299, "lat": -8.2477}}, {"id": 7375952, "name": "Ngampelrejo", "state": "", "country": "ID", "coord": {"lon": 113.376602, "lat": -8.2193}}, {"id": 7375953, "name": "Wringinagung", "state": "", "country": "ID", "coord": {"lon": 113.391502, "lat": -8.2076}}, {"id": 7375954, "name": "Rejoagung", "state": "", "country": "ID", "coord": {"lon": 113.417099, "lat": -8.2017}}, {"id": 7375959, "name": "Semboropasar", "state": "", "country": "ID", "coord": {"lon": 113.445084, "lat": -8.21054}}, {"id": 7375966, "name": "Gadingrejo", "state": "", "country": "ID", "coord": {"lon": 113.434601, "lat": -8.2355}}, {"id": 7375980, "name": "Paleran", "state": "", "country": "ID", "coord": {"lon": 113.495003, "lat": -8.2244}}, {"id": 7375983, "name": "Sidomekar", "state": "", "country": "ID", "coord": {"lon": 113.460999, "lat": -8.2111}}, {"id": 7376087, "name": "Banjar Ponggang", "state": "", "country": "ID", "coord": {"lon": 115.260498, "lat": -8.3893}}, {"id": 7376090, "name": "Banjar Taro Kelod", "state": "", "country": "ID", "coord": {"lon": 115.279404, "lat": -8.3849}}, {"id": 7376100, "name": "Banjar Tiga", "state": "", "country": "ID", "coord": {"lon": 115.3535, "lat": -8.3825}}, {"id": 7376130, "name": "Banjar Dujung Kaja", "state": "", "country": "ID", "coord": {"lon": 115.288597, "lat": -8.4008}}, {"id": 7376134, "name": "Banjar Bukian", "state": "", "country": "ID", "coord": {"lon": 115.265121, "lat": -8.40687}}, {"id": 7376142, "name": "Banjar Manukayaanyar", "state": "", "country": "ID", "coord": {"lon": 115.312401, "lat": -8.4083}}, {"id": 7376148, "name": "Sulahan", "state": "", "country": "ID", "coord": {"lon": 115.3479, "lat": -8.421}}, {"id": 7376182, "name": "Banjar Kubu", "state": "", "country": "ID", "coord": {"lon": 115.3629, "lat": -8.4282}}, {"id": 7376188, "name": "Banjar Brahmanabukit", "state": "", "country": "ID", "coord": {"lon": 115.356102, "lat": -8.4399}}, {"id": 7376200, "name": "Banjar Triwangsakelusa", "state": "", "country": "ID", "coord": {"lon": 115.258202, "lat": -8.4406}}, {"id": 7376210, "name": "Banjar Petak", "state": "", "country": "ID", "coord": {"lon": 115.319504, "lat": -8.4448}}, {"id": 7376236, "name": "Banjar Triwangsakeliki", "state": "", "country": "ID", "coord": {"lon": 115.262001, "lat": -8.452}}, {"id": 7376245, "name": "Banjar Sandinggianyar", "state": "", "country": "ID", "coord": {"lon": 115.299202, "lat": -8.4629}}, {"id": 7376260, "name": "Banjar Mulung", "state": "", "country": "ID", "coord": {"lon": 115.310699, "lat": -8.4786}}, {"id": 7376294, "name": "Banjar Pesalakan", "state": "", "country": "ID", "coord": {"lon": 115.302498, "lat": -8.4812}}, {"id": 7376305, "name": "Banjar Abuan", "state": "", "country": "ID", "coord": {"lon": 115.334999, "lat": -8.4625}}, {"id": 7376310, "name": "Banjar Bebalang", "state": "", "country": "ID", "coord": {"lon": 115.352997, "lat": -8.4718}}, {"id": 7376314, "name": "Banjar Apuan Kaja", "state": "", "country": "ID", "coord": {"lon": 115.329597, "lat": -8.4766}}, {"id": 7376315, "name": "Banjar Madangan Kaja", "state": "", "country": "ID", "coord": {"lon": 115.323799, "lat": -8.475}}, {"id": 7376338, "name": "Sulahan", "state": "", "country": "ID", "coord": {"lon": 115.3479, "lat": -8.421}}, {"id": 7376376, "name": "Jeding", "state": "", "country": "ID", "coord": {"lon": 114.144699, "lat": -7.9171}}, {"id": 7376533, "name": "Karangkebon Timur", "state": "", "country": "ID", "coord": {"lon": 116.13752, "lat": -8.62691}}, {"id": 7376585, "name": "Karang Kuripan", "state": "", "country": "ID", "coord": {"lon": 116.153999, "lat": -8.6347}}, {"id": 7376775, "name": "Pendaleman", "state": "", "country": "ID", "coord": {"lon": 116.240402, "lat": -8.6844}}, {"id": 7376782, "name": "Batutulis", "state": "", "country": "ID", "coord": {"lon": 116.213898, "lat": -8.6911}}, {"id": 7376824, "name": "Blong Daye", "state": "", "country": "ID", "coord": {"lon": 116.2257, "lat": -8.6931}}, {"id": 7376896, "name": "Ampanlolat", "state": "", "country": "ID", "coord": {"lon": 116.198303, "lat": -8.7198}}, {"id": 7376911, "name": "Ranggagata", "state": "", "country": "ID", "coord": {"lon": 116.1847, "lat": -8.7224}}, {"id": 7376944, "name": "Karangdalam", "state": "", "country": "ID", "coord": {"lon": 116.243103, "lat": -8.7384}}, {"id": 7376985, "name": "Bangekdewa", "state": "", "country": "ID", "coord": {"lon": 116.192101, "lat": -8.7476}}, {"id": 7376992, "name": "Karang Daye", "state": "", "country": "ID", "coord": {"lon": 116.241302, "lat": -8.7448}}, {"id": 7377008, "name": "Permas", "state": "", "country": "ID", "coord": {"lon": 116.207802, "lat": -8.7376}}, {"id": 7377082, "name": "Tetebatu", "state": "", "country": "ID", "coord": {"lon": 116.4198, "lat": -8.5535}}, {"id": 7377107, "name": "Perian Selatan", "state": "", "country": "ID", "coord": {"lon": 116.392998, "lat": -8.5641}}, {"id": 7377150, "name": "Gubukjero Timuk", "state": "", "country": "ID", "coord": {"lon": 116.479202, "lat": -8.5605}}, {"id": 7377168, "name": "Keroak", "state": "", "country": "ID", "coord": {"lon": 116.498001, "lat": -8.5705}}, {"id": 7377195, "name": "Sepolong Timur", "state": "", "country": "ID", "coord": {"lon": 116.453903, "lat": -8.585}}, {"id": 7377206, "name": "Kampungmasjid", "state": "", "country": "ID", "coord": {"lon": 116.449799, "lat": -8.5984}}, {"id": 7377235, "name": "Rempungtimur Utara", "state": "", "country": "ID", "coord": {"lon": 116.4991, "lat": -8.6118}}, {"id": 7377246, "name": "Danger Utara", "state": "", "country": "ID", "coord": {"lon": 116.459396, "lat": -8.6121}}, {"id": 7377267, "name": "Timba Lauk", "state": "", "country": "ID", "coord": {"lon": 116.444603, "lat": -8.621}}, {"id": 7377293, "name": "Dayanpeken", "state": "", "country": "ID", "coord": {"lon": 116.420898, "lat": -8.592}}, {"id": 7377298, "name": "Dalamdesa Selatan", "state": "", "country": "ID", "coord": {"lon": 116.411499, "lat": -8.5938}}, {"id": 7377350, "name": "Mujur", "state": "", "country": "ID", "coord": {"lon": 116.401199, "lat": -8.6036}}, {"id": 7377429, "name": "Kelungkung", "state": "", "country": "ID", "coord": {"lon": 117.3368, "lat": -8.5518}}, {"id": 7377604, "name": "Ngeru", "state": "", "country": "ID", "coord": {"lon": 117.5158, "lat": -8.5171}}, {"id": 7377900, "name": "Jorok Dalam", "state": "", "country": "ID", "coord": {"lon": 117.1353, "lat": -8.4112}}, {"id": 7377902, "name": "Orong", "state": "", "country": "ID", "coord": {"lon": 117.129601, "lat": -8.413}}, {"id": 7377903, "name": "Satowebrang", "state": "", "country": "ID", "coord": {"lon": 117.126602, "lat": -8.416}}, {"id": 7377904, "name": "Motong Barat", "state": "", "country": "ID", "coord": {"lon": 117.131104, "lat": -8.4152}}, {"id": 7377907, "name": "Tengah Satu", "state": "", "country": "ID", "coord": {"lon": 117.130798, "lat": -8.4183}}, {"id": 7377919, "name": "Rhee Beru", "state": "", "country": "ID", "coord": {"lon": 117.236, "lat": -8.4182}}, {"id": 7377925, "name": "Sebedo", "state": "", "country": "ID", "coord": {"lon": 117.163101, "lat": -8.4287}}, {"id": 7377953, "name": "Seseng", "state": "", "country": "ID", "coord": {"lon": 117.2304, "lat": -8.4675}}, {"id": 7377967, "name": "Tolotangga", "state": "", "country": "ID", "coord": {"lon": 118.6353, "lat": -8.7642}}, {"id": 7378049, "name": "Lantebaru", "state": "", "country": "ID", "coord": {"lon": 118.773598, "lat": -8.6321}}, {"id": 7378084, "name": "Doro Oo", "state": "", "country": "ID", "coord": {"lon": 118.7631, "lat": -8.6864}}, {"id": 7378109, "name": "Rupe", "state": "", "country": "ID", "coord": {"lon": 118.838402, "lat": -8.6953}}, {"id": 7378119, "name": "Kalodu", "state": "", "country": "ID", "coord": {"lon": 118.838402, "lat": -8.6589}}, {"id": 7378274, "name": "Lampe Satu", "state": "", "country": "ID", "coord": {"lon": 118.801201, "lat": -8.5118}}, {"id": 7378284, "name": "Ta\u2019a", "state": "", "country": "ID", "coord": {"lon": 118.841103, "lat": -8.5184}}, {"id": 7378306, "name": "Sigih", "state": "", "country": "ID", "coord": {"lon": 118.850197, "lat": -8.5373}}, {"id": 7378320, "name": "Raba", "state": "", "country": "ID", "coord": {"lon": 118.863297, "lat": -8.5608}}, {"id": 7378335, "name": "Oinao", "state": "", "country": "ID", "coord": {"lon": 118.8274, "lat": -8.5773}}, {"id": 7378343, "name": "Kuta", "state": "", "country": "ID", "coord": {"lon": 118.781097, "lat": -8.5858}}, {"id": 7378350, "name": "Lambitu", "state": "", "country": "ID", "coord": {"lon": 118.772499, "lat": -8.5969}}, {"id": 7378418, "name": "Kenari", "state": "", "country": "ID", "coord": {"lon": 119.840302, "lat": -8.6184}}, {"id": 7378562, "name": "Dalong", "state": "", "country": "ID", "coord": {"lon": 119.936203, "lat": -8.5649}}, {"id": 7378585, "name": "Merombok", "state": "", "country": "ID", "coord": {"lon": 119.896797, "lat": -8.5404}}, {"id": 7378620, "name": "Melo", "state": "", "country": "ID", "coord": {"lon": 119.961304, "lat": -8.5977}}, {"id": 7379049, "name": "Ngarangiakambera", "state": "", "country": "ID", "coord": {"lon": 120.004898, "lat": -9.671}}, {"id": 7379065, "name": "Karipidita", "state": "", "country": "ID", "coord": {"lon": 120.029701, "lat": -9.7138}}, {"id": 7379235, "name": "Borik", "state": "", "country": "ID", "coord": {"lon": 120.249702, "lat": -8.8435}}, {"id": 7379258, "name": "Waepau", "state": "", "country": "ID", "coord": {"lon": 120.2258, "lat": -8.8058}}, {"id": 7379293, "name": "Kaca", "state": "", "country": "ID", "coord": {"lon": 120.227203, "lat": -8.7511}}, {"id": 7379568, "name": "Tungguwaneng", "state": "", "country": "ID", "coord": {"lon": 121.136398, "lat": -8.4465}}, {"id": 7379583, "name": "Nanganumba", "state": "", "country": "ID", "coord": {"lon": 121.222702, "lat": -8.4699}}, {"id": 7380071, "name": "Wololele A", "state": "", "country": "ID", "coord": {"lon": 121.9151, "lat": -8.7567}}, {"id": 7380094, "name": "Aemalu", "state": "", "country": "ID", "coord": {"lon": 121.944199, "lat": -8.7657}}, {"id": 7380101, "name": "Wololele B", "state": "", "country": "ID", "coord": {"lon": 121.892899, "lat": -8.7624}}, {"id": 7380122, "name": "Jitapanda", "state": "", "country": "ID", "coord": {"lon": 121.956902, "lat": -8.7765}}, {"id": 7380130, "name": "Liabeke", "state": "", "country": "ID", "coord": {"lon": 121.926903, "lat": -8.7764}}, {"id": 7380133, "name": "Baolokan", "state": "", "country": "ID", "coord": {"lon": 121.888702, "lat": -8.7755}}, {"id": 7380150, "name": "Wonda", "state": "", "country": "ID", "coord": {"lon": 121.936996, "lat": -8.791}}, {"id": 7380160, "name": "Aipetu", "state": "", "country": "ID", "coord": {"lon": 121.976501, "lat": -8.7953}}, {"id": 7380188, "name": "Aeteke", "state": "", "country": "ID", "coord": {"lon": 121.977798, "lat": -8.8}}, {"id": 7380222, "name": "Maubasa", "state": "", "country": "ID", "coord": {"lon": 121.9328, "lat": -8.8263}}, {"id": 7380233, "name": "Aipetu", "state": "", "country": "ID", "coord": {"lon": 121.976501, "lat": -8.7953}}, {"id": 7380379, "name": "Boujawa", "state": "", "country": "ID", "coord": {"lon": 121.632896, "lat": -8.7336}}, {"id": 7380385, "name": "Mbani", "state": "", "country": "ID", "coord": {"lon": 121.655098, "lat": -8.6852}}, {"id": 7380402, "name": "Wolofeo", "state": "", "country": "ID", "coord": {"lon": 121.680801, "lat": -8.725}}, {"id": 7380413, "name": "Tendaleo", "state": "", "country": "ID", "coord": {"lon": 121.7005, "lat": -8.6477}}, {"id": 7380436, "name": "Wolomage", "state": "", "country": "ID", "coord": {"lon": 121.735901, "lat": -8.7031}}, {"id": 7380440, "name": "Nuajena", "state": "", "country": "ID", "coord": {"lon": 121.746803, "lat": -8.7298}}, {"id": 7380444, "name": "Wolomoni", "state": "", "country": "ID", "coord": {"lon": 121.744499, "lat": -8.7433}}, {"id": 7380564, "name": "Rerawere", "state": "", "country": "ID", "coord": {"lon": 121.572273, "lat": -8.5793}}, {"id": 7380595, "name": "Maukaro", "state": "", "country": "ID", "coord": {"lon": 121.524979, "lat": -8.61476}}, {"id": 7380619, "name": "Niopanda", "state": "", "country": "ID", "coord": {"lon": 121.904198, "lat": -8.5513}}, {"id": 7380637, "name": "Loboniki", "state": "", "country": "ID", "coord": {"lon": 121.927002, "lat": -8.5131}}, {"id": 7380644, "name": "Sokonaja", "state": "", "country": "ID", "coord": {"lon": 121.952103, "lat": -8.5916}}, {"id": 7380655, "name": "Lokolande", "state": "", "country": "ID", "coord": {"lon": 121.971497, "lat": -8.5261}}, {"id": 7380656, "name": "Kotabaru", "state": "", "country": "ID", "coord": {"lon": 121.991096, "lat": -8.5104}}, {"id": 7381967, "name": "Melati", "state": "", "country": "ID", "coord": {"lon": 118.927498, "lat": -8.5666}}, {"id": 7381977, "name": "Sangia", "state": "", "country": "ID", "coord": {"lon": 118.983597, "lat": -8.5632}}, {"id": 7381978, "name": "Nae", "state": "", "country": "ID", "coord": {"lon": 118.981598, "lat": -8.5646}}, {"id": 7381980, "name": "Raioi", "state": "", "country": "ID", "coord": {"lon": 118.979301, "lat": -8.5632}}, {"id": 7381983, "name": "Bau", "state": "", "country": "ID", "coord": {"lon": 118.971802, "lat": -8.5625}}, {"id": 7381985, "name": "Rasabau", "state": "", "country": "ID", "coord": {"lon": 118.984497, "lat": -8.5662}}, {"id": 7381989, "name": "Kalede", "state": "", "country": "ID", "coord": {"lon": 118.987503, "lat": -8.5714}}, {"id": 7381990, "name": "Naru", "state": "", "country": "ID", "coord": {"lon": 118.992897, "lat": -8.572}}, {"id": 7381996, "name": "Sukamaju", "state": "", "country": "ID", "coord": {"lon": 118.972504, "lat": -8.5736}}, {"id": 7382002, "name": "Wadusari", "state": "", "country": "ID", "coord": {"lon": 118.907997, "lat": -8.5736}}, {"id": 7382007, "name": "Lanta Timur", "state": "", "country": "ID", "coord": {"lon": 118.999397, "lat": -8.618}}, {"id": 7382010, "name": "Balai", "state": "", "country": "ID", "coord": {"lon": 118.982597, "lat": -8.5992}}, {"id": 7383661, "name": "Khun Tan", "state": "", "country": "TH", "coord": {"lon": 100.258583, "lat": 19.83353}}, {"id": 7383662, "name": "Chaloem Phra Kiat", "state": "", "country": "TH", "coord": {"lon": 101.080109, "lat": 19.57881}}, {"id": 7383821, "name": "Manggekompo", "state": "", "country": "ID", "coord": {"lon": 118.617302, "lat": -8.4173}}, {"id": 7383823, "name": "Oo", "state": "", "country": "ID", "coord": {"lon": 118.5979, "lat": -8.4215}}, {"id": 7383830, "name": "Donggo", "state": "", "country": "ID", "coord": {"lon": 118.5952, "lat": -8.4247}}, {"id": 7383832, "name": "Manggenae", "state": "", "country": "ID", "coord": {"lon": 118.617599, "lat": -8.4305}}, {"id": 7383835, "name": "Sangari", "state": "", "country": "ID", "coord": {"lon": 118.579399, "lat": -8.4416}}, {"id": 7383868, "name": "Palama", "state": "", "country": "ID", "coord": {"lon": 118.5373, "lat": -8.4746}}, {"id": 7384060, "name": "Sangdang", "state": "", "country": "CN", "coord": {"lon": 100.012489, "lat": 35.52103}}, {"id": 7384069, "name": "Longcang", "state": "", "country": "CN", "coord": {"lon": 100.070862, "lat": 35.279968}}, {"id": 7384078, "name": "Tangnaihai", "state": "", "country": "CN", "coord": {"lon": 100.131149, "lat": 35.514069}}, {"id": 7384096, "name": "Qushi\u2019an", "state": "", "country": "CN", "coord": {"lon": 100.232597, "lat": 35.325958}}, {"id": 7384107, "name": "Xiuma", "state": "", "country": "CN", "coord": {"lon": 100.332832, "lat": 35.055382}}, {"id": 7384124, "name": "Tanggan", "state": "", "country": "CN", "coord": {"lon": 100.41037, "lat": 35.204182}}, {"id": 7384129, "name": "Taxiu", "state": "", "country": "CN", "coord": {"lon": 100.442871, "lat": 35.60009}}, {"id": 7384142, "name": "Gerengongma", "state": "", "country": "CN", "coord": {"lon": 100.509949, "lat": 35.62606}}, {"id": 7384184, "name": "Mangqu", "state": "", "country": "CN", "coord": {"lon": 100.752373, "lat": 35.585701}}, {"id": 7384198, "name": "Wangjia", "state": "", "country": "CN", "coord": {"lon": 100.951073, "lat": 35.390072}}, {"id": 7384380, "name": "Sangiang", "state": "", "country": "ID", "coord": {"lon": 118.933197, "lat": -8.2969}}, {"id": 7384407, "name": "Hidirasa", "state": "", "country": "ID", "coord": {"lon": 118.921799, "lat": -8.3249}}, {"id": 7384412, "name": "Oitui", "state": "", "country": "ID", "coord": {"lon": 118.978203, "lat": -8.3331}}, {"id": 7384417, "name": "Bantawora", "state": "", "country": "ID", "coord": {"lon": 118.893799, "lat": -8.326}}, {"id": 7384423, "name": "Tawali", "state": "", "country": "ID", "coord": {"lon": 118.914497, "lat": -8.3407}}, {"id": 7384424, "name": "Kara", "state": "", "country": "ID", "coord": {"lon": 118.918701, "lat": -8.3401}}, {"id": 7384453, "name": "Benteng", "state": "", "country": "ID", "coord": {"lon": 118.916702, "lat": -8.362}}, {"id": 7385181, "name": "Masenda Township", "state": "", "country": "ZW", "coord": {"lon": 32.22464, "lat": -17.21319}}, {"id": 7385748, "name": "Tangratte", "state": "", "country": "ID", "coord": {"lon": 119.764297, "lat": -3.0497}}, {"id": 7385892, "name": "Totumbang", "state": "", "country": "ID", "coord": {"lon": 119.921097, "lat": -3.0779}}, {"id": 7387161, "name": "Heka", "state": "", "country": "CN", "coord": {"lon": 100.00013, "lat": 35.893318}}, {"id": 7387615, "name": "Liangshan", "state": "", "country": "CN", "coord": {"lon": 106.942619, "lat": 33.086262}}, {"id": 7389150, "name": "Tawui", "state": "", "country": "ID", "coord": {"lon": 120.072998, "lat": -10.143}}, {"id": 7389226, "name": "Nggongi", "state": "", "country": "ID", "coord": {"lon": 120.233597, "lat": -10.1944}}, {"id": 7389227, "name": "Nggongi Satu", "state": "", "country": "ID", "coord": {"lon": 120.2313, "lat": -10.195}}, {"id": 7389385, "name": "Mburukullu", "state": "", "country": "ID", "coord": {"lon": 120.756897, "lat": -10.0776}}, {"id": 7389418, "name": "Palamadu", "state": "", "country": "ID", "coord": {"lon": 120.753998, "lat": -10.0396}}, {"id": 7389509, "name": "Billa", "state": "", "country": "ID", "coord": {"lon": 120.077599, "lat": -9.9469}}, {"id": 7389510, "name": "Malahar", "state": "", "country": "ID", "coord": {"lon": 120.071899, "lat": -9.9492}}, {"id": 7389521, "name": "Karita", "state": "", "country": "ID", "coord": {"lon": 120.100601, "lat": -9.9305}}, {"id": 7389685, "name": "Laetako", "state": "", "country": "ID", "coord": {"lon": 120.390503, "lat": -9.8316}}, {"id": 7389704, "name": "Laau", "state": "", "country": "ID", "coord": {"lon": 120.434196, "lat": -9.8594}}, {"id": 7389765, "name": "Malabhaga", "state": "", "country": "ID", "coord": {"lon": 121.005699, "lat": -8.884}}, {"id": 7389780, "name": "Dona", "state": "", "country": "ID", "coord": {"lon": 121.025703, "lat": -8.9011}}, {"id": 7389785, "name": "Rutojawa", "state": "", "country": "ID", "coord": {"lon": 121.014198, "lat": -8.9132}}, {"id": 7389832, "name": "Ngedhubasa", "state": "", "country": "ID", "coord": {"lon": 121.059303, "lat": -8.9445}}, {"id": 7389837, "name": "Ngedhusuba", "state": "", "country": "ID", "coord": {"lon": 121.031998, "lat": -8.9542}}, {"id": 7389891, "name": "Heret", "state": "", "country": "ID", "coord": {"lon": 120.629303, "lat": -8.4076}}, {"id": 7389915, "name": "Waenenda", "state": "", "country": "ID", "coord": {"lon": 120.635902, "lat": -8.4539}}, {"id": 7389924, "name": "Rado", "state": "", "country": "ID", "coord": {"lon": 120.670898, "lat": -8.474}}, {"id": 7389939, "name": "Reweng", "state": "", "country": "ID", "coord": {"lon": 120.643898, "lat": -8.4992}}, {"id": 7390236, "name": "Nangahurebukitpermai", "state": "", "country": "ID", "coord": {"lon": 122.158798, "lat": -8.5634}}, {"id": 7390240, "name": "Nangahure", "state": "", "country": "ID", "coord": {"lon": 122.1661, "lat": -8.5697}}, {"id": 7390254, "name": "Urungpigang", "state": "", "country": "ID", "coord": {"lon": 122.187798, "lat": -8.6034}}, {"id": 7390260, "name": "Wolomarang", "state": "", "country": "ID", "coord": {"lon": 122.199402, "lat": -8.604}}, {"id": 7390270, "name": "Kotauneng", "state": "", "country": "ID", "coord": {"lon": 122.216003, "lat": -8.6156}}, {"id": 7390272, "name": "Kabor", "state": "", "country": "ID", "coord": {"lon": 122.214844, "lat": -8.62066}}, {"id": 7391131, "name": "San Martin De Porres", "state": "", "country": "PH", "coord": {"lon": 121.043999, "lat": 14.4961}}, {"id": 7395786, "name": "Daqiao", "state": "", "country": "CN", "coord": {"lon": 120.452606, "lat": 41.523521}}, {"id": 7396450, "name": "Maxiatun", "state": "", "country": "CN", "coord": {"lon": 121.579651, "lat": 39.815048}}, {"id": 7397708, "name": "Menghutun", "state": "", "country": "CN", "coord": {"lon": 123.312859, "lat": 41.466862}}, {"id": 7398691, "name": "Shangma", "state": "", "country": "CN", "coord": {"lon": 124.150047, "lat": 41.781349}}, {"id": 7401036, "name": "Dakangbaozi", "state": "", "country": "CN", "coord": {"lon": 123.310921, "lat": 42.1992}}, {"id": 7401246, "name": "Xishan", "state": "", "country": "CN", "coord": {"lon": 120.349739, "lat": 40.352959}}, {"id": 7402116, "name": "Bahechuan", "state": "", "country": "CN", "coord": {"lon": 124.810463, "lat": 41.02713}}, {"id": 7403425, "name": "Zhuanshantun", "state": "", "country": "CN", "coord": {"lon": 121.67495, "lat": 38.900249}}, {"id": 7403438, "name": "Hainantun", "state": "", "country": "CN", "coord": {"lon": 121.540878, "lat": 38.969551}}, {"id": 7404455, "name": "Xinglong", "state": "", "country": "CN", "coord": {"lon": 123.285492, "lat": 40.305939}}, {"id": 7404519, "name": "Yangjiapu", "state": "", "country": "CN", "coord": {"lon": 123.330971, "lat": 40.192791}}, {"id": 7405307, "name": "Zhoujiashan", "state": "", "country": "CN", "coord": {"lon": 106.727791, "lat": 33.171452}}, {"id": 7405532, "name": "Lijiaping", "state": "", "country": "CN", "coord": {"lon": 102.766083, "lat": 35.981361}}, {"id": 7405558, "name": "Jiuzhongjin", "state": "", "country": "CN", "coord": {"lon": 106.215858, "lat": 33.5247}}, {"id": 7405635, "name": "Xiangcunxiang", "state": "", "country": "CN", "coord": {"lon": 109.586113, "lat": 35.006989}}, {"id": 7405983, "name": "Jenggolo Barat", "state": "", "country": "ID", "coord": {"lon": 112.5448, "lat": -8.1711}}, {"id": 7405984, "name": "Sengguruhkrajan", "state": "", "country": "ID", "coord": {"lon": 112.549698, "lat": -8.1729}}, {"id": 7406010, "name": "Sumuran", "state": "", "country": "ID", "coord": {"lon": 112.554199, "lat": -8.2103}}, {"id": 7406035, "name": "Banjarejokrajan", "state": "", "country": "ID", "coord": {"lon": 112.624802, "lat": -8.1822}}, {"id": 7406041, "name": "Bulupitukrajan", "state": "", "country": "ID", "coord": {"lon": 112.602303, "lat": -8.1331}}, {"id": 7406047, "name": "Kedungkrajan", "state": "", "country": "ID", "coord": {"lon": 112.582703, "lat": -8.1476}}, {"id": 7406052, "name": "Sukosarikrajan", "state": "", "country": "ID", "coord": {"lon": 112.600899, "lat": -8.1606}}, {"id": 7406150, "name": "Sidodadi", "state": "", "country": "ID", "coord": {"lon": 113.6558, "lat": -8.3645}}, {"id": 7406164, "name": "Krajan Suco", "state": "", "country": "ID", "coord": {"lon": 113.749603, "lat": -8.2672}}, {"id": 7406165, "name": "Sumber Tengah", "state": "", "country": "ID", "coord": {"lon": 113.724602, "lat": -8.2596}}, {"id": 7406167, "name": "Peji Satu", "state": "", "country": "ID", "coord": {"lon": 113.706299, "lat": -8.2638}}, {"id": 7406171, "name": "Gayasan Kulon", "state": "", "country": "ID", "coord": {"lon": 113.663399, "lat": -8.2657}}, {"id": 7406190, "name": "Tamansari", "state": "", "country": "ID", "coord": {"lon": 113.723198, "lat": -8.281}}, {"id": 7406213, "name": "Tempurejo", "state": "", "country": "ID", "coord": {"lon": 113.679298, "lat": -8.2994}}, {"id": 7406216, "name": "Sruni", "state": "", "country": "ID", "coord": {"lon": 113.636902, "lat": -8.2983}}, {"id": 7406217, "name": "Andongsari", "state": "", "country": "ID", "coord": {"lon": 113.634003, "lat": -8.3661}}, {"id": 7406224, "name": "Jatisari", "state": "", "country": "ID", "coord": {"lon": 113.635201, "lat": -8.3183}}, {"id": 7406238, "name": "Sumberejo", "state": "", "country": "ID", "coord": {"lon": 113.681602, "lat": -8.3424}}, {"id": 7406240, "name": "Pontang Tengah", "state": "", "country": "ID", "coord": {"lon": 113.637604, "lat": -8.3464}}, {"id": 7406343, "name": "Sumbersalak", "state": "", "country": "ID", "coord": {"lon": 113.883499, "lat": -8.1579}}, {"id": 7406364, "name": "Sumberbulus Dua", "state": "", "country": "ID", "coord": {"lon": 113.897202, "lat": -8.1415}}, {"id": 7406388, "name": "Sidomulyo", "state": "", "country": "ID", "coord": {"lon": 113.927803, "lat": -8.2247}}, {"id": 7406442, "name": "Pengotaan", "state": "", "country": "ID", "coord": {"lon": 113.778999, "lat": -8.0157}}, {"id": 7406452, "name": "Krajan Satu Pekauman", "state": "", "country": "ID", "coord": {"lon": 113.793404, "lat": -8.0013}}, {"id": 7406453, "name": "Sumberkemuning", "state": "", "country": "ID", "coord": {"lon": 113.835098, "lat": -8.0014}}, {"id": 7406459, "name": "Sumberjeruk", "state": "", "country": "ID", "coord": {"lon": 113.871597, "lat": -8.009}}, {"id": 7406470, "name": "Kalianyar Selatan", "state": "", "country": "ID", "coord": {"lon": 113.829102, "lat": -8.0152}}, {"id": 7406473, "name": "Kembangpasar", "state": "", "country": "ID", "coord": {"lon": 113.863701, "lat": -8.0117}}, {"id": 7406481, "name": "Kemirian", "state": "", "country": "ID", "coord": {"lon": 113.834198, "lat": -8.0235}}, {"id": 7406483, "name": "Kidulsawah", "state": "", "country": "ID", "coord": {"lon": 113.826202, "lat": -8.0205}}, {"id": 7406491, "name": "Tanahwulan", "state": "", "country": "ID", "coord": {"lon": 113.759201, "lat": -8.0293}}, {"id": 7406492, "name": "Pujerbaru", "state": "", "country": "ID", "coord": {"lon": 113.7621, "lat": -8.0322}}, {"id": 7406493, "name": "Gambangan", "state": "", "country": "ID", "coord": {"lon": 113.768898, "lat": -8.0322}}, {"id": 7406499, "name": "Sumur", "state": "", "country": "ID", "coord": {"lon": 113.8172, "lat": -8.03}}, {"id": 7406502, "name": "Krajan Pocangan", "state": "", "country": "ID", "coord": {"lon": 113.8526, "lat": -8.0299}}, {"id": 7406506, "name": "Mengenkrajan", "state": "", "country": "ID", "coord": {"lon": 113.851196, "lat": -8.0395}}, {"id": 7406511, "name": "Karangmelok", "state": "", "country": "ID", "coord": {"lon": 113.8293, "lat": -8.0414}}, {"id": 7406519, "name": "Krajan Dua Sumbersari", "state": "", "country": "ID", "coord": {"lon": 113.780602, "lat": -8.0344}}, {"id": 7406520, "name": "Krajan Atas Suger Lor", "state": "", "country": "ID", "coord": {"lon": 113.7789, "lat": -8.0381}}, {"id": 7406529, "name": "Sumberpakem", "state": "", "country": "ID", "coord": {"lon": 113.802597, "lat": -8.0479}}, {"id": 7406534, "name": "Dawuhanmangli", "state": "", "country": "ID", "coord": {"lon": 113.843903, "lat": -8.0513}}, {"id": 7406540, "name": "Plereyan", "state": "", "country": "ID", "coord": {"lon": 113.871498, "lat": -8.0484}}, {"id": 7406542, "name": "Sumberpakem", "state": "", "country": "ID", "coord": {"lon": 113.871399, "lat": -8.0562}}, {"id": 7406543, "name": "Krajan Sumberdanti", "state": "", "country": "ID", "coord": {"lon": 113.862999, "lat": -8.0521}}, {"id": 7406551, "name": "Ragang", "state": "", "country": "ID", "coord": {"lon": 113.829498, "lat": -8.0505}}, {"id": 7406552, "name": "Sukokerto", "state": "", "country": "ID", "coord": {"lon": 113.813698, "lat": -8.0549}}, {"id": 7406557, "name": "Mojogemi", "state": "", "country": "ID", "coord": {"lon": 113.797203, "lat": -8.0578}}, {"id": 7406560, "name": "Krajan Timur Suger Kidul", "state": "", "country": "ID", "coord": {"lon": 113.780899, "lat": -8.0526}}, {"id": 7406563, "name": "Sukojember", "state": "", "country": "ID", "coord": {"lon": 113.769798, "lat": -8.059}}, {"id": 7406584, "name": "Biting", "state": "", "country": "ID", "coord": {"lon": 113.857498, "lat": -8.073}}, {"id": 7406586, "name": "Sumbergayam", "state": "", "country": "ID", "coord": {"lon": 113.830498, "lat": -8.0744}}, {"id": 7406593, "name": "Duklengkong", "state": "", "country": "ID", "coord": {"lon": 113.798599, "lat": -8.0753}}, {"id": 7406600, "name": "Sukowiryo", "state": "", "country": "ID", "coord": {"lon": 113.775398, "lat": -8.0818}}, {"id": 7406606, "name": "Sumberwaru", "state": "", "country": "ID", "coord": {"lon": 113.8246, "lat": -8.0823}}, {"id": 7406612, "name": "Sukosari", "state": "", "country": "ID", "coord": {"lon": 113.841301, "lat": -8.0838}}, {"id": 7406624, "name": "Sukorejo", "state": "", "country": "ID", "coord": {"lon": 113.826897, "lat": -8.0827}}, {"id": 7406626, "name": "Klole", "state": "", "country": "ID", "coord": {"lon": 113.823799, "lat": -8.0839}}, {"id": 7406635, "name": "Krajan Barat Jelbuk", "state": "", "country": "ID", "coord": {"lon": 113.759201, "lat": -8.0873}}, {"id": 7406637, "name": "Krajan Barat Candijati", "state": "", "country": "ID", "coord": {"lon": 113.756203, "lat": -8.0976}}, {"id": 7406640, "name": "Grugul", "state": "", "country": "ID", "coord": {"lon": 113.789902, "lat": -8.1007}}, {"id": 7406657, "name": "Sebanen", "state": "", "country": "ID", "coord": {"lon": 113.822403, "lat": -8.1002}}, {"id": 7406667, "name": "Klanceng", "state": "", "country": "ID", "coord": {"lon": 113.751198, "lat": -8.1023}}, {"id": 7406674, "name": "Krajan Dua Patempuran", "state": "", "country": "ID", "coord": {"lon": 113.799301, "lat": -8.1081}}, {"id": 7406679, "name": "Krajan Sumberanget", "state": "", "country": "ID", "coord": {"lon": 113.843697, "lat": -8.113}}, {"id": 7406680, "name": "Krajan Ledokombo", "state": "", "country": "ID", "coord": {"lon": 113.861397, "lat": -8.12}}, {"id": 7406682, "name": "Sumberketempah", "state": "", "country": "ID", "coord": {"lon": 113.827301, "lat": -8.1168}}, {"id": 7406687, "name": "Karangpeton", "state": "", "country": "ID", "coord": {"lon": 113.781303, "lat": -8.1246}}, {"id": 7406691, "name": "Biting", "state": "", "country": "ID", "coord": {"lon": 113.761703, "lat": -8.1184}}, {"id": 7406748, "name": "Tista", "state": "", "country": "ID", "coord": {"lon": 114.921097, "lat": -8.3525}}, {"id": 7406753, "name": "Asahbadung", "state": "", "country": "ID", "coord": {"lon": 114.905502, "lat": -8.3278}}, {"id": 7406769, "name": "Telaga", "state": "", "country": "ID", "coord": {"lon": 114.9506, "lat": -8.2675}}, {"id": 7406779, "name": "Bongancina Kaja", "state": "", "country": "ID", "coord": {"lon": 114.949402, "lat": -8.3343}}, {"id": 7406786, "name": "Puspajati", "state": "", "country": "ID", "coord": {"lon": 114.992996, "lat": -8.2585}}, {"id": 7406787, "name": "Pelapuan", "state": "", "country": "ID", "coord": {"lon": 114.988998, "lat": -8.2669}}, {"id": 7406792, "name": "Kanginan", "state": "", "country": "ID", "coord": {"lon": 114.981903, "lat": -8.287}}, {"id": 7406796, "name": "Bantiran", "state": "", "country": "ID", "coord": {"lon": 114.990799, "lat": -8.3095}}, {"id": 7406800, "name": "Klau", "state": "", "country": "ID", "coord": {"lon": 114.988197, "lat": -8.336}}, {"id": 7406808, "name": "Munduktemu Kelod", "state": "", "country": "ID", "coord": {"lon": 114.968903, "lat": -8.344}}, {"id": 7406811, "name": "Subuk", "state": "", "country": "ID", "coord": {"lon": 114.976303, "lat": -8.2871}}, {"id": 7406814, "name": "Titab", "state": "", "country": "ID", "coord": {"lon": 114.958603, "lat": -8.2701}}, {"id": 7406815, "name": "Busungbiu", "state": "", "country": "ID", "coord": {"lon": 114.967201, "lat": -8.2565}}, {"id": 7406835, "name": "Kauhan", "state": "", "country": "ID", "coord": {"lon": 114.971802, "lat": -8.2673}}, {"id": 7406838, "name": "Tegalasih", "state": "", "country": "ID", "coord": {"lon": 114.944901, "lat": -8.3156}}, {"id": 7406880, "name": "Banjar Kampungbugis", "state": "", "country": "ID", "coord": {"lon": 115.086502, "lat": -8.1055}}, {"id": 7406881, "name": "Banjar Kampungkajanan", "state": "", "country": "ID", "coord": {"lon": 115.091797, "lat": -8.1075}}, {"id": 7406882, "name": "Banjar Kaliuntu Satu", "state": "", "country": "ID", "coord": {"lon": 115.082001, "lat": -8.1118}}, {"id": 7406884, "name": "Banjar Kampunganyar", "state": "", "country": "ID", "coord": {"lon": 115.086197, "lat": -8.1091}}, {"id": 7406894, "name": "Banjar Tambaksari", "state": "", "country": "ID", "coord": {"lon": 115.094498, "lat": -8.102}}, {"id": 7406895, "name": "Banjar Barunasari", "state": "", "country": "ID", "coord": {"lon": 115.093597, "lat": -8.1041}}, {"id": 7406901, "name": "Banjar Bali", "state": "", "country": "ID", "coord": {"lon": 115.092796, "lat": -8.1095}}, {"id": 7406903, "name": "Banjar Banyuning Barat", "state": "", "country": "ID", "coord": {"lon": 115.102097, "lat": -8.1145}}, {"id": 7406906, "name": "Banjar Peguyangan", "state": "", "country": "ID", "coord": {"lon": 115.093102, "lat": -8.1188}}, {"id": 7406907, "name": "Banjar Delodpeken", "state": "", "country": "ID", "coord": {"lon": 115.095497, "lat": -8.1208}}, {"id": 7406915, "name": "Banjar Sidayu", "state": "", "country": "ID", "coord": {"lon": 115.120003, "lat": -8.1027}}, {"id": 7406942, "name": "Biashizang", "state": "", "country": "CN", "coord": {"lon": 102.940292, "lat": 35.600578}}, {"id": 7407361, "name": "Shiyuan", "state": "", "country": "CN", "coord": {"lon": 102.807259, "lat": 35.75275}}, {"id": 7407364, "name": "Dongguan", "state": "", "country": "CN", "coord": {"lon": 106.1064, "lat": 33.779919}}, {"id": 7407488, "name": "Curahkalak Tengah", "state": "", "country": "ID", "coord": {"lon": 114.182899, "lat": -7.7516}}, {"id": 7407497, "name": "Trigonco Tengah", "state": "", "country": "ID", "coord": {"lon": 114.217796, "lat": -7.7513}}, {"id": 7407498, "name": "Perante Utara", "state": "", "country": "ID", "coord": {"lon": 114.216698, "lat": -7.7549}}, {"id": 7407499, "name": "Perante Tengah", "state": "", "country": "ID", "coord": {"lon": 114.219597, "lat": -7.7588}}, {"id": 7407507, "name": "Randuagung", "state": "", "country": "ID", "coord": {"lon": 114.236099, "lat": -7.766}}, {"id": 7407531, "name": "Bayeman", "state": "", "country": "ID", "coord": {"lon": 114.127602, "lat": -7.7958}}, {"id": 7407683, "name": "Yuguan", "state": "", "country": "CN", "coord": {"lon": 106.16716, "lat": 33.635391}}, {"id": 7407690, "name": "Guangjin", "state": "", "country": "CN", "coord": {"lon": 106.491478, "lat": 33.656582}}, {"id": 7407704, "name": "Yunping", "state": "", "country": "CN", "coord": {"lon": 106.41404, "lat": 33.698471}}, {"id": 7407706, "name": "Jialing", "state": "", "country": "CN", "coord": {"lon": 106.196289, "lat": 33.699268}}, {"id": 7407743, "name": "Shuiyang", "state": "", "country": "CN", "coord": {"lon": 106.102783, "lat": 33.74844}}, {"id": 7407750, "name": "Taishan", "state": "", "country": "CN", "coord": {"lon": 106.457611, "lat": 33.772968}}, {"id": 7407766, "name": "Xianlong", "state": "", "country": "CN", "coord": {"lon": 106.244759, "lat": 33.814201}}, {"id": 7407776, "name": "Yuchi", "state": "", "country": "CN", "coord": {"lon": 106.27166, "lat": 33.83427}}, {"id": 7407787, "name": "Xinghua", "state": "", "country": "CN", "coord": {"lon": 106.361763, "lat": 33.861511}}, {"id": 7407799, "name": "Liulin", "state": "", "country": "CN", "coord": {"lon": 106.169601, "lat": 33.874371}}, {"id": 7407813, "name": "Jindong", "state": "", "country": "CN", "coord": {"lon": 106.308701, "lat": 33.90604}}, {"id": 7407834, "name": "Zuojia", "state": "", "country": "CN", "coord": {"lon": 106.405251, "lat": 33.967621}}, {"id": 7407867, "name": "Taiyang", "state": "", "country": "CN", "coord": {"lon": 106.294891, "lat": 34.078819}}, {"id": 7407925, "name": "Gaojialing", "state": "", "country": "CN", "coord": {"lon": 107.033043, "lat": 32.934582}}, {"id": 7407926, "name": "Qingshu", "state": "", "country": "CN", "coord": {"lon": 106.903236, "lat": 32.936291}}, {"id": 7407964, "name": "Qishuba", "state": "", "country": "CN", "coord": {"lon": 106.59285, "lat": 32.957951}}, {"id": 7408027, "name": "Xieshui", "state": "", "country": "CN", "coord": {"lon": 106.909317, "lat": 33.004299}}, {"id": 7408043, "name": "Nanping", "state": "", "country": "CN", "coord": {"lon": 106.390228, "lat": 33.014992}}, {"id": 7408054, "name": "Gaotai", "state": "", "country": "CN", "coord": {"lon": 106.854843, "lat": 33.018909}}, {"id": 7408068, "name": "Renshui", "state": "", "country": "CN", "coord": {"lon": 106.812141, "lat": 33.036041}}, {"id": 7408070, "name": "Hujiaying", "state": "", "country": "CN", "coord": {"lon": 107.024071, "lat": 33.023911}}, {"id": 7408081, "name": "Yangchun", "state": "", "country": "CN", "coord": {"lon": 106.901482, "lat": 33.033241}}, {"id": 7408089, "name": "Guotan", "state": "", "country": "CN", "coord": {"lon": 106.934471, "lat": 33.039291}}, {"id": 7408177, "name": "Qili", "state": "", "country": "CN", "coord": {"lon": 107.056229, "lat": 33.079262}}, {"id": 7408185, "name": "Zhenchuan", "state": "", "country": "CN", "coord": {"lon": 106.725304, "lat": 33.087318}}, {"id": 7408228, "name": "Donghuanggou", "state": "", "country": "CN", "coord": {"lon": 106.227989, "lat": 33.10416}}, {"id": 7408248, "name": "Gongjiahe", "state": "", "country": "CN", "coord": {"lon": 106.184914, "lat": 33.11338}}, {"id": 7408260, "name": "Zengjiahe", "state": "", "country": "CN", "coord": {"lon": 106.126503, "lat": 33.12096}}, {"id": 7408266, "name": "Laojun", "state": "", "country": "CN", "coord": {"lon": 107.043602, "lat": 33.12199}}, {"id": 7408268, "name": "Longjiang", "state": "", "country": "CN", "coord": {"lon": 106.959297, "lat": 33.122959}}, {"id": 7408284, "name": "Tuguanpu", "state": "", "country": "CN", "coord": {"lon": 106.550049, "lat": 33.130371}}, {"id": 7408299, "name": "Dingjunshan", "state": "", "country": "CN", "coord": {"lon": 106.659088, "lat": 33.139309}}, {"id": 7408316, "name": "Jinquan", "state": "", "country": "CN", "coord": {"lon": 106.844437, "lat": 33.146069}}, {"id": 7408329, "name": "Wuhou", "state": "", "country": "CN", "coord": {"lon": 106.614632, "lat": 33.150291}}, {"id": 7408353, "name": "Xinjiezi", "state": "", "country": "CN", "coord": {"lon": 106.825058, "lat": 33.160919}}, {"id": 7408370, "name": "Tonggousi", "state": "", "country": "CN", "coord": {"lon": 106.748688, "lat": 33.170979}}, {"id": 7408472, "name": "Heiheba", "state": "", "country": "CN", "coord": {"lon": 106.443916, "lat": 33.21365}}, {"id": 7408492, "name": "Xiaobianhe", "state": "", "country": "CN", "coord": {"lon": 106.489868, "lat": 33.232552}}, {"id": 7408515, "name": "Erdaohe", "state": "", "country": "CN", "coord": {"lon": 106.830261, "lat": 33.251411}}, {"id": 7408556, "name": "Wafanggou", "state": "", "country": "CN", "coord": {"lon": 106.728088, "lat": 33.282902}}, {"id": 7408812, "name": "Wuguanyi", "state": "", "country": "CN", "coord": {"lon": 106.978104, "lat": 33.551731}}, {"id": 7408909, "name": "Liuhou", "state": "", "country": "CN", "coord": {"lon": 106.849892, "lat": 33.692108}}, {"id": 7409502, "name": "Tanjungpecinan Utara", "state": "", "country": "ID", "coord": {"lon": 114.033699, "lat": -7.6329}}, {"id": 7409509, "name": "Glugur Tengah", "state": "", "country": "ID", "coord": {"lon": 114.046402, "lat": -7.6491}}, {"id": 7409521, "name": "Tanjungsari Barat", "state": "", "country": "ID", "coord": {"lon": 114.049202, "lat": -7.6612}}, {"id": 7409532, "name": "Cempaka", "state": "", "country": "ID", "coord": {"lon": 114.021202, "lat": -7.6558}}, {"id": 7409551, "name": "Tokelan Utara", "state": "", "country": "ID", "coord": {"lon": 114.045799, "lat": -7.6841}}, {"id": 7409555, "name": "Krajan Satu Panji Lor", "state": "", "country": "ID", "coord": {"lon": 114.041603, "lat": -7.696}}, {"id": 7409601, "name": "Aengceleng", "state": "", "country": "ID", "coord": {"lon": 114.074097, "lat": -7.7177}}, {"id": 7409616, "name": "Mimbaan Timur", "state": "", "country": "ID", "coord": {"lon": 114.029602, "lat": -7.699}}, {"id": 7409633, "name": "Kotakan Selatan", "state": "", "country": "ID", "coord": {"lon": 114.009804, "lat": -7.7447}}, {"id": 7409635, "name": "Sliwungkrajan", "state": "", "country": "ID", "coord": {"lon": 114.0084, "lat": -7.7486}}, {"id": 7409792, "name": "Sukadana Selatan", "state": "", "country": "ID", "coord": {"lon": 116.4076, "lat": -8.6281}}, {"id": 7409810, "name": "Sikur", "state": "", "country": "ID", "coord": {"lon": 116.446297, "lat": -8.6331}}, {"id": 7409812, "name": "Paokmotong Utara", "state": "", "country": "ID", "coord": {"lon": 116.458504, "lat": -8.626}}, {"id": 7409843, "name": "Mejelo Timur", "state": "", "country": "ID", "coord": {"lon": 116.389099, "lat": -8.6378}}, {"id": 7409854, "name": "Terara Utara", "state": "", "country": "ID", "coord": {"lon": 116.4133, "lat": -8.6394}}, {"id": 7409858, "name": "Montongbaan", "state": "", "country": "ID", "coord": {"lon": 116.4282, "lat": -8.6365}}, {"id": 7409879, "name": "Nyiurtebel", "state": "", "country": "ID", "coord": {"lon": 116.498703, "lat": -8.6361}}, {"id": 7409887, "name": "Laukrurung", "state": "", "country": "ID", "coord": {"lon": 116.475998, "lat": -8.6393}}, {"id": 7409911, "name": "Terara", "state": "", "country": "ID", "coord": {"lon": 116.411003, "lat": -8.6409}}, {"id": 7409942, "name": "Suradi Selatan", "state": "", "country": "ID", "coord": {"lon": 116.4161, "lat": -8.6533}}, {"id": 7409970, "name": "Setanggor", "state": "", "country": "ID", "coord": {"lon": 116.481201, "lat": -8.6537}}, {"id": 7409978, "name": "Pancoran", "state": "", "country": "ID", "coord": {"lon": 116.487701, "lat": -8.6636}}, {"id": 7409984, "name": "Kabar Utara", "state": "", "country": "ID", "coord": {"lon": 116.4758, "lat": -8.6611}}, {"id": 7409994, "name": "Lintek", "state": "", "country": "ID", "coord": {"lon": 116.456398, "lat": -8.6634}}, {"id": 7410050, "name": "Beson", "state": "", "country": "ID", "coord": {"lon": 116.376198, "lat": -8.6739}}, {"id": 7410109, "name": "Dalam Daya", "state": "", "country": "ID", "coord": {"lon": 116.470497, "lat": -8.6801}}, {"id": 7410189, "name": "Suwangi Utara", "state": "", "country": "ID", "coord": {"lon": 116.444199, "lat": -8.6933}}, {"id": 7410212, "name": "Montongtangi Timuk", "state": "", "country": "ID", "coord": {"lon": 116.494698, "lat": -8.6869}}, {"id": 7410248, "name": "Janapria", "state": "", "country": "ID", "coord": {"lon": 116.401497, "lat": -8.6952}}, {"id": 7410289, "name": "Gunungrajak", "state": "", "country": "ID", "coord": {"lon": 116.463203, "lat": -8.7067}}, {"id": 7410332, "name": "Sukarara Utara", "state": "", "country": "ID", "coord": {"lon": 116.442703, "lat": -8.7097}}, {"id": 7410342, "name": "Jembe Timur", "state": "", "country": "ID", "coord": {"lon": 116.411301, "lat": -8.715}}, {"id": 7410347, "name": "Loangmaka", "state": "", "country": "ID", "coord": {"lon": 116.393097, "lat": -8.7142}}, {"id": 7410398, "name": "Bungtiang Barat", "state": "", "country": "ID", "coord": {"lon": 116.484299, "lat": -8.7307}}, {"id": 7410409, "name": "Montongtebolak", "state": "", "country": "ID", "coord": {"lon": 116.464401, "lat": -8.7261}}, {"id": 7410421, "name": "Lekor Barat", "state": "", "country": "ID", "coord": {"lon": 116.434898, "lat": -8.7304}}, {"id": 7410441, "name": "Beleka Satu", "state": "", "country": "ID", "coord": {"lon": 116.403297, "lat": -8.7423}}, {"id": 7410698, "name": "Huangbao", "state": "", "country": "CN", "coord": {"lon": 109.02494, "lat": 35.003769}}, {"id": 7410822, "name": "Tibulakasasak", "state": "", "country": "ID", "coord": {"lon": 115.630898, "lat": -8.4234}}, {"id": 7410831, "name": "Bungkulan", "state": "", "country": "ID", "coord": {"lon": 115.642403, "lat": -8.4457}}, {"id": 7410878, "name": "Akarakar", "state": "", "country": "ID", "coord": {"lon": 116.342796, "lat": -8.2214}}, {"id": 7411163, "name": "Pisangkemeng", "state": "", "country": "ID", "coord": {"lon": 117.777397, "lat": -8.8025}}, {"id": 7411268, "name": "Boal Atas", "state": "", "country": "ID", "coord": {"lon": 117.962601, "lat": -8.7914}}, {"id": 7411423, "name": "Kawangohari", "state": "", "country": "ID", "coord": {"lon": 119.002899, "lat": -9.5411}}, {"id": 7411459, "name": "Maliiha", "state": "", "country": "ID", "coord": {"lon": 119.019501, "lat": -9.5528}}, {"id": 7411491, "name": "Dinjo", "state": "", "country": "ID", "coord": {"lon": 119.013802, "lat": -9.5942}}, {"id": 7411500, "name": "Leteloko", "state": "", "country": "ID", "coord": {"lon": 119.018799, "lat": -9.6047}}, {"id": 7411507, "name": "Kori", "state": "", "country": "ID", "coord": {"lon": 119.034897, "lat": -9.5081}}, {"id": 7411516, "name": "Hombakaripit", "state": "", "country": "ID", "coord": {"lon": 119.0326, "lat": -9.5214}}, {"id": 7411524, "name": "Hohawungo", "state": "", "country": "ID", "coord": {"lon": 119.0242, "lat": -9.532}}, {"id": 7411610, "name": "Lokorota", "state": "", "country": "ID", "coord": {"lon": 119.065498, "lat": -9.5873}}, {"id": 7411632, "name": "Waiholo", "state": "", "country": "ID", "coord": {"lon": 119.084396, "lat": -9.5179}}, {"id": 7411677, "name": "Malulla", "state": "", "country": "ID", "coord": {"lon": 119.250702, "lat": -9.6266}}, {"id": 7411696, "name": "Ngaduloda", "state": "", "country": "ID", "coord": {"lon": 119.369797, "lat": -9.6917}}, {"id": 7411706, "name": "Bogorawatu", "state": "", "country": "ID", "coord": {"lon": 119.327301, "lat": -9.7491}}, {"id": 7411716, "name": "Hodi", "state": "", "country": "ID", "coord": {"lon": 119.254601, "lat": -9.7134}}, {"id": 7411770, "name": "Kapakabisa", "state": "", "country": "ID", "coord": {"lon": 119.299797, "lat": -9.7219}}, {"id": 7411806, "name": "Welibo", "state": "", "country": "ID", "coord": {"lon": 119.3396, "lat": -9.7259}}, {"id": 7411842, "name": "Wengaingo", "state": "", "country": "ID", "coord": {"lon": 119.345596, "lat": -9.7327}}, {"id": 7411863, "name": "Barakabita", "state": "", "country": "ID", "coord": {"lon": 119.360703, "lat": -9.7229}}, {"id": 7411864, "name": "Kabukarudi", "state": "", "country": "ID", "coord": {"lon": 119.359596, "lat": -9.7246}}, {"id": 7411932, "name": "Matumadua", "state": "", "country": "ID", "coord": {"lon": 119.753708, "lat": -9.38948}}, {"id": 7412015, "name": "Kambatatamakawu", "state": "", "country": "ID", "coord": {"lon": 119.893883, "lat": -9.42137}}, {"id": 7412369, "name": "Allu", "state": "", "country": "ID", "coord": {"lon": 118.991203, "lat": -3.4247}}, {"id": 7412370, "name": "Petoosang", "state": "", "country": "ID", "coord": {"lon": 118.990601, "lat": -3.4277}}, {"id": 7413208, "name": "Huangnaihai", "state": "", "country": "CN", "coord": {"lon": 102.005463, "lat": 35.6157}}, {"id": 7413215, "name": "Nianduhu", "state": "", "country": "CN", "coord": {"lon": 102.021263, "lat": 35.533279}}, {"id": 7413219, "name": "Dangshun", "state": "", "country": "CN", "coord": {"lon": 102.02961, "lat": 35.84708}}, {"id": 7413225, "name": "Angla", "state": "", "country": "CN", "coord": {"lon": 102.040321, "lat": 35.888439}}, {"id": 7413232, "name": "Jiawu", "state": "", "country": "CN", "coord": {"lon": 102.04776, "lat": 35.49181}}, {"id": 7413305, "name": "Shuangpengxi", "state": "", "country": "CN", "coord": {"lon": 102.198914, "lat": 35.56068}}, {"id": 7413322, "name": "Galengkou", "state": "", "country": "CN", "coord": {"lon": 102.22673, "lat": 35.699001}}, {"id": 7413332, "name": "Duowa", "state": "", "country": "CN", "coord": {"lon": 102.249168, "lat": 35.196362}}, {"id": 7413340, "name": "Yaga", "state": "", "country": "CN", "coord": {"lon": 102.276543, "lat": 35.76556}}, {"id": 7413342, "name": "Tawa", "state": "", "country": "CN", "coord": {"lon": 102.281212, "lat": 35.494469}}, {"id": 7413345, "name": "Xiazhuang", "state": "", "country": "CN", "coord": {"lon": 102.295624, "lat": 35.851501}}, {"id": 7413402, "name": "Sanlanbahai", "state": "", "country": "CN", "coord": {"lon": 102.433228, "lat": 35.855438}}, {"id": 7413462, "name": "Baijiaji", "state": "", "country": "CN", "coord": {"lon": 102.637718, "lat": 35.970291}}, {"id": 7413464, "name": "Mengdadazhuang", "state": "", "country": "CN", "coord": {"lon": 102.639503, "lat": 35.833389}}, {"id": 7413509, "name": "Wangjia", "state": "", "country": "CN", "coord": {"lon": 102.81179, "lat": 36.008362}}, {"id": 7413516, "name": "Xinjia", "state": "", "country": "CN", "coord": {"lon": 102.839546, "lat": 35.876999}}, {"id": 7413597, "name": "Kajiadao", "state": "", "country": "CN", "coord": {"lon": 102.993507, "lat": 35.11718}}, {"id": 7413614, "name": "Tangga\u2019an", "state": "", "country": "CN", "coord": {"lon": 102.850273, "lat": 35.143162}}, {"id": 7413654, "name": "Jiujia", "state": "", "country": "CN", "coord": {"lon": 102.534607, "lat": 35.190109}}, {"id": 7413703, "name": "Madang", "state": "", "country": "CN", "coord": {"lon": 102.7854, "lat": 35.324421}}, {"id": 7413715, "name": "Qu\u2019ao", "state": "", "country": "CN", "coord": {"lon": 102.878448, "lat": 35.366489}}, {"id": 7413744, "name": "Maji", "state": "", "country": "CN", "coord": {"lon": 102.989433, "lat": 35.447338}}, {"id": 7413747, "name": "Monigou", "state": "", "country": "CN", "coord": {"lon": 102.949707, "lat": 35.467281}}, {"id": 7413758, "name": "Manisi", "state": "", "country": "CN", "coord": {"lon": 102.926979, "lat": 35.510349}}, {"id": 7413762, "name": "Zhangzigou", "state": "", "country": "CN", "coord": {"lon": 102.969658, "lat": 35.524071}}, {"id": 7413775, "name": "Yingtan", "state": "", "country": "CN", "coord": {"lon": 102.971184, "lat": 35.573471}}, {"id": 7413777, "name": "Xiaoguan", "state": "", "country": "CN", "coord": {"lon": 102.891708, "lat": 35.584389}}, {"id": 7413782, "name": "Zhongzuiling", "state": "", "country": "CN", "coord": {"lon": 102.92672, "lat": 35.630581}}, {"id": 7413791, "name": "Juiji", "state": "", "country": "CN", "coord": {"lon": 102.931221, "lat": 35.64999}}, {"id": 7413792, "name": "Guogan", "state": "", "country": "CN", "coord": {"lon": 102.992104, "lat": 35.652069}}, {"id": 7413795, "name": "Xuhujia", "state": "", "country": "CN", "coord": {"lon": 102.951729, "lat": 35.664421}}, {"id": 7413800, "name": "Zhaizigou", "state": "", "country": "CN", "coord": {"lon": 102.889191, "lat": 35.67881}}, {"id": 7413807, "name": "Hulinjia", "state": "", "country": "CN", "coord": {"lon": 102.937782, "lat": 35.725422}}, {"id": 7413817, "name": "Liugou", "state": "", "country": "CN", "coord": {"lon": 102.853432, "lat": 35.743992}}, {"id": 7413823, "name": "Guanjiachuan", "state": "", "country": "CN", "coord": {"lon": 102.932907, "lat": 35.764858}}, {"id": 7413827, "name": "Liuji", "state": "", "country": "CN", "coord": {"lon": 102.789703, "lat": 35.770538}}, {"id": 7413851, "name": "Sibaozi", "state": "", "country": "CN", "coord": {"lon": 102.770462, "lat": 35.839291}}, {"id": 7413861, "name": "Xiaoling", "state": "", "country": "CN", "coord": {"lon": 102.995621, "lat": 35.89484}}, {"id": 7414222, "name": "Narang", "state": "", "country": "ID", "coord": {"lon": 120.369003, "lat": -8.7767}}, {"id": 7414243, "name": "Benteng", "state": "", "country": "ID", "coord": {"lon": 120.369499, "lat": -8.8165}}, {"id": 7414249, "name": "Keka", "state": "", "country": "ID", "coord": {"lon": 120.3498, "lat": -8.8204}}, {"id": 7414252, "name": "Wongka", "state": "", "country": "ID", "coord": {"lon": 120.302696, "lat": -8.816}}, {"id": 7414357, "name": "Paka", "state": "", "country": "ID", "coord": {"lon": 120.418999, "lat": -8.7794}}, {"id": 7414370, "name": "Watuweri", "state": "", "country": "ID", "coord": {"lon": 120.470596, "lat": -8.7843}}, {"id": 7414374, "name": "Woa", "state": "", "country": "ID", "coord": {"lon": 120.499603, "lat": -8.7975}}, {"id": 7414387, "name": "Lamba", "state": "", "country": "ID", "coord": {"lon": 120.434502, "lat": -8.8058}}, {"id": 7414399, "name": "Iteng", "state": "", "country": "ID", "coord": {"lon": 120.421898, "lat": -8.812}}, {"id": 7414450, "name": "Wunat", "state": "", "country": "ID", "coord": {"lon": 120.221397, "lat": -8.5262}}, {"id": 7414453, "name": "Noa", "state": "", "country": "ID", "coord": {"lon": 120.200302, "lat": -8.5305}}, {"id": 7414465, "name": "Handeng", "state": "", "country": "ID", "coord": {"lon": 120.135498, "lat": -8.5297}}, {"id": 7414475, "name": "Waepitak", "state": "", "country": "ID", "coord": {"lon": 120.249901, "lat": -8.55}}, {"id": 7414495, "name": "Semang", "state": "", "country": "ID", "coord": {"lon": 120.218903, "lat": -8.5783}}, {"id": 7414497, "name": "Jeong", "state": "", "country": "ID", "coord": {"lon": 120.230202, "lat": -8.5852}}, {"id": 7414774, "name": "Wasogolo", "state": "", "country": "ID", "coord": {"lon": 120.4599, "lat": -8.6268}}, {"id": 7414846, "name": "Pora", "state": "", "country": "ID", "coord": {"lon": 120.383797, "lat": -8.7089}}, {"id": 7414847, "name": "Pongkor", "state": "", "country": "ID", "coord": {"lon": 120.387703, "lat": -8.7136}}, {"id": 7414875, "name": "Ponggeok", "state": "", "country": "ID", "coord": {"lon": 120.414597, "lat": -8.7229}}, {"id": 7414947, "name": "Teber", "state": "", "country": "ID", "coord": {"lon": 120.594101, "lat": -8.6562}}, {"id": 7414961, "name": "Bombu", "state": "", "country": "ID", "coord": {"lon": 120.516197, "lat": -8.6909}}, {"id": 7414967, "name": "Ntaur Satu", "state": "", "country": "ID", "coord": {"lon": 120.529404, "lat": -8.691}}, {"id": 7414979, "name": "Rentung", "state": "", "country": "ID", "coord": {"lon": 120.563698, "lat": -8.6746}}, {"id": 7414991, "name": "Tado", "state": "", "country": "ID", "coord": {"lon": 120.595596, "lat": -8.7016}}, {"id": 7415014, "name": "Kawit", "state": "", "country": "ID", "coord": {"lon": 120.552002, "lat": -8.7215}}, {"id": 7415026, "name": "Kaca", "state": "", "country": "ID", "coord": {"lon": 120.572098, "lat": -8.7361}}, {"id": 7415043, "name": "Pesek", "state": "", "country": "ID", "coord": {"lon": 120.617699, "lat": -8.7056}}, {"id": 7415125, "name": "Jawakisa", "state": "", "country": "ID", "coord": {"lon": 121.223801, "lat": -8.6604}}, {"id": 7415138, "name": "Gero", "state": "", "country": "ID", "coord": {"lon": 121.188103, "lat": -8.7039}}, {"id": 7415159, "name": "Watugase", "state": "", "country": "ID", "coord": {"lon": 121.1856, "lat": -8.731}}, {"id": 7418156, "name": "Yeovil", "state": "", "country": "ZW", "coord": {"lon": 32.668968, "lat": -18.967569}}, {"id": 7419775, "name": "Sneuron", "state": "", "country": "PK", "coord": {"lon": 75.617081, "lat": 35.296181}}, {"id": 7420462, "name": "Ban Pong Luang", "state": "", "country": "TH", "coord": {"lon": 99.871498, "lat": 19.95775}}, {"id": 7421899, "name": "Mae Lao", "state": "", "country": "TH", "coord": {"lon": 99.699669, "lat": 19.79003}}, {"id": 7423527, "name": "Sonikot", "state": "", "country": "PK", "coord": {"lon": 74.329803, "lat": 35.9193}}, {"id": 7423730, "name": "Eidgah", "state": "", "country": "PK", "coord": {"lon": 74.856102, "lat": 35.3447}}, {"id": 7426525, "name": "Funga", "state": "", "country": "ID", "coord": {"lon": 121.987801, "lat": -8.6687}}, {"id": 7426550, "name": "Ratenggoji", "state": "", "country": "ID", "coord": {"lon": 121.916397, "lat": -8.6851}}, {"id": 7426585, "name": "Wolofeo", "state": "", "country": "ID", "coord": {"lon": 121.9897, "lat": -8.7215}}, {"id": 7426618, "name": "Wolobela", "state": "", "country": "ID", "coord": {"lon": 121.9543, "lat": -8.7375}}, {"id": 7426632, "name": "Woloara", "state": "", "country": "ID", "coord": {"lon": 121.967697, "lat": -8.7468}}, {"id": 7426714, "name": "Woloau", "state": "", "country": "ID", "coord": {"lon": 122.015099, "lat": -8.6401}}, {"id": 7426738, "name": "Detuleda", "state": "", "country": "ID", "coord": {"lon": 122.043297, "lat": -8.6542}}, {"id": 7426744, "name": "Nirangkliung", "state": "", "country": "ID", "coord": {"lon": 122.094002, "lat": -8.655}}, {"id": 7426761, "name": "Retenggoma", "state": "", "country": "ID", "coord": {"lon": 122.068001, "lat": -8.6662}}, {"id": 7426773, "name": "Feondari", "state": "", "country": "ID", "coord": {"lon": 122.0326, "lat": -8.6678}}, {"id": 7426809, "name": "Tilang", "state": "", "country": "ID", "coord": {"lon": 122.122803, "lat": -8.7006}}, {"id": 7426831, "name": "Riipua", "state": "", "country": "ID", "coord": {"lon": 122.091904, "lat": -8.7113}}, {"id": 7426847, "name": "Detupia", "state": "", "country": "ID", "coord": {"lon": 122.018799, "lat": -8.729}}, {"id": 7426848, "name": "Masebewa", "state": "", "country": "ID", "coord": {"lon": 122.022301, "lat": -8.7273}}, {"id": 7427390, "name": "Dasu", "state": "", "country": "PK", "coord": {"lon": 73.290604, "lat": 35.291691}}, {"id": 7427939, "name": "Barishal", "state": "", "country": "PK", "coord": {"lon": 74.678596, "lat": 36.316299}}, {"id": 7428592, "name": "Qianyang Chengguanzhen", "state": "", "country": "CN", "coord": {"lon": 107.130188, "lat": 34.642078}}, {"id": 7429752, "name": "Riit", "state": "", "country": "ID", "coord": {"lon": 122.127403, "lat": -8.6553}}, {"id": 7429756, "name": "Madawat", "state": "", "country": "ID", "coord": {"lon": 122.2117, "lat": -8.6274}}, {"id": 7429758, "name": "Beru", "state": "", "country": "ID", "coord": {"lon": 122.222198, "lat": -8.6282}}, {"id": 7429775, "name": "Habiwetak", "state": "", "country": "ID", "coord": {"lon": 122.244698, "lat": -8.6547}}, {"id": 7429781, "name": "Brai", "state": "", "country": "ID", "coord": {"lon": 122.226303, "lat": -8.659}}, {"id": 7429783, "name": "Nitakloang", "state": "", "country": "ID", "coord": {"lon": 122.163597, "lat": -8.6698}}, {"id": 7429789, "name": "Tebuk", "state": "", "country": "ID", "coord": {"lon": 122.170799, "lat": -8.6835}}, {"id": 7429796, "name": "Bloro", "state": "", "country": "ID", "coord": {"lon": 122.1595, "lat": -8.6837}}, {"id": 7429799, "name": "Kotingnatagete", "state": "", "country": "ID", "coord": {"lon": 122.193001, "lat": -8.6816}}, {"id": 7429801, "name": "Kojagete", "state": "", "country": "ID", "coord": {"lon": 122.187698, "lat": -8.6899}}, {"id": 7429802, "name": "Diller", "state": "", "country": "ID", "coord": {"lon": 122.190498, "lat": -8.6942}}, {"id": 7429805, "name": "Gehaklau", "state": "", "country": "ID", "coord": {"lon": 122.198097, "lat": -8.6951}}, {"id": 7429819, "name": "Detung", "state": "", "country": "ID", "coord": {"lon": 122.215698, "lat": -8.664}}, {"id": 7429821, "name": "Tadabliro", "state": "", "country": "ID", "coord": {"lon": 122.216202, "lat": -8.6847}}, {"id": 7429827, "name": "Habingkloang", "state": "", "country": "ID", "coord": {"lon": 122.247002, "lat": -8.6981}}, {"id": 7429834, "name": "Hokor", "state": "", "country": "ID", "coord": {"lon": 122.244102, "lat": -8.7348}}, {"id": 7429841, "name": "Puho", "state": "", "country": "ID", "coord": {"lon": 122.193199, "lat": -8.7136}}, {"id": 7429847, "name": "Onget", "state": "", "country": "ID", "coord": {"lon": 122.160004, "lat": -8.7287}}, {"id": 7429870, "name": "Watubura", "state": "", "country": "ID", "coord": {"lon": 122.1353, "lat": -8.718}}, {"id": 7429873, "name": "Hepang", "state": "", "country": "ID", "coord": {"lon": 122.1502, "lat": -8.7105}}, {"id": 7430962, "name": "Bahr en Nil", "state": "", "country": "SS", "coord": {"lon": 27.1033, "lat": 8.46219}}, {"id": 7432952, "name": "Yangyong", "state": "", "country": "CN", "coord": {"lon": 103.471977, "lat": 34.645901}}, {"id": 7433819, "name": "Nekathkumbura", "state": "", "country": "LK", "coord": {"lon": 80.721298, "lat": 7.3029}}, {"id": 7433980, "name": "Novaya Dzheguta", "state": "", "country": "RU", "coord": {"lon": 42.0415, "lat": 44.005001}}, {"id": 7437850, "name": "Huayuan", "state": "", "country": "CN", "coord": {"lon": 103.767662, "lat": 33.966068}}, {"id": 7437872, "name": "Topla", "state": "", "country": "RU", "coord": {"lon": 47.898701, "lat": 46.915901}}, {"id": 7439418, "name": "Molod\u00ebzhnyy", "state": "", "country": "RU", "coord": {"lon": 40.2999, "lat": 48.461102}}, {"id": 7439595, "name": "Fatualam", "state": "", "country": "ID", "coord": {"lon": 124.545403, "lat": -9.501}}, {"id": 7439603, "name": "Leof", "state": "", "country": "ID", "coord": {"lon": 124.6241, "lat": -9.5773}}, {"id": 7439608, "name": "Oenak", "state": "", "country": "ID", "coord": {"lon": 124.5019, "lat": -9.5614}}, {"id": 7439611, "name": "Naiola", "state": "", "country": "ID", "coord": {"lon": 124.505501, "lat": -9.548}}, {"id": 7439627, "name": "Nibaaf", "state": "", "country": "ID", "coord": {"lon": 124.527802, "lat": -9.5859}}, {"id": 7439665, "name": "Baanfaun", "state": "", "country": "ID", "coord": {"lon": 124.585899, "lat": -9.586}}, {"id": 7439676, "name": "Neob", "state": "", "country": "ID", "coord": {"lon": 124.597801, "lat": -9.6086}}, {"id": 7439770, "name": "Onan Ganjang Satu", "state": "", "country": "ID", "coord": {"lon": 98.629601, "lat": 2.1581}}, {"id": 7440466, "name": "Bandara Bulankulama", "state": "", "country": "LK", "coord": {"lon": 80.387001, "lat": 8.3623}}, {"id": 7440915, "name": "Kuzhu", "state": "", "country": "CN", "coord": {"lon": 116.21228, "lat": 26.90287}}, {"id": 7441574, "name": "Puthoor", "state": "", "country": "LK", "coord": {"lon": 81.676598, "lat": 7.7031}}, {"id": 7443305, "name": "San Miguel", "state": "", "country": "PH", "coord": {"lon": 124.233498, "lat": 9.9603}}, {"id": 7446186, "name": "Wangcang", "state": "", "country": "CN", "coord": {"lon": 103.599953, "lat": 33.950722}}, {"id": 7446191, "name": "Ni\u2019ao", "state": "", "country": "CN", "coord": {"lon": 103.550522, "lat": 33.960831}}, {"id": 7446195, "name": "Kaba", "state": "", "country": "CN", "coord": {"lon": 103.494843, "lat": 33.98035}}, {"id": 7446231, "name": "Sigou", "state": "", "country": "CN", "coord": {"lon": 104.079483, "lat": 34.36562}}, {"id": 7446247, "name": "Shili", "state": "", "country": "CN", "coord": {"lon": 103.953133, "lat": 34.423012}}, {"id": 7446262, "name": "Chabu", "state": "", "country": "CN", "coord": {"lon": 104.095161, "lat": 34.487061}}, {"id": 7446266, "name": "Daogao", "state": "", "country": "CN", "coord": {"lon": 103.124222, "lat": 34.50267}}, {"id": 7446277, "name": "Nalang", "state": "", "country": "CN", "coord": {"lon": 103.700523, "lat": 34.5154}}, {"id": 7446294, "name": "Xijiang", "state": "", "country": "CN", "coord": {"lon": 104.003403, "lat": 34.565899}}, {"id": 7446307, "name": "Chubu", "state": "", "country": "CN", "coord": {"lon": 103.291847, "lat": 34.61808}}, {"id": 7446319, "name": "Xiaozhai", "state": "", "country": "CN", "coord": {"lon": 104.013077, "lat": 34.639141}}, {"id": 7446325, "name": "Yangyong", "state": "", "country": "CN", "coord": {"lon": 103.478081, "lat": 34.648529}}, {"id": 7446328, "name": "Liushun", "state": "", "country": "CN", "coord": {"lon": 103.541389, "lat": 34.6492}}, {"id": 7446337, "name": "Longyuan", "state": "", "country": "CN", "coord": {"lon": 103.776161, "lat": 34.654461}}, {"id": 7446417, "name": "Nawu", "state": "", "country": "CN", "coord": {"lon": 102.913368, "lat": 34.954029}}, {"id": 7446428, "name": "Lianlu", "state": "", "country": "CN", "coord": {"lon": 103.745598, "lat": 35.014359}}, {"id": 7446447, "name": "Bajiao", "state": "", "country": "CN", "coord": {"lon": 103.69693, "lat": 35.028252}}, {"id": 7446453, "name": "Kangduo", "state": "", "country": "CN", "coord": {"lon": 103.524513, "lat": 35.034309}}, {"id": 7446480, "name": "Zuogaiduoma", "state": "", "country": "CN", "coord": {"lon": 103.125992, "lat": 35.05587}}, {"id": 7446489, "name": "Tianjiahe", "state": "", "country": "CN", "coord": {"lon": 103.941368, "lat": 35.061909}}, {"id": 7446494, "name": "Yangzhuang", "state": "", "country": "CN", "coord": {"lon": 104.0392, "lat": 35.067181}}, {"id": 7446846, "name": "Zhiping Shezu", "state": "", "country": "CN", "coord": {"lon": 116.516907, "lat": 26.039021}}, {"id": 7446847, "name": "Xianan", "state": "", "country": "CN", "coord": {"lon": 116.658974, "lat": 26.26663}}, {"id": 7454440, "name": "Yangxi", "state": "", "country": "CN", "coord": {"lon": 116.39254, "lat": 26.62191}}, {"id": 7454443, "name": "Toupi", "state": "", "country": "CN", "coord": {"lon": 116.19268, "lat": 26.75605}}, {"id": 7455120, "name": "Banjar Dukuh", "state": "", "country": "ID", "coord": {"lon": 115.551598, "lat": -8.2819}}, {"id": 7455127, "name": "Banjar Kangkaang", "state": "", "country": "ID", "coord": {"lon": 115.612297, "lat": -8.3571}}, {"id": 7455129, "name": "Banjar Buayang", "state": "", "country": "ID", "coord": {"lon": 115.613197, "lat": -8.3464}}, {"id": 7455132, "name": "Banjar Kelodan", "state": "", "country": "ID", "coord": {"lon": 115.597504, "lat": -8.3416}}, {"id": 7455144, "name": "Penggakrajeng", "state": "", "country": "ID", "coord": {"lon": 115.617996, "lat": -8.3242}}, {"id": 7455249, "name": "Biaslantang Kaler", "state": "", "country": "ID", "coord": {"lon": 115.628799, "lat": -8.336}}, {"id": 7455385, "name": "Kopang", "state": "", "country": "ID", "coord": {"lon": 116.176598, "lat": -8.4339}}, {"id": 7455433, "name": "Loloan", "state": "", "country": "ID", "coord": {"lon": 116.439499, "lat": -8.2562}}, {"id": 7455505, "name": "Lelongken", "state": "", "country": "ID", "coord": {"lon": 116.496597, "lat": -8.3226}}, {"id": 7455548, "name": "Karanggedang", "state": "", "country": "ID", "coord": {"lon": 116.398804, "lat": -8.2227}}, {"id": 7455558, "name": "Anyar", "state": "", "country": "ID", "coord": {"lon": 116.425003, "lat": -8.2301}}, {"id": 7455927, "name": "Pali", "state": "", "country": "ID", "coord": {"lon": 118.309303, "lat": -8.3765}}, {"id": 7455970, "name": "Nusajaya", "state": "", "country": "ID", "coord": {"lon": 118.306396, "lat": -8.4817}}, {"id": 7455976, "name": "Lanci Satu", "state": "", "country": "ID", "coord": {"lon": 118.317596, "lat": -8.4932}}, {"id": 7455977, "name": "Sumur Lima", "state": "", "country": "ID", "coord": {"lon": 118.299103, "lat": -8.4939}}, {"id": 7455978, "name": "Samangawah", "state": "", "country": "ID", "coord": {"lon": 118.299103, "lat": -8.4955}}, {"id": 7456016, "name": "Komerda", "state": "", "country": "ID", "coord": {"lon": 119.410301, "lat": -9.6324}}, {"id": 7456052, "name": "Kalimbukuni", "state": "", "country": "ID", "coord": {"lon": 119.436096, "lat": -9.6362}}, {"id": 7456056, "name": "Tibutana", "state": "", "country": "ID", "coord": {"lon": 119.425903, "lat": -9.6337}}, {"id": 7456058, "name": "Tebara", "state": "", "country": "ID", "coord": {"lon": 119.430801, "lat": -9.6372}}, {"id": 7456076, "name": "Wailiang", "state": "", "country": "ID", "coord": {"lon": 119.406998, "lat": -9.6355}}, {"id": 7456087, "name": "Kotawaikabubak", "state": "", "country": "ID", "coord": {"lon": 119.422897, "lat": -9.6376}}, {"id": 7456120, "name": "Puukadelu", "state": "", "country": "ID", "coord": {"lon": 119.409798, "lat": -9.6508}}, {"id": 7456186, "name": "Litibakul", "state": "", "country": "ID", "coord": {"lon": 119.435997, "lat": -9.6996}}, {"id": 7456191, "name": "Barabedang", "state": "", "country": "ID", "coord": {"lon": 119.4562, "lat": -9.6936}}, {"id": 7456203, "name": "Toupopu", "state": "", "country": "ID", "coord": {"lon": 119.471703, "lat": -9.7028}}, {"id": 7456223, "name": "Waimadaka", "state": "", "country": "ID", "coord": {"lon": 119.410797, "lat": -9.7083}}, {"id": 7456236, "name": "Praimutung", "state": "", "country": "ID", "coord": {"lon": 119.4562, "lat": -9.7232}}, {"id": 7456239, "name": "Lahihagalang", "state": "", "country": "ID", "coord": {"lon": 119.4534, "lat": -9.722}}, {"id": 7456254, "name": "Maledona", "state": "", "country": "ID", "coord": {"lon": 119.385201, "lat": -9.723}}, {"id": 7456298, "name": "Padedewatu", "state": "", "country": "ID", "coord": {"lon": 119.401199, "lat": -9.7481}}, {"id": 7456409, "name": "Tarimbang", "state": "", "country": "ID", "coord": {"lon": 119.953621, "lat": -9.97014}}, {"id": 7456416, "name": "Medina De Rabat", "state": "", "country": "MA", "coord": {"lon": -6.8359, "lat": 34.025421}}, {"id": 7456472, "name": "Laiponda", "state": "", "country": "ID", "coord": {"lon": 119.896301, "lat": -9.8625}}, {"id": 7456514, "name": "Tanarara", "state": "", "country": "ID", "coord": {"lon": 119.544601, "lat": -9.6336}}, {"id": 7456525, "name": "Tamanaimahu", "state": "", "country": "ID", "coord": {"lon": 119.6008, "lat": -9.6379}}, {"id": 7456618, "name": "Prailangina", "state": "", "country": "ID", "coord": {"lon": 119.745361, "lat": -9.64852}}, {"id": 7456685, "name": "Ncera", "state": "", "country": "ID", "coord": {"lon": 118.744598, "lat": -8.6349}}, {"id": 7456688, "name": "Lido", "state": "", "country": "ID", "coord": {"lon": 118.7341, "lat": -8.6294}}, {"id": 7456691, "name": "Ompuboi", "state": "", "country": "ID", "coord": {"lon": 118.710197, "lat": -8.6284}}, {"id": 7456712, "name": "Simpasai", "state": "", "country": "ID", "coord": {"lon": 118.665398, "lat": -8.6915}}, {"id": 7456720, "name": "Waworada", "state": "", "country": "ID", "coord": {"lon": 118.688103, "lat": -8.6696}}, {"id": 7456731, "name": "Karano", "state": "", "country": "ID", "coord": {"lon": 118.729797, "lat": -8.7076}}, {"id": 7457829, "name": "Battalgazi", "state": "", "country": "TR", "coord": {"lon": 38.36491, "lat": 38.424541}}, {"id": 7457962, "name": "Valyayevka", "state": "", "country": "RU", "coord": {"lon": 44.3106, "lat": 53.271801}}, {"id": 7458374, "name": "Prigorodnyy", "state": "", "country": "RU", "coord": {"lon": 78.683098, "lat": 53.001801}}, {"id": 7458389, "name": "Kusak", "state": "", "country": "RU", "coord": {"lon": 78.933701, "lat": 53.223801}}, {"id": 7458779, "name": "Watuka", "state": "", "country": "ID", "coord": {"lon": 120.710602, "lat": -8.7552}}, {"id": 7458786, "name": "Waekolong", "state": "", "country": "ID", "coord": {"lon": 120.729301, "lat": -8.7581}}, {"id": 7458804, "name": "Gurung", "state": "", "country": "ID", "coord": {"lon": 120.638298, "lat": -8.7715}}, {"id": 7458820, "name": "Waerana", "state": "", "country": "ID", "coord": {"lon": 120.715202, "lat": -8.7818}}, {"id": 7458827, "name": "Kipo", "state": "", "country": "ID", "coord": {"lon": 120.677399, "lat": -8.776}}, {"id": 7458850, "name": "Munde", "state": "", "country": "ID", "coord": {"lon": 120.737297, "lat": -8.7926}}, {"id": 7458878, "name": "Sere", "state": "", "country": "ID", "coord": {"lon": 120.667999, "lat": -8.8161}}, {"id": 7458895, "name": "Muting", "state": "", "country": "ID", "coord": {"lon": 120.69886, "lat": -8.8488}}, {"id": 7459043, "name": "Verkhnyaya Koloniya", "state": "", "country": "RU", "coord": {"lon": 87.286201, "lat": 53.796001}}, {"id": 7459175, "name": "Verkhniy Kaltan", "state": "", "country": "RU", "coord": {"lon": 87.2752, "lat": 53.499401}}, {"id": 7459207, "name": "Shilovka", "state": "", "country": "RU", "coord": {"lon": 87.112, "lat": 53.426102}}, {"id": 7460100, "name": "Mikulino", "state": "", "country": "RU", "coord": {"lon": 42.446201, "lat": 58.903099}}, {"id": 7460164, "name": "Fominskoye", "state": "", "country": "RU", "coord": {"lon": 42.461102, "lat": 58.8629}}, {"id": 7460667, "name": "Krutsy", "state": "", "country": "RU", "coord": {"lon": 42.358799, "lat": 58.337502}}, {"id": 7460721, "name": "Savino", "state": "", "country": "RU", "coord": {"lon": 42.253101, "lat": 58.2481}}, {"id": 7461917, "name": "Boganatar", "state": "", "country": "ID", "coord": {"lon": 122.640503, "lat": -8.5043}}, {"id": 7461922, "name": "Sukutukang", "state": "", "country": "ID", "coord": {"lon": 122.713898, "lat": -8.5034}}, {"id": 7462530, "name": "Welamosa", "state": "", "country": "ID", "coord": {"lon": 121.717628, "lat": -8.6058}}, {"id": 7462533, "name": "Aelande", "state": "", "country": "ID", "coord": {"lon": 121.725197, "lat": -8.59565}}, {"id": 7462614, "name": "Wolomuku", "state": "", "country": "ID", "coord": {"lon": 121.740417, "lat": -8.6042}}, {"id": 7462615, "name": "Londe", "state": "", "country": "ID", "coord": {"lon": 121.728561, "lat": -8.60621}}, {"id": 7463778, "name": "Ritapiret", "state": "", "country": "ID", "coord": {"lon": 122.174599, "lat": -8.6718}}, {"id": 7463779, "name": "Halat", "state": "", "country": "ID", "coord": {"lon": 122.207298, "lat": -8.6832}}, {"id": 7463788, "name": "Natarleba", "state": "", "country": "ID", "coord": {"lon": 122.541, "lat": -8.5139}}, {"id": 7463809, "name": "Talibura", "state": "", "country": "ID", "coord": {"lon": 122.525497, "lat": -8.5246}}, {"id": 7463834, "name": "Hila", "state": "", "country": "ID", "coord": {"lon": 122.612999, "lat": -8.5628}}, {"id": 7463867, "name": "Wolometang", "state": "", "country": "ID", "coord": {"lon": 122.597099, "lat": -8.5873}}, {"id": 7463872, "name": "Natarmage", "state": "", "country": "ID", "coord": {"lon": 122.566704, "lat": -8.6031}}, {"id": 7463885, "name": "Ewa", "state": "", "country": "ID", "coord": {"lon": 122.507301, "lat": -8.6235}}, {"id": 7463907, "name": "Boru", "state": "", "country": "ID", "coord": {"lon": 122.7108, "lat": -8.5252}}, {"id": 7463931, "name": "Duang", "state": "", "country": "ID", "coord": {"lon": 122.727501, "lat": -8.5577}}, {"id": 7463945, "name": "Hewa", "state": "", "country": "ID", "coord": {"lon": 122.705704, "lat": -8.5935}}, {"id": 7463951, "name": "Watubuku", "state": "", "country": "ID", "coord": {"lon": 122.742996, "lat": -8.605}}, {"id": 7463958, "name": "Kokang", "state": "", "country": "ID", "coord": {"lon": 122.6847, "lat": -8.6158}}, {"id": 7466647, "name": "Gaolong", "state": "", "country": "CN", "coord": {"lon": 115.721947, "lat": 26.05625}}, {"id": 7466650, "name": "Fenkeng", "state": "", "country": "CN", "coord": {"lon": 115.66555, "lat": 26.12859}}, {"id": 7466651, "name": "Meiyao", "state": "", "country": "CN", "coord": {"lon": 115.757629, "lat": 26.3986}}, {"id": 7466652, "name": "Dagu", "state": "", "country": "CN", "coord": {"lon": 115.786163, "lat": 26.734489}}, {"id": 7466654, "name": "Chexi", "state": "", "country": "CN", "coord": {"lon": 115.58136, "lat": 26.04784}}, {"id": 7466658, "name": "Ma\u2019an", "state": "", "country": "CN", "coord": {"lon": 115.547684, "lat": 26.20883}}, {"id": 7466659, "name": "Ge\u2019ao", "state": "", "country": "CN", "coord": {"lon": 115.72348, "lat": 26.26235}}, {"id": 7466660, "name": "Gangmian", "state": "", "country": "CN", "coord": {"lon": 115.863892, "lat": 26.08782}}, {"id": 7466661, "name": "Dingbei", "state": "", "country": "CN", "coord": {"lon": 115.8535, "lat": 26.259239}}, {"id": 7466788, "name": "Ban Thon Khlong", "state": "", "country": "TH", "coord": {"lon": 100.397827, "lat": 6.92158}}, {"id": 7469572, "name": "Shenkou", "state": "", "country": "CN", "coord": {"lon": 117.536369, "lat": 26.16424}}, {"id": 7469573, "name": "Qiujiang", "state": "", "country": "CN", "coord": {"lon": 117.774879, "lat": 26.39267}}, {"id": 7472706, "name": "Yuanqian", "state": "", "country": "CN", "coord": {"lon": 115.166992, "lat": 26.801041}}, {"id": 7472710, "name": "Shunfeng", "state": "", "country": "CN", "coord": {"lon": 115.029266, "lat": 26.189039}}, {"id": 7472713, "name": "Zhonglong", "state": "", "country": "CN", "coord": {"lon": 115.168983, "lat": 26.70718}}, {"id": 7472715, "name": "Baoshan", "state": "", "country": "CN", "coord": {"lon": 115.006783, "lat": 26.34848}}, {"id": 7472716, "name": "Sanxixiang", "state": "", "country": "CN", "coord": {"lon": 115.299721, "lat": 26.10054}}, {"id": 7472717, "name": "Shangyi", "state": "", "country": "CN", "coord": {"lon": 115.122902, "lat": 26.598129}}, {"id": 7472737, "name": "\u1e28ayy as Sal\u0101m", "state": "", "country": "YE", "coord": {"lon": 49.130562, "lat": 14.53314}}, {"id": 7473632, "name": "Pam", "state": "", "country": "ID", "coord": {"lon": 120.748802, "lat": -1.398}}, {"id": 7473831, "name": "Palue", "state": "", "country": "ID", "coord": {"lon": 122.707001, "lat": -8.4691}}, {"id": 7475283, "name": "\u1e28\u0101rat al Bust\u0101n", "state": "", "country": "YE", "coord": {"lon": 42.951511, "lat": 14.79922}}, {"id": 7486211, "name": "G\u0101ll\u0101m\u0101ri", "state": "", "country": "BD", "coord": {"lon": 89.548798, "lat": 22.80106}}, {"id": 7487343, "name": "Kristopur", "state": "", "country": "BD", "coord": {"lon": 88.398262, "lat": 26.01403}}, {"id": 7488262, "name": "L\u0101lb\u0101gkh\u0101m\u0101r", "state": "", "country": "BD", "coord": {"lon": 88.627602, "lat": 25.636}}, {"id": 7491133, "name": "Zhangcaizhuang", "state": "", "country": "CN", "coord": {"lon": 112.327103, "lat": 39.28796}}, {"id": 7493960, "name": "Erzurum Havaalan\u0131", "state": "", "country": "TR", "coord": {"lon": 41.17226, "lat": 39.9562}}, {"id": 7498240, "name": "West Jerusalem", "state": "", "country": "IL", "coord": {"lon": 35.219608, "lat": 31.78199}}, {"id": 7498584, "name": "Centro Hist\u00f3rico de Petropolis", "state": "", "country": "BR", "coord": {"lon": -43.182339, "lat": -22.509069}}, {"id": 7499201, "name": "Port Perry", "state": "", "country": "CA", "coord": {"lon": -78.944412, "lat": 44.106758}}, {"id": 7504453, "name": "Donghu", "state": "", "country": "CN", "coord": {"lon": 113.283127, "lat": 23.40624}}, {"id": 7505667, "name": "Ban San Ma Faen", "state": "", "country": "TH", "coord": {"lon": 99.492081, "lat": 19.548389}}, {"id": 7506701, "name": "Xingjiang", "state": "", "country": "CN", "coord": {"lon": 115.771767, "lat": 26.49095}}, {"id": 7506702, "name": "Chengdong", "state": "", "country": "CN", "coord": {"lon": 117.619034, "lat": 26.24563}}, {"id": 7506758, "name": "BloomingtonMn", "state": "", "country": "US", "coord": {"lon": -93.298431, "lat": 44.840961}}, {"id": 7508952, "name": "Fenghuangcheng", "state": "", "country": "CN", "coord": {"lon": 112.17585, "lat": 39.75724}}, {"id": 7508988, "name": "Hougaoshizhuang", "state": "", "country": "CN", "coord": {"lon": 112.080276, "lat": 39.827202}}, {"id": 7508989, "name": "Jigaodeng", "state": "", "country": "CN", "coord": {"lon": 112.42717, "lat": 39.486771}}, {"id": 7508990, "name": "Xijiazhai", "state": "", "country": "CN", "coord": {"lon": 112.44767, "lat": 39.462952}}, {"id": 7509269, "name": "Gucheng", "state": "", "country": "CN", "coord": {"lon": 112.934143, "lat": 39.440399}}, {"id": 7510867, "name": "Suk Samran", "state": "", "country": "TH", "coord": {"lon": 98.429031, "lat": 9.34458}}, {"id": 7510868, "name": "Wiang Nuea", "state": "", "country": "TH", "coord": {"lon": 98.446442, "lat": 19.379721}}, {"id": 7510869, "name": "Ao Luek", "state": "", "country": "TH", "coord": {"lon": 98.721169, "lat": 8.37803}}, {"id": 7510870, "name": "Ban Takhun", "state": "", "country": "TH", "coord": {"lon": 98.884499, "lat": 8.90364}}, {"id": 7510871, "name": "Takuk Nuea", "state": "", "country": "TH", "coord": {"lon": 98.978607, "lat": 9.23894}}, {"id": 7510872, "name": "Wiang Nong Long", "state": "", "country": "TH", "coord": {"lon": 98.749672, "lat": 18.420429}}, {"id": 7510873, "name": "Tham Phannara", "state": "", "country": "TH", "coord": {"lon": 99.395172, "lat": 8.42044}}, {"id": 7510874, "name": "Chai Buri", "state": "", "country": "TH", "coord": {"lon": 99.076309, "lat": 8.46222}}, {"id": 7510875, "name": "Phrasaeng", "state": "", "country": "TH", "coord": {"lon": 99.247559, "lat": 8.56781}}, {"id": 7510876, "name": "Pathio", "state": "", "country": "TH", "coord": {"lon": 99.318199, "lat": 10.70908}}, {"id": 7510877, "name": "Suan Phueng", "state": "", "country": "TH", "coord": {"lon": 99.340111, "lat": 13.54472}}, {"id": 7510878, "name": "Nong Prue", "state": "", "country": "TH", "coord": {"lon": 99.450333, "lat": 14.61144}}, {"id": 7510879, "name": "Mae Poen", "state": "", "country": "TH", "coord": {"lon": 99.46981, "lat": 15.65789}}, {"id": 7510880, "name": "Pang Sila Thong", "state": "", "country": "TH", "coord": {"lon": 99.489059, "lat": 16.09631}}, {"id": 7510881, "name": "Kosamphi Nakhon", "state": "", "country": "TH", "coord": {"lon": 99.349747, "lat": 16.63131}}, {"id": 7510882, "name": "Ban Thi", "state": "", "country": "TH", "coord": {"lon": 99.116608, "lat": 18.631861}}, {"id": 7510883, "name": "Manang", "state": "", "country": "TH", "coord": {"lon": 99.921608, "lat": 6.99933}}, {"id": 7510884, "name": "Ratsada", "state": "", "country": "TH", "coord": {"lon": 99.63353, "lat": 7.97467}}, {"id": 7510885, "name": "Phra Phrom", "state": "", "country": "TH", "coord": {"lon": 99.900917, "lat": 8.33911}}, {"id": 7510886, "name": "Chulabhorn", "state": "", "country": "TH", "coord": {"lon": 99.869469, "lat": 8.07597}}, {"id": 7510887, "name": "Chang Klang", "state": "", "country": "TH", "coord": {"lon": 99.562492, "lat": 8.37094}}, {"id": 7510888, "name": "Phrom Khiri", "state": "", "country": "TH", "coord": {"lon": 99.822746, "lat": 8.52333}}, {"id": 7510889, "name": "Nopphitam", "state": "", "country": "TH", "coord": {"lon": 99.752724, "lat": 8.71928}}, {"id": 7510890, "name": "Chom Bueng", "state": "", "country": "TH", "coord": {"lon": 99.591858, "lat": 13.61964}}, {"id": 7510891, "name": "Nong Yasai", "state": "", "country": "TH", "coord": {"lon": 99.910728, "lat": 14.77988}}, {"id": 7510892, "name": "Huai Khot", "state": "", "country": "TH", "coord": {"lon": 99.616608, "lat": 15.29094}}, {"id": 7510893, "name": "Lan Sak", "state": "", "country": "TH", "coord": {"lon": 99.576057, "lat": 15.45289}}, {"id": 7510894, "name": "Chum Ta Bong", "state": "", "country": "TH", "coord": {"lon": 99.552307, "lat": 15.63194}}, {"id": 7510895, "name": "Mae Wong", "state": "", "country": "TH", "coord": {"lon": 99.518639, "lat": 15.78164}}, {"id": 7510896, "name": "Bueng Samakkhi", "state": "", "country": "TH", "coord": {"lon": 99.97525, "lat": 16.187281}}, {"id": 7510897, "name": "Lan Krabue", "state": "", "country": "TH", "coord": {"lon": 99.848892, "lat": 16.600031}}, {"id": 7510898, "name": "Ban Dan Lan Hoi", "state": "", "country": "TH", "coord": {"lon": 99.574966, "lat": 17.00683}}, {"id": 7510899, "name": "Mae Chai", "state": "", "country": "TH", "coord": {"lon": 99.814003, "lat": 19.34597}}, {"id": 7510900, "name": "Phu Kam Yao", "state": "", "country": "TH", "coord": {"lon": 99.970108, "lat": 19.2705}}, {"id": 7510901, "name": "Chaloem Phra Kiat", "state": "", "country": "TH", "coord": {"lon": 100.035812, "lat": 8.17689}}, {"id": 7510902, "name": "Khai Bang Rachan", "state": "", "country": "TH", "coord": {"lon": 100.310219, "lat": 14.79983}}, {"id": 7510903, "name": "Sawaengha", "state": "", "country": "TH", "coord": {"lon": 100.324806, "lat": 14.75186}}, {"id": 7510904, "name": "Doem Bang Nang Buat", "state": "", "country": "TH", "coord": {"lon": 100.097717, "lat": 14.85428}}, {"id": 7510905, "name": "Chumsaeng", "state": "", "country": "TH", "coord": {"lon": 100.307953, "lat": 15.89152}}, {"id": 7510906, "name": "Kao Liao", "state": "", "country": "TH", "coord": {"lon": 100.07914, "lat": 15.85053}}, {"id": 7510907, "name": "Bueng Na Rang", "state": "", "country": "TH", "coord": {"lon": 100.125313, "lat": 16.1712}}, {"id": 7510908, "name": "Wachira Barami", "state": "", "country": "TH", "coord": {"lon": 100.144638, "lat": 16.52314}}, {"id": 7510909, "name": "Thong Saen Khan", "state": "", "country": "TH", "coord": {"lon": 100.331459, "lat": 17.47065}}, {"id": 7510910, "name": "Laplae", "state": "", "country": "TH", "coord": {"lon": 100.038918, "lat": 17.652109}}, {"id": 7510911, "name": "Nong Suea", "state": "", "country": "TH", "coord": {"lon": 100.825027, "lat": 14.13478}}, {"id": 7510912, "name": "Chaloem Phra Kiat", "state": "", "country": "TH", "coord": {"lon": 100.908249, "lat": 14.6115}}, {"id": 7510913, "name": "Tha Ruea", "state": "", "country": "TH", "coord": {"lon": 100.728203, "lat": 14.55125}}, {"id": 7510914, "name": "Chat Trakan", "state": "", "country": "TH", "coord": {"lon": 100.60022, "lat": 17.27606}}, {"id": 7510915, "name": "Na Muen", "state": "", "country": "TH", "coord": {"lon": 100.65847, "lat": 18.190001}}, {"id": 7510916, "name": "Santi Suk", "state": "", "country": "TH", "coord": {"lon": 100.941704, "lat": 18.9137}}, {"id": 7510917, "name": "Phu Phiang", "state": "", "country": "TH", "coord": {"lon": 100.800308, "lat": 18.738029}}, {"id": 7510919, "name": "Thung Yang Daeng", "state": "", "country": "TH", "coord": {"lon": 101.426498, "lat": 6.61822}}, {"id": 7510920, "name": "Nikhom Phattana", "state": "", "country": "TH", "coord": {"lon": 101.202728, "lat": 12.82736}}, {"id": 7510921, "name": "Ko Chan", "state": "", "country": "TH", "coord": {"lon": 101.334579, "lat": 13.41658}}, {"id": 7510922, "name": "Ban Bueng", "state": "", "country": "TH", "coord": {"lon": 101.112137, "lat": 13.311}}, {"id": 7510923, "name": "Si Mahosot", "state": "", "country": "TH", "coord": {"lon": 101.405006, "lat": 13.8878}}, {"id": 7510924, "name": "Bang Nam Priao", "state": "", "country": "TH", "coord": {"lon": 101.053062, "lat": 13.84739}}, {"id": 7510925, "name": "Khlong Khuean", "state": "", "country": "TH", "coord": {"lon": 101.163528, "lat": 13.79131}}, {"id": 7510926, "name": "Wang Muang", "state": "", "country": "TH", "coord": {"lon": 101.134361, "lat": 14.84536}}, {"id": 7510927, "name": "Lam Sonthi", "state": "", "country": "TH", "coord": {"lon": 101.363808, "lat": 15.30144}}, {"id": 7510928, "name": "Tha Luang", "state": "", "country": "TH", "coord": {"lon": 101.106644, "lat": 15.06864}}, {"id": 7510929, "name": "Phakdi Chumphon", "state": "", "country": "TH", "coord": {"lon": 101.422279, "lat": 15.90517}}, {"id": 7510930, "name": "Bueng Sam Phan", "state": "", "country": "TH", "coord": {"lon": 101.00853, "lat": 15.79647}}, {"id": 7510931, "name": "Kapho", "state": "", "country": "TH", "coord": {"lon": 101.534264, "lat": 6.55968}}, {"id": 7510932, "name": "Khao Chamao", "state": "", "country": "TH", "coord": {"lon": 101.685112, "lat": 12.97586}}, {"id": 7510933, "name": "Tha Takiap", "state": "", "country": "TH", "coord": {"lon": 101.611328, "lat": 13.44547}}, {"id": 7510934, "name": "Wang Nam Khiao", "state": "", "country": "TH", "coord": {"lon": 101.86113, "lat": 14.41801}}, {"id": 7510935, "name": "Prachamtakham", "state": "", "country": "TH", "coord": {"lon": 101.51503, "lat": 14.06442}}, {"id": 7510936, "name": "Sikhio", "state": "", "country": "TH", "coord": {"lon": 101.723137, "lat": 14.89225}}, {"id": 7510937, "name": "Sap Yai", "state": "", "country": "TH", "coord": {"lon": 101.616707, "lat": 15.63739}}, {"id": 7510938, "name": "Nong Bua Daeng", "state": "", "country": "TH", "coord": {"lon": 101.802307, "lat": 16.08256}}, {"id": 7510939, "name": "Phu Pha Man", "state": "", "country": "TH", "coord": {"lon": 101.904472, "lat": 16.64422}}, {"id": 7510940, "name": "Erawan", "state": "", "country": "TH", "coord": {"lon": 101.953819, "lat": 17.301809}}, {"id": 7510941, "name": "Phu Luang", "state": "", "country": "TH", "coord": {"lon": 101.663918, "lat": 17.1392}}, {"id": 7510942, "name": "Pong Nam Ron", "state": "", "country": "TH", "coord": {"lon": 102.262253, "lat": 12.90575}}, {"id": 7510943, "name": "Khao Khitchakut", "state": "", "country": "TH", "coord": {"lon": 102.115143, "lat": 12.80481}}, {"id": 7510944, "name": "Soi Dao", "state": "", "country": "TH", "coord": {"lon": 102.21402, "lat": 13.12894}}, {"id": 7510945, "name": "Wang Sombun", "state": "", "country": "TH", "coord": {"lon": 102.191048, "lat": 13.36176}}, {"id": 7510946, "name": "Nong Bunnak", "state": "", "country": "TH", "coord": {"lon": 102.365639, "lat": 14.73947}}, {"id": 7510947, "name": "Chaloem Phra Kiat", "state": "", "country": "TH", "coord": {"lon": 102.270332, "lat": 15.00508}}, {"id": 7510948, "name": "Kaeng Sanam Nang", "state": "", "country": "TH", "coord": {"lon": 102.254562, "lat": 15.74958}}, {"id": 7510949, "name": "Ban Lueam", "state": "", "country": "TH", "coord": {"lon": 102.129219, "lat": 15.60889}}, {"id": 7510950, "name": "Noen Sa-nga", "state": "", "country": "TH", "coord": {"lon": 102.001282, "lat": 15.56428}}, {"id": 7510951, "name": "Khok Pho Chai", "state": "", "country": "TH", "coord": {"lon": 102.399002, "lat": 16.08375}}, {"id": 7510952, "name": "Na Wang", "state": "", "country": "TH", "coord": {"lon": 102.0783, "lat": 17.32444}}, {"id": 7510953, "name": "Suwanna Khuha", "state": "", "country": "TH", "coord": {"lon": 102.279892, "lat": 17.56292}}, {"id": 7510954, "name": "Ban Phue", "state": "", "country": "TH", "coord": {"lon": 102.472557, "lat": 17.68742}}, {"id": 7510955, "name": "Sangkhom", "state": "", "country": "TH", "coord": {"lon": 102.273643, "lat": 18.06389}}, {"id": 7510956, "name": "Non Din Daeng", "state": "", "country": "TH", "coord": {"lon": 102.748138, "lat": 14.31353}}, {"id": 7510957, "name": "Pa Kham", "state": "", "country": "TH", "coord": {"lon": 102.725578, "lat": 14.43817}}, {"id": 7510958, "name": "Chaloem Phra Kiat", "state": "", "country": "TH", "coord": {"lon": 102.924751, "lat": 14.55839}}, {"id": 7510959, "name": "Lam Thamen Chai", "state": "", "country": "TH", "coord": {"lon": 102.91803, "lat": 15.3535}}, {"id": 7510960, "name": "Mueang Yang", "state": "", "country": "TH", "coord": {"lon": 102.898666, "lat": 15.42425}}, {"id": 7510961, "name": "Non Daeng", "state": "", "country": "TH", "coord": {"lon": 102.540253, "lat": 15.41061}}, {"id": 7510962, "name": "Pueai Noi", "state": "", "country": "TH", "coord": {"lon": 102.907669, "lat": 15.86978}}, {"id": 7510963, "name": "Ban Mai Chaiyaphot", "state": "", "country": "TH", "coord": {"lon": 102.833313, "lat": 15.57361}}, {"id": 7510964, "name": "Non Sila", "state": "", "country": "TH", "coord": {"lon": 102.66983, "lat": 15.97439}}, {"id": 7510965, "name": "Phra Yuen", "state": "", "country": "TH", "coord": {"lon": 102.648888, "lat": 16.32378}}, {"id": 7510966, "name": "Ubonratana", "state": "", "country": "TH", "coord": {"lon": 102.632439, "lat": 16.752701}},